Time,header.seq,header.stamp.secs,header.stamp.nsecs,header.frame_id,orientation.x,orientation.y,orientation.z,orientation.w,orientation_covariance_0,orientation_covariance_1,orientation_covariance_2,orientation_covariance_3,orientation_covariance_4,orientation_covariance_5,orientation_covariance_6,orientation_covariance_7,orientation_covariance_8,angular_velocity.x,angular_velocity.y,angular_velocity.z,angular_velocity_covariance_0,angular_velocity_covariance_1,angular_velocity_covariance_2,angular_velocity_covariance_3,angular_velocity_covariance_4,angular_velocity_covariance_5,angular_velocity_covariance_6,angular_velocity_covariance_7,angular_velocity_covariance_8,linear_acceleration.x,linear_acceleration.y,linear_acceleration.z,linear_acceleration_covariance_0,linear_acceleration_covariance_1,linear_acceleration_covariance_2,linear_acceleration_covariance_3,linear_acceleration_covariance_4,linear_acceleration_covariance_5,linear_acceleration_covariance_6,linear_acceleration_covariance_7,linear_acceleration_covariance_8
1700026355.9443936,38595,1700026355,924776704,gx5_link,0.6827961802482605,0.09544554352760315,0.18120233714580536,0.7013168334960938,0.01,0.0,0.0,0.0,0.01,0.0,0.0,0.0,0.01,-0.01513304840773344,0.007193590048700571,0.05753353238105774,0.01,0.0,0.0,0.0,0.01,0.0,0.0,0.0,0.01,-1.0472446151316166,-9.466128589856623,-0.5575876689990982,0.01,0.0,0.0,0.0,0.01,0.0,0.0,0.0,0.01
1700026355.9544227,38596,1700026355,934795264,gx5_link,0.6827701926231384,0.0952966958284378,0.18133467435836792,0.7013280987739563,0.01,0.0,0.0,0.0,0.01,0.0,0.0,0.0,0.01,-0.01064551156014204,0.006907017435878515,0.04305611178278923,0.01,0.0,0.0,0.0,0.01,0.0,0.0,0.0,0.01,-0.9704966718200594,-9.371048505714535,-0.5140805722385645,0.01,0.0,0.0,0.0,0.01,0.0,0.0,0.0,0.01
1700026355.9626768,38597,1700026355,944810752,gx5_link,0.6827540993690491,0.09514332562685013,0.1813671737909317,0.7013561725616455,0.01,0.0,0.0,0.0,0.01,0.0,0.0,0.0,0.01,-0.006016527768224478,-0.004040557891130447,0.0317552424967289,0.01,0.0,0.0,0.0,0.01,0.0,0.0,0.0,0.01,-0.9625660249512642,-9.395980117875338,-0.607038805388473,0.01,0.0,0.0,0.0,0.01,0.0,0.0,0.0,0.01
1700026355.9742603,38598,1700026355,954829312,gx5_link,0.6827549338340759,0.09491479396820068,0.18126808106899261,0.7014120221138,0.01,0.0,0.0,0.0,0.01,0.0,0.0,0.0,0.01,-0.006576767656952143,-0.0305958054959774,0.022292889654636383,0.01,0.0,0.0,0.0,0.01,0.0,0.0,0.0,0.01,-0.9615025604382157,-9.413006071478128,-0.6769063780691474,0.01,0.0,0.0,0.0,0.01,0.0,0.0,0.0,0.01
1700026355.9863095,38599,1700026355,964849152,gx5_link,0.6827726364135742,0.09459516406059265,0.18105298280715942,0.7014935612678528,0.01,0.0,0.0,0.0,0.01,0.0,0.0,0.0,0.01,-0.00735210906714201,-0.060525912791490555,0.01648501306772232,0.01,0.0,0.0,0.0,0.01,0.0,0.0,0.0,0.01,-0.973384867542237,-9.412713226011395,-0.6950757295534015,0.01,0.0,0.0,0.0,0.01,0.0,0.0,0.0,0.01
1700026355.9967387,38600,1700026355,974869504,gx5_link,0.6828168034553528,0.09413471817970276,0.18074913322925568,0.7015907764434814,0.01,0.0,0.0,0.0,0.01,0.0,0.0,0.0,0.01,-0.007129273843020201,-0.09388713538646698,0.021393727511167526,0.01,0.0,0.0,0.0,0.01,0.0,0.0,0.0,0.01,-1.0193626287326216,-9.472968080487847,-0.7005917895611375,0.01,0.0,0.0,0.0,0.01,0.0,0.0,0.0,0.01
1700026356.003479,38601,1700026355,984886784,gx5_link,0.6829249262809753,0.09348435699939728,0.18043722212314606,0.7016527652740479,0.01,0.0,0.0,0.0,0.01,0.0,0.0,0.0,0.01,-0.002787089440971613,-0.12443767488002777,0.04324192926287651,0.01,0.0,0.0,0.0,0.01,0.0,0.0,0.0,0.01,-1.0981618785507976,-9.496768642792105,-0.6993956385791301,0.01,0.0,0.0,0.0,0.01,0.0,0.0,0.0,0.01
1700026356.0154593,38602,1700026355,994906112,gx5_link,0.6831007599830627,0.09271146357059479,0.18010172247886658,0.7016704082489014,0.01,0.0,0.0,0.0,0.01,0.0,0.0,0.0,0.01,0.005819873884320259,-0.1477227509021759,0.054334912449121475,0.01,0.0,0.0,0.0,0.01,0.0,0.0,0.0,0.01,-1.177037481540814,-9.362353742605448,-0.6175313021019101,0.01,0.0,0.0,0.0,0.01,0.0,0.0,0.0,0.01
1700026356.0237262,38603,1700026356,4922368,gx5_link,0.6833398342132568,0.09194298833608627,0.17971853911876678,0.7016369700431824,0.01,0.0,0.0,0.0,0.01,0.0,0.0,0.0,0.01,0.015295385383069515,-0.15813592076301575,0.049886178225278854,0.01,0.0,0.0,0.0,0.01,0.0,0.0,0.0,0.01,-1.2740152890630065,-9.2967768163234,-0.42710207108538595,0.01,0.0,0.0,0.0,0.01,0.0,0.0,0.0,0.01
1700026356.0349815,38604,1700026356,14939136,gx5_link,0.6835830807685852,0.09130403399467468,0.17931246757507324,0.701587438583374,0.01,0.0,0.0,0.0,0.01,0.0,0.0,0.0,0.01,0.018979214131832123,-0.14719714224338531,0.02953001856803894,0.01,0.0,0.0,0.0,0.01,0.0,0.0,0.0,0.01,-1.343246500068903,-9.27377938709557,-0.3072272625025362,0.01,0.0,0.0,0.0,0.01,0.0,0.0,0.0,0.01
1700026356.0438004,38605,1700026356,24957440,gx5_link,0.683800220489502,0.09084010124206543,0.1788891702890396,0.7015441060066223,0.01,0.0,0.0,0.0,0.01,0.0,0.0,0.0,0.01,0.01823532208800316,-0.12673531472682953,0.0024653756991028786,0.01,0.0,0.0,0.0,0.01,0.0,0.0,0.0,0.01,-1.396312173693627,-9.30904593078792,-0.2076977246709168,0.01,0.0,0.0,0.0,0.01,0.0,0.0,0.0,0.01
1700026356.0518105,38606,1700026356,34972416,gx5_link,0.6839803457260132,0.09060061722993851,0.17850467562675476,0.7014974355697632,0.01,0.0,0.0,0.0,0.01,0.0,0.0,0.0,0.01,0.016793478280305862,-0.09336268156766891,-0.02182011678814888,0.01,0.0,0.0,0.0,0.01,0.0,0.0,0.0,0.01,-1.395874074537307,-9.39661081699431,-0.10252855525081976,0.01,0.0,0.0,0.0,0.01,0.0,0.0,0.0,0.01
1700026356.0644648,38607,1700026356,44990720,gx5_link,0.6841016411781311,0.0905444473028183,0.17820417881011963,0.7014627456665039,0.01,0.0,0.0,0.0,0.01,0.0,0.0,0.0,0.01,0.015192755497992039,-0.05561775341629982,-0.03727791830897331,0.01,0.0,0.0,0.0,0.01,0.0,0.0,0.0,0.01,-1.3816836366213858,-9.474782436433435,-0.15039394768555647,0.01,0.0,0.0,0.0,0.01,0.0,0.0,0.0,0.01
1700026356.0758667,38608,1700026356,55010560,gx5_link,0.6842072010040283,0.09061823040246964,0.17797519266605377,0.701408326625824,0.01,0.0,0.0,0.0,0.01,0.0,0.0,0.0,0.01,0.022355539724230766,-0.025112278759479523,-0.04304550215601921,0.01,0.0,0.0,0.0,0.01,0.0,0.0,0.0,0.01,-1.339577017775923,-9.601171851074694,-0.23288250787518916,0.01,0.0,0.0,0.0,0.01,0.0,0.0,0.0,0.01
1700026356.0828147,38609,1700026356,65026560,gx5_link,0.6843199729919434,0.09073852002620697,0.17783689498901367,0.7013179063796997,0.01,0.0,0.0,0.0,0.01,0.0,0.0,0.0,0.01,0.032135315239429474,-0.003250159788876772,-0.03485436737537384,0.01,0.0,0.0,0.0,0.01,0.0,0.0,0.0,0.01,-1.3003972461625932,-9.7654692638278,-0.4026189333444461,0.01,0.0,0.0,0.0,0.01,0.0,0.0,0.0,0.01
1700026356.1002269,38610,1700026356,75049984,gx5_link,0.6844057440757751,0.09080329537391663,0.17774902284145355,0.7012481689453125,0.01,0.0,0.0,0.0,0.01,0.0,0.0,0.0,0.01,0.03309665247797966,0.0017722505144774914,-0.0223253071308136,0.01,0.0,0.0,0.0,0.01,0.0,0.0,0.0,0.01,-1.2611875178024172,-9.840150118541716,-0.6255767344567924,0.01,0.0,0.0,0.0,0.01,0.0,0.0,0.0,0.01
1700026356.1053648,38611,1700026356,85068800,gx5_link,0.6844863295555115,0.09077469259500504,0.17763282358646393,0.7012025117874146,0.01,0.0,0.0,0.0,0.01,0.0,0.0,0.0,0.01,0.02913195826113224,-0.012137840501964092,-0.01309390738606453,0.01,0.0,0.0,0.0,0.01,0.0,0.0,0.0,0.01,-1.2410275039575993,-9.890191037517786,-0.7028595152974129,0.01,0.0,0.0,0.0,0.01,0.0,0.0,0.0,0.01
1700026356.115215,38612,1700026356,95083520,gx5_link,0.6845607757568359,0.09067721664905548,0.17746807634830475,0.7011842727661133,0.01,0.0,0.0,0.0,0.01,0.0,0.0,0.0,0.01,0.01942763850092888,-0.028725603595376015,-0.01028185524046421,0.01,0.0,0.0,0.0,0.01,0.0,0.0,0.0,0.01,-1.2260538067094982,-9.91228596494794,-0.6207647310651838,0.01,0.0,0.0,0.0,0.01,0.0,0.0,0.0,0.01
1700026356.130558,38613,1700026356,105101312,gx5_link,0.6846168637275696,0.09054730832576752,0.1772661954164505,0.7011973261833191,0.01,0.0,0.0,0.0,0.01,0.0,0.0,0.0,0.01,0.008729635737836361,-0.04014222323894501,-0.012113014236092567,0.01,0.0,0.0,0.0,0.01,0.0,0.0,0.0,0.01,-1.2180852389831096,-9.898819749653338,-0.5373437762631104,0.01,0.0,0.0,0.0,0.01,0.0,0.0,0.0,0.01
1700026356.1405466,38614,1700026356,118118144,gx5_link,0.6846469640731812,0.0903717577457428,0.17705953121185303,0.7012428641319275,0.01,0.0,0.0,0.0,0.01,0.0,0.0,0.0,0.01,-0.0017032099422067404,-0.04974287003278732,-0.009872715920209885,0.01,0.0,0.0,0.0,0.01,0.0,0.0,0.0,0.01,-1.267045888441801,-9.904558585566281,-0.4690870363125577,0.01,0.0,0.0,0.0,0.01,0.0,0.0,0.0,0.01
1700026356.1559553,38615,1700026356,128136960,gx5_link,0.6846964359283447,0.09011071920394897,0.17685367166996002,0.7012799978256226,0.01,0.0,0.0,0.0,0.01,0.0,0.0,0.0,0.01,-0.005620928946882486,-0.060746293514966965,-0.0008954041404649615,0.01,0.0,0.0,0.0,0.01,0.0,0.0,0.0,0.01,-1.3365823660045861,-9.913850145524739,-0.38128516301251947,0.01,0.0,0.0,0.0,0.01,0.0,0.0,0.0,0.01
1700026356.1560454,38616,1700026356,138151936,gx5_link,0.6847506761550903,0.08983201533555984,0.17667728662490845,0.7013073563575745,0.01,0.0,0.0,0.0,0.01,0.0,0.0,0.0,0.01,-0.010327004827558994,-0.06073238328099251,0.004811722319573164,0.01,0.0,0.0,0.0,0.01,0.0,0.0,0.0,0.01,-1.3908816730774938,-9.873407075977324,-0.2395651091779582,0.01,0.0,0.0,0.0,0.01,0.0,0.0,0.0,0.01
1700026356.1654513,38617,1700026356,148168448,gx5_link,0.6847845315933228,0.08960504084825516,0.17655682563781738,0.7013335824012756,0.01,0.0,0.0,0.0,0.01,0.0,0.0,0.0,0.01,-0.01628568395972252,-0.04883337765932083,0.0017826390685513616,0.01,0.0,0.0,0.0,0.01,0.0,0.0,0.0,0.01,-1.4566316178388892,-9.80172598760128,-0.10467040785141289,0.01,0.0,0.0,0.0,0.01,0.0,0.0,0.0,0.01
1700026356.1831849,38618,1700026356,158192128,gx5_link,0.6848012804985046,0.08949132263660431,0.17648518085479736,0.7013497948646545,0.01,0.0,0.0,0.0,0.01,0.0,0.0,0.0,0.01,-0.017778249457478523,-0.027335921302437782,-0.005910907872021198,0.01,0.0,0.0,0.0,0.01,0.0,0.0,0.0,0.01,-1.5047564740605652,-9.82268694256544,0.005057149246361223,0.01,0.0,0.0,0.0,0.01,0.0,0.0,0.0,0.01
1700026356.185606,38619,1700026356,168206592,gx5_link,0.6847824454307556,0.08949317038059235,0.17652274668216705,0.701358437538147,0.01,0.0,0.0,0.0,0.01,0.0,0.0,0.0,0.01,-0.01765635423362255,0.0011247324291616678,-0.008902914822101593,0.01,0.0,0.0,0.0,0.01,0.0,0.0,0.0,0.01,-1.571122358763218,-9.89171079443097,-0.09968845472037792,0.01,0.0,0.0,0.0,0.01,0.0,0.0,0.0,0.01
1700026356.1950774,38620,1700026356,178222592,gx5_link,0.6847027540206909,0.08953330665826797,0.17658282816410065,0.701416015625,0.01,0.0,0.0,0.0,0.01,0.0,0.0,0.0,0.01,-0.022911928594112396,0.015108829364180565,-0.014963589608669281,0.01,0.0,0.0,0.0,0.01,0.0,0.0,0.0,0.01,-1.607531788880378,-9.922453138697147,-0.27982577136317266,0.01,0.0,0.0,0.0,0.01,0.0,0.0,0.0,0.01
1700026356.2158797,38621,1700026356,188240896,gx5_link,0.6845797896385193,0.08958054333925247,0.17665469646453857,0.7015119194984436,0.01,0.0,0.0,0.0,0.01,0.0,0.0,0.0,0.01,-0.03122328780591488,0.02149098739027977,-0.01557556539773941,0.01,0.0,0.0,0.0,0.01,0.0,0.0,0.0,0.01,-1.5934524101234973,-9.951868618273734,-0.35477767983712255,0.01,0.0,0.0,0.0,0.01,0.0,0.0,0.0,0.01
1700026356.2159195,38622,1700026356,198254592,gx5_link,0.6844301223754883,0.0896645113825798,0.17676308751106262,0.7016199231147766,0.01,0.0,0.0,0.0,0.01,0.0,0.0,0.0,0.01,-0.0361112579703331,0.03261016309261322,-0.01446547731757164,0.01,0.0,0.0,0.0,0.01,0.0,0.0,0.0,0.01,-1.5265746303759515,-9.918334597462415,-0.39069947256781157,0.01,0.0,0.0,0.0,0.01,0.0,0.0,0.0,0.01
1700026356.2250638,38623,1700026356,208269568,gx5_link,0.684244692325592,0.08979598432779312,0.17688557505607605,0.7017531394958496,0.01,0.0,0.0,0.0,0.01,0.0,0.0,0.0,0.01,-0.04001346230506897,0.042557813227176666,-0.01702549308538437,0.01,0.0,0.0,0.0,0.01,0.0,0.0,0.0,0.01,-1.4372114625759422,-9.859069923067093,-0.4409059208365157,0.01,0.0,0.0,0.0,0.01,0.0,0.0,0.0,0.01
1700026356.2361279,38624,1700026356,218286592,gx5_link,0.6840401887893677,0.08994022011756897,0.1769685596227646,0.701913058757782,0.01,0.0,0.0,0.0,0.01,0.0,0.0,0.0,0.01,-0.04386008158326149,0.041811998933553696,-0.022259488701820374,0.01,0.0,0.0,0.0,0.01,0.0,0.0,0.0,0.01,-1.3627112251259386,-9.829069921600817,-0.514466831609793,0.01,0.0,0.0,0.0,0.01,0.0,0.0,0.0,0.01
1700026356.2454808,38625,1700026356,228300544,gx5_link,0.6838415861129761,0.09007038921117783,0.17700524628162384,0.7020806074142456,0.01,0.0,0.0,0.0,0.01,0.0,0.0,0.0,0.01,-0.04136672243475914,0.03549298271536827,-0.02580059878528118,0.01,0.0,0.0,0.0,0.01,0.0,0.0,0.0,0.01,-1.2903640740565956,-9.789642166575788,-0.5900057644577696,0.01,0.0,0.0,0.0,0.01,0.0,0.0,0.0,0.01
1700026356.2555704,38626,1700026356,238316288,gx5_link,0.6836554408073425,0.09020683914422989,0.17696191370487213,0.7022552490234375,0.01,0.0,0.0,0.0,0.01,0.0,0.0,0.0,0.01,-0.03971245884895325,0.02591560035943985,-0.03512685000896454,0.01,0.0,0.0,0.0,0.01,0.0,0.0,0.0,0.01,-1.2427480441398917,-9.780620071208476,-0.6204398099597543,0.01,0.0,0.0,0.0,0.01,0.0,0.0,0.0,0.01
1700026356.2728615,38627,1700026356,248340224,gx5_link,0.6834735870361328,0.09035468101501465,0.17686523497104645,0.7024375796318054,0.01,0.0,0.0,0.0,0.01,0.0,0.0,0.0,0.01,-0.03883141651749611,0.020896561443805695,-0.044520288705825806,0.01,0.0,0.0,0.0,0.01,0.0,0.0,0.0,0.01,-1.1903826277390122,-9.765518948188424,-0.6069884634407237,0.01,0.0,0.0,0.0,0.01,0.0,0.0,0.0,0.01
1700026356.2737346,38628,1700026356,258354432,gx5_link,0.6832681894302368,0.09055131673812866,0.17674991488456726,0.7026411890983582,0.01,0.0,0.0,0.0,0.01,0.0,0.0,0.0,0.01,-0.043597154319286346,0.022564329206943512,-0.05188192054629326,0.01,0.0,0.0,0.0,0.01,0.0,0.0,0.0,0.01,-1.1492044488500803,-9.762194772201775,-0.5726510538246482,0.01,0.0,0.0,0.0,0.01,0.0,0.0,0.0,0.01
1700026356.284943,38629,1700026356,268370432,gx5_link,0.6830333471298218,0.09077589213848114,0.17664262652397156,0.7028673887252808,0.01,0.0,0.0,0.0,0.01,0.0,0.0,0.0,0.01,-0.048850543797016144,0.02742314152419567,-0.055861975997686386,0.01,0.0,0.0,0.0,0.01,0.0,0.0,0.0,0.01,-1.1252174971282483,-9.759628721106052,-0.5957872339360416,0.01,0.0,0.0,0.0,0.01,0.0,0.0,0.0,0.01
1700026356.297358,38630,1700026356,278388224,gx5_link,0.6828000545501709,0.09098555892705917,0.17656086385250092,0.7030874490737915,0.01,0.0,0.0,0.0,0.01,0.0,0.0,0.0,0.01,-0.04738878086209297,0.030343182384967804,-0.05063701048493385,0.01,0.0,0.0,0.0,0.01,0.0,0.0,0.0,0.01,-1.106210818037018,-9.780485631173848,-0.6332306832760572,0.01,0.0,0.0,0.0,0.01,0.0,0.0,0.0,0.01
1700026356.3052733,38631,1700026356,288402944,gx5_link,0.6825974583625793,0.09113235026597977,0.1765230894088745,0.703274667263031,0.01,0.0,0.0,0.0,0.01,0.0,0.0,0.0,0.01,-0.04196467250585556,0.02854878082871437,-0.035673290491104126,0.01,0.0,0.0,0.0,0.01,0.0,0.0,0.0,0.01,-1.1013772604007273,-9.813014274334908,-0.6387384869121014,0.01,0.0,0.0,0.0,0.01,0.0,0.0,0.0,0.01
1700026356.3149092,38632,1700026356,298417920,gx5_link,0.682443380355835,0.09121131896972656,0.17653648555278778,0.7034105658531189,0.01,0.0,0.0,0.0,0.01,0.0,0.0,0.0,0.01,-0.035693343728780746,0.02477603778243065,-0.017915088683366776,0.01,0.0,0.0,0.0,0.01,0.0,0.0,0.0,0.01,-1.0710573793303222,-9.76384487749636,-0.5944094793094322,0.01,0.0,0.0,0.0,0.01,0.0,0.0,0.0,0.01
1700026356.3264303,38633,1700026356,308434944,gx5_link,0.682295024394989,0.09127145260572433,0.17660248279571533,0.7035301923751831,0.01,0.0,0.0,0.0,0.01,0.0,0.0,0.0,0.01,-0.03456614911556244,0.027685929089784622,-0.005800378508865833,0.01,0.0,0.0,0.0,0.01,0.0,0.0,0.0,0.01,-1.042532418852672,-9.698128835004567,-0.5405803835641593,0.01,0.0,0.0,0.0,0.01,0.0,0.0,0.0,0.01
1700026356.3332667,38634,1700026356,318448640,gx5_link,0.6821271777153015,0.09134167432785034,0.17667824029922485,0.7036647200584412,0.01,0.0,0.0,0.0,0.01,0.0,0.0,0.0,0.01,-0.04036824777722359,0.030853386968374252,-0.005280811805278063,0.01,0.0,0.0,0.0,0.01,0.0,0.0,0.0,0.01,-1.013463049300015,-9.622838908481597,-0.5011417783515527,0.01,0.0,0.0,0.0,0.01,0.0,0.0,0.0,0.01
1700026356.3451307,38635,1700026356,328464128,gx5_link,0.6819323301315308,0.09144240617752075,0.1767747849225998,0.703816294670105,0.01,0.0,0.0,0.0,0.01,0.0,0.0,0.0,0.01,-0.046030838042497635,0.03758028894662857,-0.005009077489376068,0.01,0.0,0.0,0.0,0.01,0.0,0.0,0.0,0.01,-1.0108202066410332,-9.629289107534289,-0.468318426560238,0.01,0.0,0.0,0.0,0.01,0.0,0.0,0.0,0.01
1700026356.3638072,38636,1700026356,338486784,gx5_link,0.6817253232002258,0.09155081957578659,0.17689171433448792,0.7039733529090881,0.01,0.0,0.0,0.0,0.01,0.0,0.0,0.0,0.01,-0.04757167771458626,0.042303066700696945,-0.004166574217379093,0.01,0.0,0.0,0.0,0.01,0.0,0.0,0.0,0.01,-0.9972202088989317,-9.604901100730896,-0.48048017166014756,0.01,0.0,0.0,0.0,0.01,0.0,0.0,0.0,0.01
1700026356.373784,38637,1700026356,348500224,gx5_link,0.6815135478973389,0.0916813388466835,0.1770278662443161,0.7041271328926086,0.01,0.0,0.0,0.0,0.01,0.0,0.0,0.0,0.01,-0.04712856933474541,0.04756103828549385,-0.005158994346857071,0.01,0.0,0.0,0.0,0.01,0.0,0.0,0.0,0.01,-1.0129830106981097,-9.600029695302247,-0.5278226087998599,0.01,0.0,0.0,0.0,0.01,0.0,0.0,0.0,0.01
1700026356.3776345,38638,1700026356,358515200,gx5_link,0.6813267469406128,0.09182347357273102,0.1771390289068222,0.7042614817619324,0.01,0.0,0.0,0.0,0.01,0.0,0.0,0.0,0.01,-0.04011418670415878,0.04689601808786392,-0.009232654236257076,0.01,0.0,0.0,0.0,0.01,0.0,0.0,0.0,0.01,-1.0227163961399346,-9.574728080785274,-0.5338669669980183,0.01,0.0,0.0,0.0,0.01,0.0,0.0,0.0,0.01
1700026356.387536,38639,1700026356,368531456,gx5_link,0.6811483502388,0.09201615303754807,0.17719702422618866,0.7043942213058472,0.01,0.0,0.0,0.0,0.01,0.0,0.0,0.0,0.01,-0.037285514175891876,0.047531213611364365,-0.02286347933113575,0.01,0.0,0.0,0.0,0.01,0.0,0.0,0.0,0.01,-1.0097830456130206,-9.555932194900512,-0.5300891654923557,0.01,0.0,0.0,0.0,0.01,0.0,0.0,0.0,0.01
1700026356.3981912,38640,1700026356,378546176,gx5_link,0.6809620261192322,0.09227525442838669,0.17719736695289612,0.7045404314994812,0.01,0.0,0.0,0.0,0.01,0.0,0.0,0.0,0.01,-0.036516789346933365,0.049084920436143875,-0.03834586590528488,0.01,0.0,0.0,0.0,0.01,0.0,0.0,0.0,0.01,-1.0004126482646911,-9.578325813016296,-0.5305153915477916,0.01,0.0,0.0,0.0,0.01,0.0,0.0,0.0,0.01
1700026356.4080377,38641,1700026356,388561152,gx5_link,0.680772066116333,0.09257879853248596,0.1771325021982193,0.7047004699707031,0.01,0.0,0.0,0.0,0.01,0.0,0.0,0.0,0.01,-0.03485076129436493,0.04493890702724457,-0.05296168103814125,0.01,0.0,0.0,0.0,0.01,0.0,0.0,0.0,0.01,-0.9864361453603953,-9.63618646583259,-0.5457981182124465,0.01,0.0,0.0,0.0,0.01,0.0,0.0,0.0,0.01
1700026356.418997,38642,1700026356,398579456,gx5_link,0.6806196570396423,0.09286265075206757,0.17700403928756714,0.7048425674438477,0.01,0.0,0.0,0.0,0.01,0.0,0.0,0.0,0.01,-0.027108043432235718,0.03419623151421547,-0.059926412999629974,0.01,0.0,0.0,0.0,0.01,0.0,0.0,0.0,0.01,-0.9745051037438214,-9.685893038287759,-0.5780022421268746,0.01,0.0,0.0,0.0,0.01,0.0,0.0,0.0,0.01
1700026356.427561,38643,1700026356,408594176,gx5_link,0.6805111169815063,0.09311245381832123,0.1767815351486206,0.7049702405929565,0.01,0.0,0.0,0.0,0.01,0.0,0.0,0.0,0.01,-0.01992039754986763,0.01709911599755287,-0.06700634956359863,0.01,0.0,0.0,0.0,0.01,0.0,0.0,0.0,0.01,-0.959007017295435,-9.71867594847083,-0.5997087182287126,0.01,0.0,0.0,0.0,0.01,0.0,0.0,0.0,0.01
1700026356.438026,38644,1700026356,418609920,gx5_link,0.680400550365448,0.09333223104476929,0.17645128071308136,0.7051305770874023,0.01,0.0,0.0,0.0,0.01,0.0,0.0,0.0,0.01,-0.022502046078443527,-0.002639635931700468,-0.0793033018708229,0.01,0.0,0.0,0.0,0.01,0.0,0.0,0.0,0.01,-0.9346547393925487,-9.704179221084713,-0.5612295326327905,0.01,0.0,0.0,0.0,0.01,0.0,0.0,0.0,0.01
1700026356.448006,38645,1700026356,428627712,gx5_link,0.6802610158920288,0.09354088455438614,0.1760035753250122,0.7053494453430176,0.01,0.0,0.0,0.0,0.01,0.0,0.0,0.0,0.01,-0.032353486865758896,-0.020918475463986397,-0.09380879253149033,0.01,0.0,0.0,0.0,0.01,0.0,0.0,0.0,0.01,-0.9283979440201073,-9.732468911501766,-0.5394550327960401,0.01,0.0,0.0,0.0,0.01,0.0,0.0,0.0,0.01
1700026356.4609063,38646,1700026356,438647808,gx5_link,0.6801112294197083,0.09373019635677338,0.1754867136478424,0.705597460269928,0.01,0.0,0.0,0.0,0.01,0.0,0.0,0.0,0.01,-0.03781832009553909,-0.0321272648870945,-0.10301805287599564,0.01,0.0,0.0,0.0,0.01,0.0,0.0,0.0,0.01,-0.91519797844626,-9.79820132060647,-0.5168230758797377,0.01,0.0,0.0,0.0,0.01,0.0,0.0,0.0,0.01
1700026356.4704728,38647,1700026356,448662528,gx5_link,0.6799591183662415,0.09388557076454163,0.17498239874839783,0.7058485746383667,0.01,0.0,0.0,0.0,0.01,0.0,0.0,0.0,0.01,-0.041475869715213776,-0.036486607044935226,-0.09774450212717056,0.01,0.0,0.0,0.0,0.01,0.0,0.0,0.0,0.01,-0.9123964380942284,-9.82986604041457,-0.4861309639634564,0.01,0.0,0.0,0.0,0.01,0.0,0.0,0.0,0.01
1700026356.4759963,38648,1700026356,458679040,gx5_link,0.6798146963119507,0.09402775764465332,0.17448703944683075,0.7060914039611816,0.01,0.0,0.0,0.0,0.01,0.0,0.0,0.0,0.01,-0.03964729607105255,-0.03832222893834114,-0.09556186199188232,0.01,0.0,0.0,0.0,0.01,0.0,0.0,0.0,0.01,-0.8971193009201437,-9.794063490149378,-0.5195038393963128,0.01,0.0,0.0,0.0,0.01,0.0,0.0,0.0,0.01
1700026356.4832575,38649,1700026356,468692736,gx5_link,0.6797002553939819,0.09413689374923706,0.17401300370693207,0.7063040137290955,0.01,0.0,0.0,0.0,0.01,0.0,0.0,0.0,0.01,-0.0315822996199131,-0.041167374700307846,-0.08713410794734955,0.01,0.0,0.0,0.0,0.01,0.0,0.0,0.0,0.01,-0.9047093907229602,-9.820459914165735,-0.579835777696967,0.01,0.0,0.0,0.0,0.01,0.0,0.0,0.0,0.01
1700026356.495238,38650,1700026356,478708224,gx5_link,0.6796191334724426,0.09417526423931122,0.17356690764427185,0.7064866423606873,0.01,0.0,0.0,0.0,0.01,0.0,0.0,0.0,0.01,-0.023679768666625023,-0.04682052507996559,-0.07481066137552261,0.01,0.0,0.0,0.0,0.01,0.0,0.0,0.0,0.01,-0.9284346227686852,-9.83428853303194,-0.6449972550459205,0.01,0.0,0.0,0.0,0.01,0.0,0.0,0.0,0.01
1700026356.5071635,38651,1700026356,488725248,gx5_link,0.6795886754989624,0.09415946155786514,0.1731255203485489,0.7066263556480408,0.01,0.0,0.0,0.0,0.01,0.0,0.0,0.0,0.01,-0.014282986521720886,-0.054675064980983734,-0.06472758203744888,0.01,0.0,0.0,0.0,0.01,0.0,0.0,0.0,0.01,-0.9363310751069337,-9.775620655485987,-0.614478344272077,0.01,0.0,0.0,0.0,0.01,0.0,0.0,0.0,0.01
1700026356.5142865,38652,1700026356,498738432,gx5_link,0.6795957684516907,0.09414054453372955,0.1726973056793213,0.7067268490791321,0.01,0.0,0.0,0.0,0.01,0.0,0.0,0.0,0.01,-0.00902987364679575,-0.05447741597890854,-0.05896315723657608,0.01,0.0,0.0,0.0,0.01,0.0,0.0,0.0,0.01,-0.9351745985481887,-9.771663442292809,-0.5132227863654494,0.01,0.0,0.0,0.0,0.01,0.0,0.0,0.0,0.01
1700026356.523903,38653,1700026356,508753152,gx5_link,0.6796044707298279,0.09410540014505386,0.17232894897460938,0.7068131566047668,0.01,0.0,0.0,0.0,0.01,0.0,0.0,0.0,0.01,-0.009144228883087635,-0.05007050931453705,-0.04900218918919563,0.01,0.0,0.0,0.0,0.01,0.0,0.0,0.0,0.01,-0.9343743150159716,-9.774051214212179,-0.46102998658511785,0.01,0.0,0.0,0.0,0.01,0.0,0.0,0.0,0.01
1700026356.5363367,38654,1700026356,518769664,gx5_link,0.679591178894043,0.09407758712768555,0.1720399409532547,0.7068999409675598,0.01,0.0,0.0,0.0,0.01,0.0,0.0,0.0,0.01,-0.012441141530871391,-0.0404539555311203,-0.0391259603202343,0.01,0.0,0.0,0.0,0.01,0.0,0.0,0.0,0.01,-0.9359127766296267,-9.766659350395201,-0.460947203672491,0.01,0.0,0.0,0.0,0.01,0.0,0.0,0.0,0.01
1700026356.551254,38655,1700026356,528789248,gx5_link,0.6795428991317749,0.09404566138982773,0.17180342972278595,0.7070081233978271,0.01,0.0,0.0,0.0,0.01,0.0,0.0,0.0,0.01,-0.019303569570183754,-0.0321047380566597,-0.033461395651102066,0.01,0.0,0.0,0.0,0.01,0.0,0.0,0.0,0.01,-0.9500258384604007,-9.750254743561149,-0.49500042605232447,0.01,0.0,0.0,0.0,0.01,0.0,0.0,0.0,0.01
1700026356.5555303,38656,1700026356,538804224,gx5_link,0.6794415712356567,0.09403125196695328,0.17158202826976776,0.7071611285209656,0.01,0.0,0.0,0.0,0.01,0.0,0.0,0.0,0.01,-0.03041255660355091,-0.026738472282886505,-0.03669103980064392,0.01,0.0,0.0,0.0,0.01,0.0,0.0,0.0,0.01,-0.9587132950458676,-9.682048637819289,-0.5267679121151566,0.01,0.0,0.0,0.0,0.01,0.0,0.0,0.0,0.01
1700026356.568102,38657,1700026356,548822016,gx5_link,0.6792877912521362,0.09405092149972916,0.17133069038391113,0.7073671817779541,0.01,0.0,0.0,0.0,0.01,0.0,0.0,0.0,0.01,-0.042790185660123825,-0.024962160736322403,-0.046097517013549805,0.01,0.0,0.0,0.0,0.01,0.0,0.0,0.0,0.01,-0.9548666295550763,-9.627771104186772,-0.5557908852428197,0.01,0.0,0.0,0.0,0.01,0.0,0.0,0.0,0.01
1700026356.5772798,38658,1700026356,558835712,gx5_link,0.6791229248046875,0.09407056123018265,0.17107458412647247,0.707584798336029,0.01,0.0,0.0,0.0,0.01,0.0,0.0,0.0,0.01,-0.04323470592498779,-0.02412179671227932,-0.04798327386379242,0.01,0.0,0.0,0.0,0.01,0.0,0.0,0.0,0.01,-0.9670875209636985,-9.669619364356993,-0.6513995233036577,0.01,0.0,0.0,0.0,0.01,0.0,0.0,0.0,0.01
1700026356.586743,38659,1700026356,568851200,gx5_link,0.6789720058441162,0.09403854608535767,0.17084762454032898,0.7077887058258057,0.01,0.0,0.0,0.0,0.01,0.0,0.0,0.0,0.01,-0.03970390558242798,-0.024748027324676514,-0.03727767616510391,0.01,0.0,0.0,0.0,0.01,0.0,0.0,0.0,0.01,-0.9817669845055789,-9.710050743466615,-0.7127875465285033,0.01,0.0,0.0,0.0,0.01,0.0,0.0,0.0,0.01
1700026356.5967736,38660,1700026356,578868480,gx5_link,0.6788676977157593,0.0939721018075943,0.170669823884964,0.7079405784606934,0.01,0.0,0.0,0.0,0.01,0.0,0.0,0.0,0.01,-0.03262215107679367,-0.02422538585960865,-0.025732703506946564,0.01,0.0,0.0,0.0,0.01,0.0,0.0,0.0,0.01,-0.9597036943227052,-9.661646485781668,-0.6522299827784299,0.01,0.0,0.0,0.0,0.01,0.0,0.0,0.0,0.01
1700026356.605471,38661,1700026356,588882688,gx5_link,0.6787871718406677,0.09390396624803543,0.17054051160812378,0.7080578804016113,0.01,0.0,0.0,0.0,0.01,0.0,0.0,0.0,0.01,-0.026727428659796715,-0.02048061043024063,-0.01668659970164299,0.01,0.0,0.0,0.0,0.01,0.0,0.0,0.0,0.01,-0.9350541139736771,-9.556672199612855,-0.6092911508925258,0.01,0.0,0.0,0.0,0.01,0.0,0.0,0.0,0.01
1700026356.6155176,38662,1700026356,598897664,gx5_link,0.6787295341491699,0.09389736503362656,0.17042359709739685,0.7081421613693237,0.01,0.0,0.0,0.0,0.01,0.0,0.0,0.0,0.01,-0.017834624275565147,-0.010943102650344372,-0.01784394681453705,0.01,0.0,0.0,0.0,0.01,0.0,0.0,0.0,0.01,-0.903340367392078,-9.471045003470778,-0.5658759701991454,0.01,0.0,0.0,0.0,0.01,0.0,0.0,0.0,0.01
1700026356.626696,38663,1700026356,608913920,gx5_link,0.6786929965019226,0.09396374970674515,0.17031757533550262,0.7081938982009888,0.01,0.0,0.0,0.0,0.01,0.0,0.0,0.0,0.01,-0.008513864129781723,-0.0006446557235904038,-0.023529162630438805,0.01,0.0,0.0,0.0,0.01,0.0,0.0,0.0,0.01,-0.8932052692815661,-9.473066864687203,-0.5912881324185059,0.01,0.0,0.0,0.0,0.01,0.0,0.0,0.0,0.01
1700026356.639703,38664,1700026356,618933248,gx5_link,0.6786729097366333,0.09404494613409042,0.17020271718502045,0.7082299590110779,0.01,0.0,0.0,0.0,0.01,0.0,0.0,0.0,0.01,0.0006566307274624705,0.0014719384489580989,-0.026118038222193718,0.01,0.0,0.0,0.0,0.01,0.0,0.0,0.0,0.01,-0.8674229585755616,-9.480894781833886,-0.6607011662647128,0.01,0.0,0.0,0.0,0.01,0.0,0.0,0.0,0.01
1700026356.6450565,38665,1700026356,628947968,gx5_link,0.6786864995956421,0.09414920210838318,0.17005524039268494,0.7082386016845703,0.01,0.0,0.0,0.0,0.01,0.0,0.0,0.0,0.01,0.010280421935021877,0.0022914751898497343,-0.02947661466896534,0.01,0.0,0.0,0.0,0.01,0.0,0.0,0.0,0.01,-0.8250891799107194,-9.487951714608073,-0.7206632483396679,0.01,0.0,0.0,0.0,0.01,0.0,0.0,0.0,0.01
1700026356.6570866,38666,1700026356,640962816,gx5_link,0.6787045001983643,0.09422949701547623,0.1698431819677353,0.7082615494728088,0.01,0.0,0.0,0.0,0.01,0.0,0.0,0.0,0.01,0.01550954207777977,-0.00803025346249342,-0.03574738651514053,0.01,0.0,0.0,0.0,0.01,0.0,0.0,0.0,0.01,-0.7892305155441165,-9.471608482572435,-0.8214644135423004,0.01,0.0,0.0,0.0,0.01,0.0,0.0,0.0,0.01
1700026356.6691167,38667,1700026356,650979840,gx5_link,0.6787549257278442,0.09427326917648315,0.16955091059207916,0.7082773447036743,0.01,0.0,0.0,0.0,0.01,0.0,0.0,0.0,0.01,0.022728582844138145,-0.023641638457775116,-0.039565008133649826,0.01,0.0,0.0,0.0,0.01,0.0,0.0,0.0,0.01,-0.7745786706615239,-9.493069788274168,-0.9016738224193453,0.01,0.0,0.0,0.0,0.01,0.0,0.0,0.0,0.01
1700026356.6762772,38668,1700026356,660992512,gx5_link,0.6788395643234253,0.09426535665988922,0.16916149854660034,0.7082903981208801,0.01,0.0,0.0,0.0,0.01,0.0,0.0,0.0,0.01,0.03034226782619953,-0.043404269963502884,-0.04691466689109802,0.01,0.0,0.0,0.0,0.01,0.0,0.0,0.0,0.01,-0.7527371334705502,-9.474237662032246,-0.9871289499301463,0.01,0.0,0.0,0.0,0.01,0.0,0.0,0.0,0.01
1700026356.687069,38669,1700026356,671006720,gx5_link,0.6789187788963318,0.09423591941595078,0.1686616986989975,0.7083376049995422,0.01,0.0,0.0,0.0,0.01,0.0,0.0,0.0,0.01,0.027998315170407295,-0.06446398794651031,-0.06023022532463074,0.01,0.0,0.0,0.0,0.01,0.0,0.0,0.0,0.01,-0.7612067825868726,-9.427692183956504,-1.0232289487719535,0.01,0.0,0.0,0.0,0.01,0.0,0.0,0.0,0.01
1700026356.6977057,38670,1700026356,681022720,gx5_link,0.6789928674697876,0.09419479966163635,0.16803798079490662,0.7084203362464905,0.01,0.0,0.0,0.0,0.01,0.0,0.0,0.0,0.01,0.02749495580792427,-0.08466028422117233,-0.07798872143030167,0.01,0.0,0.0,0.0,0.01,0.0,0.0,0.0,0.01,-0.8090648776311427,-9.40291196296513,-1.0009451477061957,0.01,0.0,0.0,0.0,0.01,0.0,0.0,0.0,0.01
1700026356.7077527,38671,1700026356,691037440,gx5_link,0.6791256070137024,0.09414792060852051,0.1673385500907898,0.7084648609161377,0.01,0.0,0.0,0.0,0.01,0.0,0.0,0.0,0.01,0.03357784450054169,-0.09643083065748215,-0.08876436203718185,0.01,0.0,0.0,0.0,0.01,0.0,0.0,0.0,0.01,-0.8618759189076721,-9.416886712303757,-0.8257637181714177,0.01,0.0,0.0,0.0,0.01,0.0,0.0,0.0,0.01
1700026356.723494,38672,1700026356,701058560,gx5_link,0.6793373227119446,0.09413951635360718,0.1667015701532364,0.7084131240844727,0.01,0.0,0.0,0.0,0.01,0.0,0.0,0.0,0.01,0.04938003048300743,-0.0881759524345398,-0.0831240862607956,0.01,0.0,0.0,0.0,0.01,0.0,0.0,0.0,0.01,-0.9098834323599934,-9.443114209493993,-0.6714853759337216,0.01,0.0,0.0,0.0,0.01,0.0,0.0,0.0,0.01
1700026356.7286975,38673,1700026356,711074816,gx5_link,0.6796169877052307,0.09415636211633682,0.16618990898132324,0.7082629203796387,0.01,0.0,0.0,0.0,0.01,0.0,0.0,0.0,0.01,0.07112617790699005,-0.07016454637050629,-0.0690823420882225,0.01,0.0,0.0,0.0,0.01,0.0,0.0,0.0,0.01,-0.9726526808101683,-9.497894431951641,-0.6487655946034938,0.01,0.0,0.0,0.0,0.01,0.0,0.0,0.0,0.01
1700026356.7365546,38674,1700026356,721088256,gx5_link,0.6799498200416565,0.09418422728776932,0.16580358147621155,0.7080302834510803,0.01,0.0,0.0,0.0,0.01,0.0,0.0,0.0,0.01,0.08654574304819107,-0.052919842302799225,-0.05184759572148323,0.01,0.0,0.0,0.0,0.01,0.0,0.0,0.0,0.01,-1.0066337878018616,-9.523233455869555,-0.6264519098561256,0.01,0.0,0.0,0.0,0.01,0.0,0.0,0.0,0.01
1700026356.758815,38675,1700026356,731103744,gx5_link,0.680279552936554,0.09426762908697128,0.16551034152507782,0.7077709436416626,0.01,0.0,0.0,0.0,0.01,0.0,0.0,0.0,0.01,0.09116335958242416,-0.032968755811452866,-0.04465370625257492,0.01,0.0,0.0,0.0,0.01,0.0,0.0,0.0,0.01,-1.0038253793176264,-9.490819378998875,-0.6192547648936509,0.01,0.0,0.0,0.0,0.01,0.0,0.0,0.0,0.01
1700026356.7590232,38676,1700026356,741120512,gx5_link,0.6805899739265442,0.09439966082572937,0.16525155305862427,0.707515299320221,0.01,0.0,0.0,0.0,0.01,0.0,0.0,0.0,0.01,0.09218212217092514,-0.019849294796586037,-0.04413386434316635,0.01,0.0,0.0,0.0,0.01,0.0,0.0,0.0,0.01,-0.986812431326881,-9.48051834973693,-0.6409388465005904,0.01,0.0,0.0,0.0,0.01,0.0,0.0,0.0,0.01
1700026356.765005,38677,1700026356,751132928,gx5_link,0.6808943152427673,0.0945381373167038,0.1650405079126358,0.7072532176971436,0.01,0.0,0.0,0.0,0.01,0.0,0.0,0.0,0.01,0.09392718970775604,-0.012505115009844303,-0.039008915424346924,0.01,0.0,0.0,0.0,0.01,0.0,0.0,0.0,0.01,-1.0129987927891313,-9.538135841447115,-0.6981137820750475,0.01,0.0,0.0,0.0,0.01,0.0,0.0,0.0,0.01
1700026356.7765584,38678,1700026356,761147392,gx5_link,0.6812371015548706,0.09459994733333588,0.16485601663589478,0.7069578170776367,0.01,0.0,0.0,0.0,0.01,0.0,0.0,0.0,0.01,0.10353853553533554,-0.017508817836642265,-0.02813776768743992,0.01,0.0,0.0,0.0,0.01,0.0,0.0,0.0,0.01,-1.0603030533429234,-9.48316272676587,-0.7705599365394562,0.01,0.0,0.0,0.0,0.01,0.0,0.0,0.0,0.01
1700026356.7886002,38679,1700026356,771163392,gx5_link,0.6816240549087524,0.09465125948190689,0.16463004052639008,0.706630527973175,0.01,0.0,0.0,0.0,0.01,0.0,0.0,0.0,0.01,0.11136623471975327,-0.024346254765987396,-0.028904981911182404,0.01,0.0,0.0,0.0,0.01,0.0,0.0,0.0,0.01,-1.0870565471686422,-9.413367306005954,-0.7072290356185287,0.01,0.0,0.0,0.0,0.01,0.0,0.0,0.0,0.01
1700026356.7966282,38680,1700026356,781177088,gx5_link,0.6820592880249023,0.09475186467170715,0.1644035428762436,0.7062498331069946,0.01,0.0,0.0,0.0,0.01,0.0,0.0,0.0,0.01,0.12173449993133545,-0.019567342475056648,-0.033554188907146454,0.01,0.0,0.0,0.0,0.01,0.0,0.0,0.0,0.01,-1.1338486204165965,-9.408673010709881,-0.5917284235319122,0.01,0.0,0.0,0.0,0.01,0.0,0.0,0.0,0.01
1700026356.814901,38681,1700026356,791197184,gx5_link,0.6824942231178284,0.09494076669216156,0.16418588161468506,0.7058547139167786,0.01,0.0,0.0,0.0,0.01,0.0,0.0,0.0,0.01,0.12658092379570007,-0.009054926224052906,-0.04478776082396507,0.01,0.0,0.0,0.0,0.01,0.0,0.0,0.0,0.01,-1.1713290407661348,-9.420320778405666,-0.5511656000623479,0.01,0.0,0.0,0.0,0.01,0.0,0.0,0.0,0.01
1700026356.8185308,38682,1700026356,801213440,gx5_link,0.6829215288162231,0.09523585438728333,0.16397733986377716,0.7054501175880432,0.01,0.0,0.0,0.0,0.01,0.0,0.0,0.0,0.01,0.12668785452842712,0.007335186004638672,-0.05707375332713127,0.01,0.0,0.0,0.0,0.01,0.0,0.0,0.0,0.01,-1.174756019540131,-9.474138293310999,-0.43409182037487626,0.01,0.0,0.0,0.0,0.01,0.0,0.0,0.0,0.01
1700026356.8256586,38683,1700026356,811226624,gx5_link,0.6833316683769226,0.09561372548341751,0.16384147107601166,0.7050332427024841,0.01,0.0,0.0,0.0,0.01,0.0,0.0,0.0,0.01,0.12838687002658844,0.02751457877457142,-0.05839904025197029,0.01,0.0,0.0,0.0,0.01,0.0,0.0,0.0,0.01,-1.1789270946796984,-9.550383913123607,-0.4396355721071362,0.01,0.0,0.0,0.0,0.01,0.0,0.0,0.0,0.01
1700026356.8360317,38684,1700026356,821240320,gx5_link,0.6837329268455505,0.09599350392818451,0.16377589106559753,0.7046077251434326,0.01,0.0,0.0,0.0,0.01,0.0,0.0,0.0,0.01,0.13286730647087097,0.040282733738422394,-0.05047408491373062,0.01,0.0,0.0,0.0,0.01,0.0,0.0,0.0,0.01,-1.1807936922691762,-9.589272738966345,-0.5646637813977897,0.01,0.0,0.0,0.0,0.01,0.0,0.0,0.0,0.01
1700026356.8495326,38685,1700026356,831257088,gx5_link,0.684188187122345,0.09634984284639359,0.16376744210720062,0.7041190266609192,0.01,0.0,0.0,0.0,0.01,0.0,0.0,0.0,0.01,0.14578020572662354,0.047165852040052414,-0.03727365657687187,0.01,0.0,0.0,0.0,0.01,0.0,0.0,0.0,0.01,-1.1719942266765981,-9.610153614431619,-0.5599035081934184,0.01,0.0,0.0,0.0,0.01,0.0,0.0,0.0,0.01
1700026356.858009,38686,1700026356,841271040,gx5_link,0.684697687625885,0.09669985622167587,0.16380631923675537,0.7035664916038513,0.01,0.0,0.0,0.0,0.01,0.0,0.0,0.0,0.01,0.15946058928966522,0.05148479342460632,-0.026804333552718163,0.01,0.0,0.0,0.0,0.01,0.0,0.0,0.0,0.01,-1.166644170885533,-9.537692773854731,-0.5436631154777481,0.01,0.0,0.0,0.0,0.01,0.0,0.0,0.0,0.01
1700026356.8706279,38687,1700026356,851287808,gx5_link,0.6852096319198608,0.09706643223762512,0.1638336181640625,0.7030109763145447,0.01,0.0,0.0,0.0,0.01,0.0,0.0,0.0,0.01,0.16396066546440125,0.05217085778713226,-0.0305478572845459,0.01,0.0,0.0,0.0,0.01,0.0,0.0,0.0,0.01,-1.1806043071769177,-9.42637584066093,-0.5393630801962688,0.01,0.0,0.0,0.0,0.01,0.0,0.0,0.0,0.01
1700026356.878112,38688,1700026356,861304064,gx5_link,0.6857413053512573,0.09750480949878693,0.16380125284194946,0.7024392485618591,0.01,0.0,0.0,0.0,0.01,0.0,0.0,0.0,0.01,0.16894662380218506,0.05396479740738869,-0.046018630266189575,0.01,0.0,0.0,0.0,0.01,0.0,0.0,0.0,0.01,-1.2085312286961822,-9.399729825797676,-0.46105716685298825,0.01,0.0,0.0,0.0,0.01,0.0,0.0,0.0,0.01
1700026356.8854377,38689,1700026356,871316992,gx5_link,0.6862522959709167,0.0980350598692894,0.1637079119682312,0.7018879055976868,0.01,0.0,0.0,0.0,0.01,0.0,0.0,0.0,0.01,0.16780276596546173,0.059175193309783936,-0.06903288513422012,0.01,0.0,0.0,0.0,0.01,0.0,0.0,0.0,0.01,-1.2510603838026524,-9.403065692222118,-0.4462971488881856,0.01,0.0,0.0,0.0,0.01,0.0,0.0,0.0,0.01
1700026356.8974729,38690,1700026356,881331456,gx5_link,0.6867016553878784,0.09869329631328583,0.16355639696121216,0.701391339302063,0.01,0.0,0.0,0.0,0.01,0.0,0.0,0.0,0.01,0.15591548383235931,0.06848486512899399,-0.09929034113883972,0.01,0.0,0.0,0.0,0.01,0.0,0.0,0.0,0.01,-1.2592084728144108,-9.37051951340437,-0.3394914825737476,0.01,0.0,0.0,0.0,0.01,0.0,0.0,0.0,0.01
1700026356.9106991,38691,1700026356,891348480,gx5_link,0.6870937943458557,0.09954262524843216,0.16333812475204468,0.7009380459785461,0.01,0.0,0.0,0.0,0.01,0.0,0.0,0.0,0.01,0.14545512199401855,0.0850098729133606,-0.13329778611660004,0.01,0.0,0.0,0.0,0.01,0.0,0.0,0.0,0.01,-1.2209773071628063,-9.39194457874894,-0.19720511835962531,0.01,0.0,0.0,0.0,0.01,0.0,0.0,0.0,0.01
1700026356.915671,38692,1700026356,901360640,gx5_link,0.6874401569366455,0.1005253717303276,0.1631161868572235,0.7005097270011902,0.01,0.0,0.0,0.0,0.01,0.0,0.0,0.0,0.01,0.14139032363891602,0.10398494452238083,-0.15398311614990234,0.01,0.0,0.0,0.0,0.01,0.0,0.0,0.0,0.01,-1.2085049252111464,-9.53463630889356,-0.24392724991021678,0.01,0.0,0.0,0.0,0.01,0.0,0.0,0.0,0.01
1700026356.9259338,38693,1700026356,911374336,gx5_link,0.6877431273460388,0.10152021795511246,0.16291901469230652,0.7001146674156189,0.01,0.0,0.0,0.0,0.01,0.0,0.0,0.0,0.01,0.1358965039253235,0.11168114840984344,-0.15650364756584167,0.01,0.0,0.0,0.0,0.01,0.0,0.0,0.0,0.01,-1.2059794253215192,-9.648282561817764,-0.31539537138901647,0.01,0.0,0.0,0.0,0.01,0.0,0.0,0.0,0.01
1700026356.9385664,38694,1700026356,921390080,gx5_link,0.6880678534507751,0.10249240696430206,0.16276012361049652,0.6996906995773315,0.01,0.0,0.0,0.0,0.01,0.0,0.0,0.0,0.01,0.13788393139839172,0.11590419709682465,-0.14923514425754547,0.01,0.0,0.0,0.0,0.01,0.0,0.0,0.0,0.01,-1.1982147096041589,-9.773018948554991,-0.30362500022687017,0.01,0.0,0.0,0.0,0.01,0.0,0.0,0.0,0.01
1700026356.9465053,38695,1700026356,931403008,gx5_link,0.6884111762046814,0.10344099253416061,0.1626737117767334,0.69923335313797,0.01,0.0,0.0,0.0,0.01,0.0,0.0,0.0,0.01,0.14219987392425537,0.12291102111339569,-0.13534580171108246,0.01,0.0,0.0,0.0,0.01,0.0,0.0,0.0,0.01,-1.1703497474052011,-9.84036872972846,-0.2574742753560655,0.01,0.0,0.0,0.0,0.01,0.0,0.0,0.0,0.01
1700026356.957093,38696,1700026356,941417728,gx5_link,0.6887664198875427,0.10443910211324692,0.16264940798282623,0.6987407207489014,0.01,0.0,0.0,0.0,0.01,0.0,0.0,0.0,0.01,0.14476999640464783,0.13598689436912537,-0.13152067363262177,0.01,0.0,0.0,0.0,0.01,0.0,0.0,0.0,0.01,-1.1292451452091337,-9.8169820089221,-0.1597790768121369,0.01,0.0,0.0,0.0,0.01,0.0,0.0,0.0,0.01
1700026356.9751322,38697,1700026356,951434240,gx5_link,0.6890755295753479,0.10554870218038559,0.16264379024505615,0.6982703804969788,0.01,0.0,0.0,0.0,0.01,0.0,0.0,0.0,0.01,0.1411622017621994,0.1558750569820404,-0.14221301674842834,0.01,0.0,0.0,0.0,0.01,0.0,0.0,0.0,0.01,-1.0684898669298737,-9.803057528465986,-0.20148071331959216,0.01,0.0,0.0,0.0,0.01,0.0,0.0,0.0,0.01
1700026356.9769995,38698,1700026356,961447680,gx5_link,0.689340353012085,0.10676628351211548,0.16260087490081787,0.697833776473999,0.01,0.0,0.0,0.0,0.01,0.0,0.0,0.0,0.01,0.1364685595035553,0.16899016499519348,-0.1603868454694748,0.01,0.0,0.0,0.0,0.01,0.0,0.0,0.0,0.01,-1.0206786067020148,-9.90031028047204,-0.21658209206797183,0.01,0.0,0.0,0.0,0.01,0.0,0.0,0.0,0.01
1700026356.9856944,38699,1700026356,971461376,gx5_link,0.6895394325256348,0.10800164937973022,0.162542924284935,0.6974602937698364,0.01,0.0,0.0,0.0,0.01,0.0,0.0,0.0,0.01,0.1264798492193222,0.1722133606672287,-0.16740959882736206,0.01,0.0,0.0,0.0,0.01,0.0,0.0,0.0,0.01,-0.9693369803909212,-10.03071009979844,-0.3496289918370545,0.01,0.0,0.0,0.0,0.01,0.0,0.0,0.0,0.01
1700026357.0005243,38700,1700026356,981478400,gx5_link,0.6896961331367493,0.10919215530157089,0.16243821382522583,0.6971443891525269,0.01,0.0,0.0,0.0,0.01,0.0,0.0,0.0,0.01,0.11625334620475769,0.16275465488433838,-0.17161805927753448,0.01,0.0,0.0,0.0,0.01,0.0,0.0,0.0,0.01,-0.9405451126053929,-10.087568882095812,-0.44742677397262304,0.01,0.0,0.0,0.0,0.01,0.0,0.0,0.0,0.01
1700026357.0078583,38701,1700026356,991492096,gx5_link,0.6898360848426819,0.11030953377485275,0.16228143870830536,0.6968664526939392,0.01,0.0,0.0,0.0,0.01,0.0,0.0,0.0,0.01,0.10579279810190201,0.14789924025535583,-0.16901104152202606,0.01,0.0,0.0,0.0,0.01,0.0,0.0,0.0,0.01,-0.9132339848969131,-10.163306552386283,-0.3938048181720078,0.01,0.0,0.0,0.0,0.01,0.0,0.0,0.0,0.01
1700026357.019999,38702,1700026357,1507840,gx5_link,0.6899702548980713,0.11137270927429199,0.16214512288570404,0.696596086025238,0.01,0.0,0.0,0.0,0.01,0.0,0.0,0.0,0.01,0.09794700145721436,0.14251895248889923,-0.16044571995735168,0.01,0.0,0.0,0.0,0.01,0.0,0.0,0.0,0.01,-0.8861016478214413,-10.222616819489001,-0.3533224395275116,0.01,0.0,0.0,0.0,0.01,0.0,0.0,0.0,0.01
1700026357.028727,38703,1700026357,11523840,gx5_link,0.6900433301925659,0.11245288699865341,0.16205358505249023,0.6963714361190796,0.01,0.0,0.0,0.0,0.01,0.0,0.0,0.0,0.01,0.08020522445440292,0.14812876284122467,-0.15806064009666443,0.01,0.0,0.0,0.0,0.01,0.0,0.0,0.0,0.01,-0.8184738534241914,-10.139957240980863,-0.24808522810619324,0.01,0.0,0.0,0.0,0.01,0.0,0.0,0.0,0.01
1700026357.0354424,38704,1700026357,21536768,gx5_link,0.6900409460067749,0.1136029064655304,0.16201089322566986,0.6961970925331116,0.01,0.0,0.0,0.0,0.01,0.0,0.0,0.0,0.01,0.06242495775222778,0.16508455574512482,-0.1595747172832489,0.01,0.0,0.0,0.0,0.01,0.0,0.0,0.0,0.01,-0.7549203957937657,-10.105113891136646,-0.1412727484584786,0.01,0.0,0.0,0.0,0.01,0.0,0.0,0.0,0.01
1700026357.04733,38705,1700026357,31551488,gx5_link,0.6900042295455933,0.1147468313574791,0.16208797693252563,0.696027934551239,0.01,0.0,0.0,0.0,0.01,0.0,0.0,0.0,0.01,0.055959299206733704,0.1803363710641861,-0.14562347531318665,0.01,0.0,0.0,0.0,0.01,0.0,0.0,0.0,0.01,-0.734403092943877,-10.180708938086033,-0.20986708633294326,0.01,0.0,0.0,0.0,0.01,0.0,0.0,0.0,0.01
1700026357.0592687,38706,1700026357,41567744,gx5_link,0.6899639964103699,0.11584753543138504,0.16228675842285156,0.6958391070365906,0.01,0.0,0.0,0.0,0.01,0.0,0.0,0.0,0.01,0.053336746990680695,0.1934836357831955,-0.12226058542728424,0.01,0.0,0.0,0.0,0.01,0.0,0.0,0.0,0.01,-0.6767168468464165,-10.164982961165904,-0.22698391482327132,0.01,0.0,0.0,0.0,0.01,0.0,0.0,0.0,0.01
1700026357.0656555,38707,1700026357,51579904,gx5_link,0.6899137496948242,0.1169588714838028,0.16255488991737366,0.6956403851509094,0.01,0.0,0.0,0.0,0.01,0.0,0.0,0.0,0.01,0.04757566750049591,0.20634695887565613,-0.11083144694566727,0.01,0.0,0.0,0.0,0.01,0.0,0.0,0.0,0.01,-0.5794829091386869,-10.066397499251366,-0.12716050861161202,0.01,0.0,0.0,0.0,0.01,0.0,0.0,0.0,0.01
1700026357.0847802,38708,1700026357,61593600,gx5_link,0.6898290514945984,0.11810337007045746,0.1628459393978119,0.6954630017280579,0.01,0.0,0.0,0.0,0.01,0.0,0.0,0.0,0.01,0.04247841611504555,0.2152668535709381,-0.10979647934436798,0.01,0.0,0.0,0.0,0.01,0.0,0.0,0.0,0.01,-0.5138872050909326,-10.045260018676519,-0.16018511859606951,0.01,0.0,0.0,0.0,0.01,0.0,0.0,0.0,0.01
1700026357.0895722,38709,1700026357,71610368,gx5_link,0.6897112727165222,0.11923542618751526,0.1631341576576233,0.6953190565109253,0.01,0.0,0.0,0.0,0.01,0.0,0.0,0.0,0.01,0.03638094663619995,0.21471744775772095,-0.10863729566335678,0.01,0.0,0.0,0.0,0.01,0.0,0.0,0.0,0.01,-0.4474973184581846,-10.072658897733687,-0.19995852698730304,0.01,0.0,0.0,0.0,0.01,0.0,0.0,0.0,0.01
1700026357.0963385,38710,1700026357,81623808,gx5_link,0.6895545721054077,0.12036497890949249,0.16340819001197815,0.6952154636383057,0.01,0.0,0.0,0.0,0.01,0.0,0.0,0.0,0.01,0.024724645540118217,0.21432198584079742,-0.1102880984544754,0.01,0.0,0.0,0.0,0.01,0.0,0.0,0.0,0.01,-0.35714214394614097,-10.0509287119627,-0.24397912622792645,0.01,0.0,0.0,0.0,0.01,0.0,0.0,0.0,0.01
1700026357.1070862,38711,1700026357,91638016,gx5_link,0.6893095374107361,0.12147983908653259,0.16359776258468628,0.6952199935913086,0.01,0.0,0.0,0.0,0.01,0.0,0.0,0.0,0.01,0.004316563718020916,0.20450066030025482,-0.12211867421865463,0.01,0.0,0.0,0.0,0.01,0.0,0.0,0.0,0.01,-0.2707260989813134,-9.962586411643027,-0.31187680534143,0.01,0.0,0.0,0.0,0.01,0.0,0.0,0.0,0.01
1700026357.1202567,38712,1700026357,101655552,gx5_link,0.6889941692352295,0.12261416763067245,0.16368167102336884,0.6953136920928955,0.01,0.0,0.0,0.0,0.01,0.0,0.0,0.0,0.01,-0.014034340158104897,0.19249896705150604,-0.13915544748306274,0.01,0.0,0.0,0.0,0.01,0.0,0.0,0.0,0.01,-0.18256605989336966,-9.918174438464641,-0.28487211323361844,0.01,0.0,0.0,0.0,0.01,0.0,0.0,0.0,0.01
1700026357.1267426,38713,1700026357,111668736,gx5_link,0.6886658668518066,0.12368099391460419,0.16371320188045502,0.6954425573348999,0.01,0.0,0.0,0.0,0.01,0.0,0.0,0.0,0.01,-0.020510736852884293,0.17734581232070923,-0.1377977579832077,0.01,0.0,0.0,0.0,0.01,0.0,0.0,0.0,0.01,-0.1494514244047459,-9.988456181436776,-0.3352446022516116,0.01,0.0,0.0,0.0,0.01,0.0,0.0,0.0,0.01
1700026357.1404989,38714,1700026357,121682944,gx5_link,0.6883804798126221,0.12456268817186356,0.16376744210720062,0.6955550312995911,0.01,0.0,0.0,0.0,0.01,0.0,0.0,0.0,0.01,-0.018339334055781364,0.15617972612380981,-0.11425814777612686,0.01,0.0,0.0,0.0,0.01,0.0,0.0,0.0,0.01,-0.1972390754281543,-10.104286208140849,-0.4496804346509278,0.01,0.0,0.0,0.0,0.01,0.0,0.0,0.0,0.01
1700026357.1486852,38715,1700026357,131698944,gx5_link,0.6881769895553589,0.125206857919693,0.1638425588607788,0.695622980594635,0.01,0.0,0.0,0.0,0.01,0.0,0.0,0.0,0.01,-0.01088669616729021,0.12658272683620453,-0.08271976560354233,0.01,0.0,0.0,0.0,0.01,0.0,0.0,0.0,0.01,-0.2664428687041625,-10.061548305654526,-0.44971335053984074,0.01,0.0,0.0,0.0,0.01,0.0,0.0,0.0,0.01
1700026357.1614237,38716,1700026357,141712128,gx5_link,0.6880068778991699,0.12576842308044434,0.1638687402009964,0.6956838369369507,0.01,0.0,0.0,0.0,0.01,0.0,0.0,0.0,0.01,-0.01353585347533226,0.10457552224397659,-0.07765159755945206,0.01,0.0,0.0,0.0,0.01,0.0,0.0,0.0,0.01,-0.29342343101771545,-9.842112943047285,-0.26983064797893164,0.01,0.0,0.0,0.0,0.01,0.0,0.0,0.0,0.01
1700026357.1732833,38717,1700026357,153730304,gx5_link,0.6877725124359131,0.12641257047653198,0.16378867626190186,0.6958175897598267,0.01,0.0,0.0,0.0,0.01,0.0,0.0,0.0,0.01,-0.03157664090394974,0.09627825021743774,-0.10579066723585129,0.01,0.0,0.0,0.0,0.01,0.0,0.0,0.0,0.01,-0.3469451595805585,-9.702313427212834,-0.10153386339135467,0.01,0.0,0.0,0.0,0.01,0.0,0.0,0.0,0.01
1700026357.1814718,38718,1700026357,163744000,gx5_link,0.6874583959579468,0.12716463208198547,0.16359879076480865,0.6960355639457703,0.01,0.0,0.0,0.0,0.01,0.0,0.0,0.0,0.01,-0.048521507531404495,0.09420932084321976,-0.13732723891735077,0.01,0.0,0.0,0.0,0.01,0.0,0.0,0.0,0.01,-0.4014212114598602,-9.656765728002785,0.020848025791731197,0.01,0.0,0.0,0.0,0.01,0.0,0.0,0.0,0.01
1700026357.1938565,38719,1700026357,173760768,gx5_link,0.687153160572052,0.12799958884716034,0.1633962243795395,0.6962315440177917,0.01,0.0,0.0,0.0,0.01,0.0,0.0,0.0,0.01,-0.04822137951850891,0.10286525636911392,-0.1528054028749466,0.01,0.0,0.0,0.0,0.01,0.0,0.0,0.0,0.01,-0.47396151048112656,-9.764448104086517,0.15845411181868985,0.01,0.0,0.0,0.0,0.01,0.0,0.0,0.0,0.01
1700026357.200974,38720,1700026357,183773184,gx5_link,0.6869041919708252,0.12884758412837982,0.16329649090766907,0.6963441967964172,0.01,0.0,0.0,0.0,0.01,0.0,0.0,0.0,0.01,-0.034921951591968536,0.11785490065813065,-0.14309673011302948,0.01,0.0,0.0,0.0,0.01,0.0,0.0,0.0,0.01,-0.5444709612619132,-9.8506247508049,0.19699593258835374,0.01,0.0,0.0,0.0,0.01,0.0,0.0,0.0,0.01
1700026357.211417,38721,1700026357,193787136,gx5_link,0.686716616153717,0.12973859906196594,0.1633402705192566,0.6963534951210022,0.01,0.0,0.0,0.0,0.01,0.0,0.0,0.0,0.01,-0.01820530742406845,0.14318472146987915,-0.12879270315170288,0.01,0.0,0.0,0.0,0.01,0.0,0.0,0.0,0.01,-0.559545707731694,-9.808255097109079,0.23538512007957324,0.01,0.0,0.0,0.0,0.01,0.0,0.0,0.0,0.01
1700026357.2217116,38722,1700026357,203803392,gx5_link,0.6865115761756897,0.1307419240474701,0.16350238025188446,0.6963298916816711,0.01,0.0,0.0,0.0,0.01,0.0,0.0,0.0,0.01,-0.014975925907492638,0.17249935865402222,-0.12595559656620026,0.01,0.0,0.0,0.0,0.01,0.0,0.0,0.0,0.01,-0.5296218767741695,-9.715498487478493,0.2473623754580505,0.01,0.0,0.0,0.0,0.01,0.0,0.0,0.0,0.01
1700026357.2266316,38723,1700026357,213815040,gx5_link,0.6862244606018066,0.13187921047210693,0.16369037330150604,0.696354329586029,0.01,0.0,0.0,0.0,0.01,0.0,0.0,0.0,0.01,-0.02144591510295868,0.19821865856647491,-0.13955450057983398,0.01,0.0,0.0,0.0,0.01,0.0,0.0,0.0,0.01,-0.46576684238128363,-9.651172438040375,0.14889358959258533,0.01,0.0,0.0,0.0,0.01,0.0,0.0,0.0,0.01
1700026357.2379649,38724,1700026357,223828224,gx5_link,0.6858774423599243,0.1330997198820114,0.163875550031662,0.696420431137085,0.01,0.0,0.0,0.0,0.01,0.0,0.0,0.0,0.01,-0.02578815072774887,0.2126302570104599,-0.15000975131988525,0.01,0.0,0.0,0.0,0.01,0.0,0.0,0.0,0.01,-0.40556649457104504,-9.675148941433429,-0.04978987595760263,0.01,0.0,0.0,0.0,0.01,0.0,0.0,0.0,0.01
1700026357.2509544,38725,1700026357,233844480,gx5_link,0.6855027079582214,0.13434036076068878,0.16400837898254395,0.6965199708938599,0.01,0.0,0.0,0.0,0.01,0.0,0.0,0.0,0.01,-0.025937549769878387,0.21423444151878357,-0.1603260338306427,0.01,0.0,0.0,0.0,0.01,0.0,0.0,0.0,0.01,-0.3058859491624869,-9.626473465591669,-0.23192131642652675,0.01,0.0,0.0,0.0,0.01,0.0,0.0,0.0,0.01
1700026357.2564852,38726,1700026357,243856384,gx5_link,0.6851632595062256,0.13555774092674255,0.16406457126140594,0.6966049075126648,0.01,0.0,0.0,0.0,0.01,0.0,0.0,0.0,0.01,-0.014726391062140465,0.20488709211349487,-0.16569624841213226,0.01,0.0,0.0,0.0,0.01,0.0,0.0,0.0,0.01,-0.2710742365655489,-9.637128130596876,-0.3514591664062813,0.01,0.0,0.0,0.0,0.01,0.0,0.0,0.0,0.01
1700026357.2713654,38727,1700026357,253871616,gx5_link,0.6849177479743958,0.13669916987419128,0.16400642693042755,0.696636974811554,0.01,0.0,0.0,0.0,0.01,0.0,0.0,0.0,0.01,0.004750008229166269,0.18159440159797668,-0.1689244508743286,0.01,0.0,0.0,0.0,0.01,0.0,0.0,0.0,0.01,-0.24075437376145273,-9.668232878434658,-0.40105924627967177,0.01,0.0,0.0,0.0,0.01,0.0,0.0,0.0,0.01
1700026357.2807333,38728,1700026357,263887104,gx5_link,0.6847541332244873,0.13781961798667908,0.16383828222751617,0.6966165900230408,0.01,0.0,0.0,0.0,0.01,0.0,0.0,0.0,0.01,0.023127928376197815,0.16069772839546204,-0.17574526369571686,0.01,0.0,0.0,0.0,0.01,0.0,0.0,0.0,0.01,-0.20958330095550043,-9.723779409089683,-0.36580874040666966,0.01,0.0,0.0,0.0,0.01,0.0,0.0,0.0,0.01
1700026357.2920942,38729,1700026357,273903360,gx5_link,0.6846305727958679,0.1389232873916626,0.16358058154582977,0.6965793371200562,0.01,0.0,0.0,0.0,0.01,0.0,0.0,0.0,0.01,0.03315131366252899,0.14426472783088684,-0.1841631829738617,0.01,0.0,0.0,0.0,0.01,0.0,0.0,0.0,0.01,-0.20704706047615035,-9.824918647140263,-0.3490641610285267,0.01,0.0,0.0,0.0,0.01,0.0,0.0,0.0,0.01
1700026357.2992587,38730,1700026357,283917824,gx5_link,0.684535026550293,0.13997600972652435,0.16326509416103363,0.6965364813804626,0.01,0.0,0.0,0.0,0.01,0.0,0.0,0.0,0.01,0.03929826244711876,0.1290144920349121,-0.1848747730255127,0.01,0.0,0.0,0.0,0.01,0.0,0.0,0.0,0.01,-0.19066114007625728,-9.958709862470625,-0.33358686163984236,0.01,0.0,0.0,0.0,0.01,0.0,0.0,0.0,0.01
1700026357.310755,38731,1700026357,293933824,gx5_link,0.6844494938850403,0.14095953106880188,0.16295436024665833,0.6964949369430542,0.01,0.0,0.0,0.0,0.01,0.0,0.0,0.0,0.01,0.039342351257801056,0.11783909797668457,-0.17428132891654968,0.01,0.0,0.0,0.0,0.01,0.0,0.0,0.0,0.01,-0.17420761606656013,-10.11823290042877,-0.39522348933089524,0.01,0.0,0.0,0.0,0.01,0.0,0.0,0.0,0.01
1700026357.316845,38732,1700026357,303945728,gx5_link,0.6843572854995728,0.14181603491306305,0.1626710742712021,0.6964779496192932,0.01,0.0,0.0,0.0,0.01,0.0,0.0,0.0,0.01,0.03264753520488739,0.10561244934797287,-0.15704099833965302,0.01,0.0,0.0,0.0,0.01,0.0,0.0,0.0,0.01,-0.18806378052681683,-10.233179130035639,-0.43783476976286617,0.01,0.0,0.0,0.0,0.01,0.0,0.0,0.0,0.01
1700026357.328549,38733,1700026357,313958912,gx5_link,0.684237539768219,0.14255523681640625,0.162403404712677,0.6965070962905884,0.01,0.0,0.0,0.0,0.01,0.0,0.0,0.0,0.01,0.017049789428710938,0.09214001148939133,-0.14293164014816284,0.01,0.0,0.0,0.0,0.01,0.0,0.0,0.0,0.01,-0.17416434318041427,-10.261681586420535,-0.36237460123952475,0.01,0.0,0.0,0.0,0.01,0.0,0.0,0.0,0.01
1700026357.3404424,38734,1700026357,323973888,gx5_link,0.6840683817863464,0.1432189643383026,0.1621713787317276,0.6965911388397217,0.01,0.0,0.0,0.0,0.01,0.0,0.0,0.0,0.01,-0.00226479209959507,0.08521392941474915,-0.1300889551639557,0.01,0.0,0.0,0.0,0.01,0.0,0.0,0.0,0.01,-0.18653973103100432,-10.243269146895408,-0.31379082226920874,0.01,0.0,0.0,0.0,0.01,0.0,0.0,0.0,0.01
1700026357.3544774,38735,1700026357,333986304,gx5_link,0.6838711500167847,0.1438313126564026,0.16201035678386688,0.6966961026191711,0.01,0.0,0.0,0.0,0.01,0.0,0.0,0.0,0.01,-0.01515979878604412,0.08467892557382584,-0.11665493994951248,0.01,0.0,0.0,0.0,0.01,0.0,0.0,0.0,0.01,-0.22071933800317345,-10.21853685669899,-0.22208609631173312,0.01,0.0,0.0,0.0,0.01,0.0,0.0,0.0,0.01
1700026357.3602095,38736,1700026357,344001280,gx5_link,0.6836766004562378,0.14440281689167023,0.1619582623243332,0.6967810392379761,0.01,0.0,0.0,0.0,0.01,0.0,0.0,0.0,0.01,-0.022611692547798157,0.09359671920537949,-0.09704195708036423,0.01,0.0,0.0,0.0,0.01,0.0,0.0,0.0,0.01,-0.2327135627827607,-10.219975949591397,-0.09708504902264102,0.01,0.0,0.0,0.0,0.01,0.0,0.0,0.0,0.01
1700026357.370374,38737,1700026357,354017024,gx5_link,0.6834526658058167,0.14499293267726898,0.16206160187721252,0.6968540549278259,0.01,0.0,0.0,0.0,0.01,0.0,0.0,0.0,0.01,-0.029257874935865402,0.11492564529180527,-0.07795177400112152,0.01,0.0,0.0,0.0,0.01,0.0,0.0,0.0,0.01,-0.19828677611649034,-10.138867692178486,-0.10812549847504123,0.01,0.0,0.0,0.0,0.01,0.0,0.0,0.0,0.01
1700026357.376141,38738,1700026357,364028416,gx5_link,0.6831786036491394,0.14559638500213623,0.16224299371242523,0.6969547271728516,0.01,0.0,0.0,0.0,0.01,0.0,0.0,0.0,0.01,-0.03709392622113228,0.1298394352197647,-0.0682886466383934,0.01,0.0,0.0,0.0,0.01,0.0,0.0,0.0,0.01,-0.16885971569996328,-10.062165560770033,-0.22059952928209675,0.01,0.0,0.0,0.0,0.01,0.0,0.0,0.0,0.01
1700026357.3883572,38739,1700026357,374041344,gx5_link,0.6828912496566772,0.146157369017601,0.16246576607227325,0.6970670819282532,0.01,0.0,0.0,0.0,0.01,0.0,0.0,0.0,0.01,-0.03857040032744408,0.13298267126083374,-0.05795790255069733,0.01,0.0,0.0,0.0,0.01,0.0,0.0,0.0,0.01,-0.1773508642620407,-10.069429998815059,-0.3097937154570594,0.01,0.0,0.0,0.0,0.01,0.0,0.0,0.0,0.01
1700026357.4018033,38740,1700026357,384057856,gx5_link,0.6826059222221375,0.1466851383447647,0.1627165526151657,0.6971772313117981,0.01,0.0,0.0,0.0,0.01,0.0,0.0,0.0,0.01,-0.040724292397499084,0.13408002257347107,-0.04950873181223869,0.01,0.0,0.0,0.0,0.01,0.0,0.0,0.0,0.01,-0.15029565667654388,-10.005921695500613,-0.31352654530983415,0.01,0.0,0.0,0.0,0.01,0.0,0.0,0.0,0.01
1700026357.4091709,38741,1700026357,394069248,gx5_link,0.682327151298523,0.1472255438566208,0.1629677414894104,0.6972775459289551,0.01,0.0,0.0,0.0,0.01,0.0,0.0,0.0,0.01,-0.0413101427257061,0.13610512018203735,-0.048854973167181015,0.01,0.0,0.0,0.0,0.01,0.0,0.0,0.0,0.01,-0.12844346109423785,-9.93928970720768,-0.3042749885682016,0.01,0.0,0.0,0.0,0.01,0.0,0.0,0.0,0.01
1700026357.4194627,38742,1700026357,404083968,gx5_link,0.682022213935852,0.14779207110404968,0.16321711242198944,0.6973975896835327,0.01,0.0,0.0,0.0,0.01,0.0,0.0,0.0,0.01,-0.04544539749622345,0.1395982801914215,-0.0528472363948822,0.01,0.0,0.0,0.0,0.01,0.0,0.0,0.0,0.01,-0.1032916851104237,-9.859737447065115,-0.3025761852936819,0.01,0.0,0.0,0.0,0.01,0.0,0.0,0.0,0.01
1700026357.4301503,38743,1700026357,414099200,gx5_link,0.6817259192466736,0.14838555455207825,0.16340935230255127,0.6975163221359253,0.01,0.0,0.0,0.0,0.01,0.0,0.0,0.0,0.01,-0.042661119252443314,0.13590151071548462,-0.062204472720623016,0.01,0.0,0.0,0.0,0.01,0.0,0.0,0.0,0.01,-0.06724835749245249,-9.771505036860704,-0.2641262805911712,0.01,0.0,0.0,0.0,0.01,0.0,0.0,0.0,0.01
1700026357.4374409,38744,1700026357,424111360,gx5_link,0.6814345121383667,0.1490057110786438,0.1635214239358902,0.6976425051689148,0.01,0.0,0.0,0.0,0.01,0.0,0.0,0.0,0.01,-0.03947462514042854,0.12883687019348145,-0.07564596086740494,0.01,0.0,0.0,0.0,0.01,0.0,0.0,0.0,0.01,-0.058066217291797506,-9.775020936027168,-0.31745708969179537,0.01,0.0,0.0,0.0,0.01,0.0,0.0,0.0,0.01
1700026357.4505298,38745,1700026357,434125824,gx5_link,0.6811155676841736,0.14962604641914368,0.16353839635849,0.6978172063827515,0.01,0.0,0.0,0.0,0.01,0.0,0.0,0.0,0.01,-0.04626953974366188,0.11665654182434082,-0.0919785276055336,0.01,0.0,0.0,0.0,0.01,0.0,0.0,0.0,0.01,-0.04477235832284204,-9.719686002296209,-0.3178514593042433,0.01,0.0,0.0,0.0,0.01,0.0,0.0,0.0,0.01
1700026357.4613547,38746,1700026357,444141568,gx5_link,0.6807608604431152,0.1502625048160553,0.16340965032577515,0.6980567574501038,0.01,0.0,0.0,0.0,0.01,0.0,0.0,0.0,0.01,-0.05488746613264084,0.09895393252372742,-0.11562058329582214,0.01,0.0,0.0,0.0,0.01,0.0,0.0,0.0,0.01,0.003294508075813064,-9.58896644949615,-0.2950784316831268,0.01,0.0,0.0,0.0,0.01,0.0,0.0,0.0,0.01
1700026357.4752114,38747,1700026357,454153472,gx5_link,0.6804137229919434,0.15097668766975403,0.16318297386169434,0.6982940435409546,0.01,0.0,0.0,0.0,0.01,0.0,0.0,0.0,0.01,-0.055105648934841156,0.09520187228918076,-0.13670168817043304,0.01,0.0,0.0,0.0,0.01,0.0,0.0,0.0,0.01,0.03701516832481138,-9.536824758848548,-0.1377504378175363,0.01,0.0,0.0,0.0,0.01,0.0,0.0,0.0,0.01
1700026357.478007,38748,1700026357,464166912,gx5_link,0.6801053285598755,0.1517045944929123,0.16289779543876648,0.6985032558441162,0.01,0.0,0.0,0.0,0.01,0.0,0.0,0.0,0.01,-0.04698973894119263,0.08827502280473709,-0.14758239686489105,0.01,0.0,0.0,0.0,0.01,0.0,0.0,0.0,0.01,0.06184570386447012,-9.474030741283297,-0.07021819904951844,0.01,0.0,0.0,0.0,0.01,0.0,0.0,0.0,0.01
1700026357.4898481,38749,1700026357,474181888,gx5_link,0.6798261404037476,0.15242180228233337,0.1625458151102066,0.6987009048461914,0.01,0.0,0.0,0.0,0.01,0.0,0.0,0.0,0.01,-0.03634770214557648,0.07773172110319138,-0.1545187532901764,0.01,0.0,0.0,0.0,0.01,0.0,0.0,0.0,0.01,0.06995881746097002,-9.452326274475455,-0.1533896497696638,0.01,0.0,0.0,0.0,0.01,0.0,0.0,0.0,0.01
1700026357.496778,38750,1700026357,484193536,gx5_link,0.6795781850814819,0.15312322974205017,0.16212740540504456,0.698885977268219,0.01,0.0,0.0,0.0,0.01,0.0,0.0,0.0,0.01,-0.030982887372374535,0.0651455670595169,-0.16105018556118011,0.01,0.0,0.0,0.0,0.01,0.0,0.0,0.0,0.01,0.056632599725527685,-9.48948725361228,-0.1222223489565309,0.01,0.0,0.0,0.0,0.01,0.0,0.0,0.0,0.01
1700026357.5090518,38751,1700026357,494207232,gx5_link,0.6793313026428223,0.1538170427083969,0.16164857149124146,0.699084460735321,0.01,0.0,0.0,0.0,0.01,0.0,0.0,0.0,0.01,-0.030283460393548012,0.05611339583992958,-0.17008076608181,0.01,0.0,0.0,0.0,0.01,0.0,0.0,0.0,0.01,0.07835852031335235,-9.47012905766964,-0.11213957468830048,0.01,0.0,0.0,0.0,0.01,0.0,0.0,0.0,0.01
1700026357.524619,38752,1700026357,504222976,gx5_link,0.6790384650230408,0.15456071496009827,0.16112582385540009,0.6993255615234375,0.01,0.0,0.0,0.0,0.01,0.0,0.0,0.0,0.01,-0.03699134662747383,0.0551074743270874,-0.1827279031276703,0.01,0.0,0.0,0.0,0.01,0.0,0.0,0.0,0.01,0.12593403555657715,-9.468801608458161,-0.15144010487077758,0.01,0.0,0.0,0.0,0.01,0.0,0.0,0.0,0.01
1700026357.5267062,38753,1700026357,514234112,gx5_link,0.6787419319152832,0.15529295802116394,0.1606007069349289,0.6995719075202942,0.01,0.0,0.0,0.0,0.01,0.0,0.0,0.0,0.01,-0.03641889989376068,0.05417174473404884,-0.18096308410167694,0.01,0.0,0.0,0.0,0.01,0.0,0.0,0.0,0.01,0.1738017934783362,-9.548194878646731,-0.19425054287035018,0.01,0.0,0.0,0.0,0.01,0.0,0.0,0.0,0.01
