Time,header.seq,header.stamp.secs,header.stamp.nsecs,header.frame_id,orientation.x,orientation.y,orientation.z,orientation.w,orientation_covariance_0,orientation_covariance_1,orientation_covariance_2,orientation_covariance_3,orientation_covariance_4,orientation_covariance_5,orientation_covariance_6,orientation_covariance_7,orientation_covariance_8,angular_velocity.x,angular_velocity.y,angular_velocity.z,angular_velocity_covariance_0,angular_velocity_covariance_1,angular_velocity_covariance_2,angular_velocity_covariance_3,angular_velocity_covariance_4,angular_velocity_covariance_5,angular_velocity_covariance_6,angular_velocity_covariance_7,angular_velocity_covariance_8,linear_acceleration.x,linear_acceleration.y,linear_acceleration.z,linear_acceleration_covariance_0,linear_acceleration_covariance_1,linear_acceleration_covariance_2,linear_acceleration_covariance_3,linear_acceleration_covariance_4,linear_acceleration_covariance_5,linear_acceleration_covariance_6,linear_acceleration_covariance_7,linear_acceleration_covariance_8
1700026481.3756022,51210,1700026481,134261248,sensor_wgs84,0.654765248298645,0.1359996646642685,0.17621071636676788,0.7223131656646729,2.0686509909252637e-06,0.0,0.0,0.0,2.364240456645026e-06,0.0,0.0,0.0,6.636836402503735e-05,0.016507558524608612,-0.004918530583381653,-0.009238452650606632,0.01,0.0,0.0,0.0,0.01,0.0,0.0,0.0,0.01,0.04331636428833008,0.0759572982788086,-0.026484966278076172,0.01,0.0,0.0,0.0,0.01,0.0,0.0,0.0,0.01
1700026481.3757372,51211,1700026481,144279040,sensor_wgs84,0.6548331379890442,0.13604116439819336,0.17613117396831512,0.7222632765769958,2.0686509909252637e-06,0.0,0.0,0.0,2.364240456645026e-06,0.0,0.0,0.0,6.636836402503735e-05,0.0211480725556612,-0.008125416934490204,-0.015711355954408646,0.01,0.0,0.0,0.0,0.01,0.0,0.0,0.0,0.01,0.05730322003364563,0.03844261169433594,-0.05691099166870117,0.01,0.0,0.0,0.0,0.01,0.0,0.0,0.0,0.01
1700026481.3757758,51212,1700026481,154294528,sensor_wgs84,0.6549034714698792,0.13610169291496277,0.17605260014533997,0.7222071886062622,2.057479922304992e-06,0.0,0.0,0.0,2.3502247316594727e-06,0.0,0.0,0.0,6.63131711449447e-05,0.020853234454989433,-0.0014291482511907816,-0.013759628869593143,0.01,0.0,0.0,0.0,0.01,0.0,0.0,0.0,0.01,0.04999184608459473,-0.006846427917480469,-0.0781317949295044,0.01,0.0,0.0,0.0,0.01,0.0,0.0,0.0,0.01
1700026481.375885,51213,1700026481,164311296,sensor_wgs84,0.6549882888793945,0.1361706405878067,0.1759563386440277,0.7221408486366272,2.057479922304992e-06,0.0,0.0,0.0,2.3502247316594727e-06,0.0,0.0,0.0,6.63131711449447e-05,0.027538208290934563,-0.0029099201783537865,-0.018267277628183365,0.01,0.0,0.0,0.0,0.01,0.0,0.0,0.0,0.01,0.057181715965270996,-0.01818084716796875,-0.13612794876098633,0.01,0.0,0.0,0.0,0.01,0.0,0.0,0.0,0.01
1700026481.3759325,51214,1700026481,174329600,sensor_wgs84,0.6550743579864502,0.13623496890068054,0.1758335381746292,0.7220805287361145,2.057479922304992e-06,0.0,0.0,0.0,2.3502247316594727e-06,0.0,0.0,0.0,6.63131711449447e-05,0.0274532251060009,-0.00910690613090992,-0.024142123758792877,0.01,0.0,0.0,0.0,0.01,0.0,0.0,0.0,0.01,0.05096554756164551,-0.006011962890625,-0.10577106475830078,0.01,0.0,0.0,0.0,0.01,0.0,0.0,0.0,0.01
1700026481.3759778,51215,1700026481,184344576,sensor_wgs84,0.655164897441864,0.1362960934638977,0.1757037192583084,0.7220184803009033,2.057479922304992e-06,0.0,0.0,0.0,2.3502247316594727e-06,0.0,0.0,0.0,6.63131711449447e-05,0.02544424682855606,-0.011053675785660744,-0.020984210073947906,0.01,0.0,0.0,0.0,0.01,0.0,0.0,0.0,0.01,0.027784347534179688,-0.088531494140625,0.028963565826416016,0.01,0.0,0.0,0.0,0.01,0.0,0.0,0.0,0.01
1700026481.3760345,51216,1700026481,194367232,sensor_wgs84,0.6552523970603943,0.13636301457881927,0.17558792233467102,0.7219545841217041,2.057479922304992e-06,0.0,0.0,0.0,2.3502247316594727e-06,0.0,0.0,0.0,6.63131711449447e-05,0.02469460852444172,-0.00665978342294693,-0.01974472403526306,0.01,0.0,0.0,0.0,0.01,0.0,0.0,0.0,0.01,0.017993241548538208,-0.1295480728149414,0.1002928614616394,0.01,0.0,0.0,0.0,0.01,0.0,0.0,0.0,0.01
1700026481.3760757,51217,1700026481,204381440,sensor_wgs84,0.6553134918212891,0.13643160462379456,0.1754898726940155,0.7219099402427673,2.057479922304992e-06,0.0,0.0,0.0,2.3502247316594727e-06,0.0,0.0,0.0,6.63131711449447e-05,0.014112424105405807,-0.005578806158155203,-0.020524319261312485,0.01,0.0,0.0,0.0,0.01,0.0,0.0,0.0,0.01,0.01954185962677002,-0.13574886322021484,0.0944983959197998,0.01,0.0,0.0,0.0,0.01,0.0,0.0,0.0,0.01
1700026481.3761194,51218,1700026481,214395392,sensor_wgs84,0.6553269624710083,0.13650883734226227,0.175390362739563,0.7219073176383972,2.057479922304992e-06,0.0,0.0,0.0,2.3502247316594727e-06,0.0,0.0,0.0,6.63131711449447e-05,0.00010931678116321564,-0.002070442773401737,-0.028809471055865288,0.01,0.0,0.0,0.0,0.01,0.0,0.0,0.0,0.01,0.018054872751235962,-0.1266031265258789,0.066444993019104,0.01,0.0,0.0,0.0,0.01,0.0,0.0,0.0,0.01
1700026481.3761609,51219,1700026481,224412928,sensor_wgs84,0.6552879214286804,0.1365799605846405,0.17525765299797058,0.7219615578651428,2.057479922304992e-06,0.0,0.0,0.0,2.3502247316594727e-06,0.0,0.0,0.0,6.63131711449447e-05,-0.011272840201854706,-0.016562743112444878,-0.034127186983823776,0.01,0.0,0.0,0.0,0.01,0.0,0.0,0.0,0.01,0.004120558500289917,-0.12708759307861328,0.043263256549835205,0.01,0.0,0.0,0.0,0.01,0.0,0.0,0.0,0.01
1700026481.376205,51220,1700026481,234426624,sensor_wgs84,0.6552249789237976,0.13661709427833557,0.17508424818515778,0.7220537066459656,2.057479922304992e-06,0.0,0.0,0.0,2.3502247316594727e-06,0.0,0.0,0.0,6.63131711449447e-05,-0.0234394334256649,-0.02206883206963539,-0.03358091786503792,0.01,0.0,0.0,0.0,0.01,0.0,0.0,0.0,0.01,0.006454050540924072,-0.13599586486816406,0.07613503932952881,0.01,0.0,0.0,0.0,0.01,0.0,0.0,0.0,0.01
1700026481.376242,51221,1700026481,244441344,sensor_wgs84,0.6551401615142822,0.13661810755729675,0.1749027669429779,0.7221744656562805,2.057479922304992e-06,0.0,0.0,0.0,2.3502247316594727e-06,0.0,0.0,0.0,6.63131711449447e-05,-0.026391614228487015,-0.030892005190253258,-0.025439776480197906,0.01,0.0,0.0,0.0,0.01,0.0,0.0,0.0,0.01,0.017733335494995117,-0.0758218765258789,0.09872817993164062,0.01,0.0,0.0,0.0,0.01,0.0,0.0,0.0,0.01
1700026481.3763425,51222,1700026481,254457344,sensor_wgs84,0.6550437808036804,0.13660036027431488,0.17474551498889923,0.7223032712936401,2.057479922304992e-06,0.0,0.0,0.0,2.3502247316594727e-06,0.0,0.0,0.0,6.63131711449447e-05,-0.023537296801805496,-0.030655141919851303,-0.024270812049508095,0.01,0.0,0.0,0.0,0.01,0.0,0.0,0.0,0.01,-0.009076982736587524,-0.07360363006591797,0.10489529371261597,0.01,0.0,0.0,0.0,0.01,0.0,0.0,0.0,0.01
1700026481.3765225,51223,1700026481,264469760,sensor_wgs84,0.6549579501152039,0.13655073940753937,0.1746014505624771,0.7224252820014954,2.057479922304992e-06,0.0,0.0,0.0,2.3502247316594727e-06,0.0,0.0,0.0,6.63131711449447e-05,-0.025532865896821022,-0.0262950137257576,-0.014767372980713844,0.01,0.0,0.0,0.0,0.01,0.0,0.0,0.0,0.01,-0.013042479753494263,-0.02560710906982422,0.07886707782745361,0.01,0.0,0.0,0.0,0.01,0.0,0.0,0.0,0.01
1700026481.376607,51224,1700026481,274484480,sensor_wgs84,0.6548926830291748,0.13649660348892212,0.17447809875011444,0.7225245833396912,2.057479922304992e-06,0.0,0.0,0.0,2.3502247316594727e-06,0.0,0.0,0.0,6.63131711449447e-05,-0.015356261283159256,-0.02741534262895584,-0.013120131567120552,0.01,0.0,0.0,0.0,0.01,0.0,0.0,0.0,0.01,-0.0168418288230896,-0.0042476654052734375,0.011553168296813965,0.01,0.0,0.0,0.0,0.01,0.0,0.0,0.0,0.01
1700026481.3767722,51225,1700026481,284507136,sensor_wgs84,0.6548546552658081,0.1364152729511261,0.17434589564800262,0.7226063013076782,2.057479922304992e-06,0.0,0.0,0.0,2.3502247316594727e-06,0.0,0.0,0.0,6.63131711449447e-05,-0.009184649214148521,-0.02892979420721531,-0.00930327083915472,0.01,0.0,0.0,0.0,0.01,0.0,0.0,0.0,0.01,-0.027322977781295776,-0.02825164794921875,-0.013513803482055664,0.01,0.0,0.0,0.0,0.01,0.0,0.0,0.0,0.01
1700026481.3773997,51226,1700026481,294520832,sensor_wgs84,0.6548439264297485,0.1363232284784317,0.17423562705516815,0.7226599454879761,2.057479922304992e-06,0.0,0.0,0.0,2.3502247316594727e-06,0.0,0.0,0.0,6.63131711449447e-05,-0.005270380526781082,-0.03218306601047516,-0.005655072163790464,0.01,0.0,0.0,0.0,0.01,0.0,0.0,0.0,0.01,-0.01232197880744934,-0.051848411560058594,0.01731705665588379,0.01,0.0,0.0,0.0,0.01,0.0,0.0,0.0,0.01
1700026481.3781688,51227,1700026481,304535552,sensor_wgs84,0.654853880405426,0.13622674345970154,0.17415228486061096,0.7226892113685608,2.057479922304992e-06,0.0,0.0,0.0,2.3502247316594727e-06,0.0,0.0,0.0,6.63131711449447e-05,0.002106558997184038,-0.023702794685959816,0.0041319262236356735,0.01,0.0,0.0,0.0,0.01,0.0,0.0,0.0,0.01,-0.0022774338722229004,-0.07435798645019531,-0.01231229305267334,0.01,0.0,0.0,0.0,0.01,0.0,0.0,0.0,0.01
1700026481.378238,51228,1700026481,314552064,sensor_wgs84,0.6548922061920166,0.13611799478530884,0.17408987879753113,0.7226900458335876,2.057479922304992e-06,0.0,0.0,0.0,2.3502247316594727e-06,0.0,0.0,0.0,6.63131711449447e-05,0.005530206952244043,-0.024030372500419617,0.010759344324469566,0.01,0.0,0.0,0.0,0.01,0.0,0.0,0.0,0.01,0.008425325155258179,-0.12198829650878906,-0.03866851329803467,0.01,0.0,0.0,0.0,0.01,0.0,0.0,0.0,0.01
1700026481.3782766,51229,1700026481,324564224,sensor_wgs84,0.6549408435821533,0.13599242269992828,0.17402927577495575,0.7226842045783997,2.057479922304992e-06,0.0,0.0,0.0,2.3502247316594727e-06,0.0,0.0,0.0,6.63131711449447e-05,0.005026302766054869,-0.028688957914710045,0.007670392747968435,0.01,0.0,0.0,0.0,0.01,0.0,0.0,0.0,0.01,0.03215897083282471,-0.0969228744506836,-0.1387791633605957,0.01,0.0,0.0,0.0,0.01,0.0,0.0,0.0,0.01
1700026481.3783941,51230,1700026481,334578176,sensor_wgs84,0.6549724340438843,0.1357496827840805,0.17376230657100677,0.7227655053138733,2.057479922304992e-06,0.0,0.0,0.0,2.3502247316594727e-06,0.0,0.0,0.0,6.63131711449447e-05,-0.016643330454826355,-0.0495389848947525,-0.01082201674580574,0.01,0.0,0.0,0.0,0.01,0.0,0.0,0.0,0.01,0.039531856775283813,-0.06429862976074219,-0.17430341243743896,0.01,0.0,0.0,0.0,0.01,0.0,0.0,0.0,0.01
1700026481.3784995,51231,1700026481,344593664,sensor_wgs84,0.6549190878868103,0.13559335470199585,0.17354300618171692,0.7228957414627075,2.057479922304992e-06,0.0,0.0,0.0,2.3502247316594727e-06,0.0,0.0,0.0,6.63131711449447e-05,-0.027992310002446175,-0.06025541573762894,-0.023418884724378586,0.01,0.0,0.0,0.0,0.01,0.0,0.0,0.0,0.01,0.036119818687438965,-0.053508758544921875,-0.15935122966766357,0.01,0.0,0.0,0.0,0.01,0.0,0.0,0.0,0.01
1700026481.3785498,51232,1700026481,354606336,sensor_wgs84,0.6548222899436951,0.13540613651275635,0.17325957119464874,0.7230865359306335,2.0463091225057643e-06,0.0,0.0,0.0,2.3360574371992425e-06,0.0,0.0,0.0,6.625195182438995e-05,-0.03984349966049194,-0.07316827028989792,-0.028411701321601868,0.01,0.0,0.0,0.0,0.01,0.0,0.0,0.0,0.01,0.009445995092391968,-0.05647754669189453,-0.17024743556976318,0.01,0.0,0.0,0.0,0.01,0.0,0.0,0.0,0.01
1700026481.3827233,51233,1700026481,364622080,sensor_wgs84,0.6546974182128906,0.1351802498102188,0.17295463383197784,0.7233147621154785,2.0463091225057643e-06,0.0,0.0,0.0,2.3360574371992425e-06,0.0,0.0,0.0,6.625195182438995e-05,-0.05030561238527298,-0.07565462589263916,-0.025106608867645264,0.01,0.0,0.0,0.0,0.01,0.0,0.0,0.0,0.01,-0.04405847191810608,-0.09080314636230469,-0.1408594846725464,0.01,0.0,0.0,0.0,0.01,0.0,0.0,0.0,0.01
1700026481.4018831,51234,1700026481,374644480,sensor_wgs84,0.6545636057853699,0.13492019474506378,0.1726924479007721,0.7235470414161682,2.0463091225057643e-06,0.0,0.0,0.0,2.3360574371992425e-06,0.0,0.0,0.0,6.625195182438995e-05,-0.049033310264348984,-0.06910552084445953,-0.005736147984862328,0.01,0.0,0.0,0.0,0.01,0.0,0.0,0.0,0.01,-0.10053110122680664,-0.04586029052734375,-0.009462118148803711,0.01,0.0,0.0,0.0,0.01,0.0,0.0,0.0,0.01
1700026481.4019365,51235,1700026481,384657664,sensor_wgs84,0.6544432044029236,0.1346776783466339,0.17250707745552063,0.7237453460693359,2.0463091225057643e-06,0.0,0.0,0.0,2.3360574371992425e-06,0.0,0.0,0.0,6.625195182438995e-05,-0.04383797198534012,-0.05083243548870087,-0.002851333701983094,0.01,0.0,0.0,0.0,0.01,0.0,0.0,0.0,0.01,-0.13710734248161316,0.021631240844726562,0.12460166215896606,0.01,0.0,0.0,0.0,0.01,0.0,0.0,0.0,0.01
1700026481.410858,51236,1700026481,394672384,sensor_wgs84,0.6543168425559998,0.13452491164207458,0.17242278158664703,0.7239080667495728,2.0463091225057643e-06,0.0,0.0,0.0,2.3360574371992425e-06,0.0,0.0,0.0,6.625195182438995e-05,-0.039090562611818314,-0.012923327274620533,-0.0005061158444732428,0.01,0.0,0.0,0.0,0.01,0.0,0.0,0.0,0.01,-0.13891223073005676,0.046500205993652344,0.23027712106704712,0.01,0.0,0.0,0.0,0.01,0.0,0.0,0.0,0.01
1700026481.4228005,51237,1700026481,404688896,sensor_wgs84,0.6541832685470581,0.13449591398239136,0.17245233058929443,0.7240272164344788,2.0463091225057643e-06,0.0,0.0,0.0,2.3360574371992425e-06,0.0,0.0,0.0,6.625195182438995e-05,-0.03324434533715248,0.019696656614542007,-0.0017233112594112754,0.01,0.0,0.0,0.0,0.01,0.0,0.0,0.0,0.01,-0.09577494859695435,0.06766796112060547,0.2672383189201355,0.01,0.0,0.0,0.0,0.01,0.0,0.0,0.0,0.01
1700026481.4297123,51238,1700026481,414700544,sensor_wgs84,0.6540329456329346,0.13459907472133636,0.17257636785507202,0.7241142392158508,2.0463091225057643e-06,0.0,0.0,0.0,2.3360574371992425e-06,0.0,0.0,0.0,6.625195182438995e-05,-0.02989744208753109,0.044378869235515594,-0.004392398055642843,0.01,0.0,0.0,0.0,0.01,0.0,0.0,0.0,0.01,-0.007627129554748535,0.1295480728149414,0.13884985446929932,0.01,0.0,0.0,0.0,0.01,0.0,0.0,0.0,0.01
1700026481.4401202,51239,1700026481,424714240,sensor_wgs84,0.6538583040237427,0.13477823138237,0.1726950705051422,0.7242103219032288,2.0463091225057643e-06,0.0,0.0,0.0,2.3360574371992425e-06,0.0,0.0,0.0,6.625195182438995e-05,-0.04033452272415161,0.046533387154340744,-0.019154267385601997,0.01,0.0,0.0,0.0,0.01,0.0,0.0,0.0,0.01,0.0748293399810791,0.2037200927734375,-0.06947612762451172,0.01,0.0,0.0,0.0,0.01,0.0,0.0,0.0,0.01
1700026481.452941,51240,1700026481,434730752,sensor_wgs84,0.6536632776260376,0.13499772548675537,0.17273516952991486,0.7243359088897705,2.0463091225057643e-06,0.0,0.0,0.0,2.3360574371992425e-06,0.0,0.0,0.0,6.625195182438995e-05,-0.03679158538579941,0.03389382362365723,-0.03985502943396568,0.01,0.0,0.0,0.0,0.01,0.0,0.0,0.0,0.01,0.14948102831840515,0.2542877197265625,-0.2457876205444336,0.01,0.0,0.0,0.0,0.01,0.0,0.0,0.0,0.01
1700026481.4598222,51241,1700026481,444744448,sensor_wgs84,0.6534684300422668,0.1351826786994934,0.1726371943950653,0.7245005965232849,2.0463091225057643e-06,0.0,0.0,0.0,2.3360574371992425e-06,0.0,0.0,0.0,6.625195182438995e-05,-0.04133158549666405,0.0014529108302667737,-0.057879913598299026,0.01,0.0,0.0,0.0,0.01,0.0,0.0,0.0,0.01,0.20420080423355103,0.29831790924072266,-0.3518404960632324,0.01,0.0,0.0,0.0,0.01,0.0,0.0,0.0,0.01
1700026481.4716468,51242,1700026481,454759680,sensor_wgs84,0.6533039808273315,0.13531482219696045,0.1723749041557312,0.7246866226196289,2.0463091225057643e-06,0.0,0.0,0.0,2.3360574371992425e-06,0.0,0.0,0.0,6.625195182438995e-05,-0.034321848303079605,-0.02848380245268345,-0.07163428515195847,0.01,0.0,0.0,0.0,0.01,0.0,0.0,0.0,0.01,0.23182135820388794,0.2899761199951172,-0.3303266763687134,0.01,0.0,0.0,0.0,0.01,0.0,0.0,0.0,0.01
1700026481.4898622,51243,1700026481,464783104,sensor_wgs84,0.6531879901885986,0.13537177443504333,0.1719963699579239,0.724870502948761,2.0463091225057643e-06,0.0,0.0,0.0,2.3360574371992425e-06,0.0,0.0,0.0,6.625195182438995e-05,-0.017849937081336975,-0.05188228189945221,-0.06735339015722275,0.01,0.0,0.0,0.0,0.01,0.0,0.0,0.0,0.01,0.2109510898590088,0.23914432525634766,-0.2896549701690674,0.01,0.0,0.0,0.0,0.01,0.0,0.0,0.0,0.01
1700026481.4974353,51244,1700026481,474800896,sensor_wgs84,0.6531426906585693,0.13535910844802856,0.17155252397060394,0.7250187993049622,2.0463091225057643e-06,0.0,0.0,0.0,2.3360574371992425e-06,0.0,0.0,0.0,6.625195182438995e-05,-0.010299185290932655,-0.06842460483312607,-0.0648391842842102,0.01,0.0,0.0,0.0,0.01,0.0,0.0,0.0,0.01,0.16612569987773895,0.20327281951904297,-0.17814111709594727,0.01,0.0,0.0,0.0,0.01,0.0,0.0,0.0,0.01
1700026481.5007923,51245,1700026481,484815360,sensor_wgs84,0.65315842628479,0.13529250025749207,0.17111055552959442,0.7251214981079102,2.0463091225057643e-06,0.0,0.0,0.0,2.3360574371992425e-06,0.0,0.0,0.0,6.625195182438995e-05,0.006585852243006229,-0.07281476259231567,-0.0479213185608387,0.01,0.0,0.0,0.0,0.01,0.0,0.0,0.0,0.01,0.12506121397018433,0.19103145599365234,-0.06523001194000244,0.01,0.0,0.0,0.0,0.01,0.0,0.0,0.0,0.01
1700026481.5138078,51246,1700026481,494832640,sensor_wgs84,0.6532379984855652,0.13521458208560944,0.17070835828781128,0.725159227848053,2.0463091225057643e-06,0.0,0.0,0.0,2.3360574371992425e-06,0.0,0.0,0.0,6.625195182438995e-05,0.01952326111495495,-0.06617914140224457,-0.04369121789932251,0.01,0.0,0.0,0.0,0.01,0.0,0.0,0.0,0.01,0.0823913961648941,0.13665199279785156,0.04847252368927002,0.01,0.0,0.0,0.0,0.01,0.0,0.0,0.0,0.01
1700026481.5320592,51247,1700026481,504845568,sensor_wgs84,0.6533650755882263,0.13514046370983124,0.17037521302700043,0.7251368761062622,2.0463091225057643e-06,0.0,0.0,0.0,2.3360574371992425e-06,0.0,0.0,0.0,6.625195182438995e-05,0.03851570934057236,-0.05411845073103905,-0.03003956750035286,0.01,0.0,0.0,0.0,0.01,0.0,0.0,0.0,0.01,0.03925442695617676,0.006836891174316406,0.09218013286590576,0.01,0.0,0.0,0.0,0.01,0.0,0.0,0.0,0.01
1700026481.5321276,51248,1700026481,514859264,sensor_wgs84,0.6535305976867676,0.13506734371185303,0.170131117105484,0.7250585556030273,2.0463091225057643e-06,0.0,0.0,0.0,2.3360574371992425e-06,0.0,0.0,0.0,6.625195182438995e-05,0.039455097168684006,-0.03084496781229973,-0.006793437525629997,0.01,0.0,0.0,0.0,0.01,0.0,0.0,0.0,0.01,0.018607959151268005,-0.10334968566894531,0.12673377990722656,0.01,0.0,0.0,0.0,0.01,0.0,0.0,0.0,0.01
1700026481.5430655,51249,1700026481,524875776,sensor_wgs84,0.6536945700645447,0.13498970866203308,0.17001406848430634,0.724952757358551,2.0463091225057643e-06,0.0,0.0,0.0,2.3360574371992425e-06,0.0,0.0,0.0,6.625195182438995e-05,0.034562863409519196,-0.022454170510172844,0.007362261414527893,0.01,0.0,0.0,0.0,0.01,0.0,0.0,0.0,0.01,0.0029657483100891113,-0.1360158920288086,0.07785755395889282,0.01,0.0,0.0,0.0,0.01,0.0,0.0,0.0,0.01
1700026481.5496488,51250,1700026481,534888448,sensor_wgs84,0.6538467407226562,0.13489998877048492,0.1699397712945938,0.7248495817184448,2.0463091225057643e-06,0.0,0.0,0.0,2.3360574371992425e-06,0.0,0.0,0.0,6.625195182438995e-05,0.03124009445309639,-0.024681201204657555,0.007475467398762703,0.01,0.0,0.0,0.0,0.01,0.0,0.0,0.0,0.01,0.021908774971961975,-0.12261199951171875,0.05572354793548584,0.01,0.0,0.0,0.0,0.01,0.0,0.0,0.0,0.01
1700026481.5616164,51251,1700026481,544903168,sensor_wgs84,0.6539573669433594,0.1347893327474594,0.1698634922504425,0.724788248538971,2.0463091225057643e-06,0.0,0.0,0.0,2.3360574371992425e-06,0.0,0.0,0.0,6.625195182438995e-05,0.015031056478619576,-0.029319386929273605,0.0041244616732001305,0.01,0.0,0.0,0.0,0.01,0.0,0.0,0.0,0.01,0.02143828570842743,-0.17422103881835938,-0.02845919132232666,0.01,0.0,0.0,0.0,0.01,0.0,0.0,0.0,0.01
1700026481.5896533,51252,1700026481,554926080,sensor_wgs84,0.6540189981460571,0.13461939990520477,0.16978269815444946,0.7247832417488098,2.0553914678644788e-06,0.0,0.0,0.0,2.348307999575292e-06,0.0,0.0,0.0,6.63051171499035e-05,2.5247340090572834e-05,-0.04156434163451195,0.015324873849749565,0.01,0.0,0.0,0.0,0.01,0.0,0.0,0.0,0.01,0.016360878944396973,-0.19381999969482422,-0.07268655300140381,0.01,0.0,0.0,0.0,0.01,0.0,0.0,0.0,0.01
1700026481.5897162,51253,1700026481,564943360,sensor_wgs84,0.6540431380271912,0.13438689708709717,0.16970759630203247,0.7248221039772034,2.0553914678644788e-06,0.0,0.0,0.0,2.348307999575292e-06,0.0,0.0,0.0,6.63051171499035e-05,-0.014091046527028084,-0.04776730015873909,0.01928771287202835,0.01,0.0,0.0,0.0,0.01,0.0,0.0,0.0,0.01,0.016653165221214294,-0.1382436752319336,-0.008638620376586914,0.01,0.0,0.0,0.0,0.01,0.0,0.0,0.0,0.01
1700026481.5934448,51254,1700026481,574958592,sensor_wgs84,0.6540472507476807,0.1341245472431183,0.16963720321655273,0.724883496761322,2.0553914678644788e-06,0.0,0.0,0.0,2.348307999575292e-06,0.0,0.0,0.0,6.63051171499035e-05,-0.01604381948709488,-0.05169936269521713,0.025255000218749046,0.01,0.0,0.0,0.0,0.01,0.0,0.0,0.0,0.01,0.028974637389183044,-0.0871896743774414,0.04726541042327881,0.01,0.0,0.0,0.0,0.01,0.0,0.0,0.0,0.01
1700026481.6024637,51255,1700026481,584974080,sensor_wgs84,0.6540449857711792,0.13375642895698547,0.1694619208574295,0.7249945998191833,2.0553914678644788e-06,0.0,0.0,0.0,2.348307999575292e-06,0.0,0.0,0.0,6.63051171499035e-05,-0.018369169905781746,-0.040860991925001144,0.0309875700622797,0.01,0.0,0.0,0.0,0.01,0.0,0.0,0.0,0.01,0.025131791830062866,-0.13484859466552734,0.036254167556762695,0.01,0.0,0.0,0.0,0.01,0.0,0.0,0.0,0.01
1700026481.6116111,51256,1700026481,594986752,sensor_wgs84,0.6540341377258301,0.13349680602550507,0.1694958209991455,0.725044310092926,2.0553914678644788e-06,0.0,0.0,0.0,2.348307999575292e-06,0.0,0.0,0.0,6.63051171499035e-05,-0.015086891129612923,-0.02346741408109665,0.04300898313522339,0.01,0.0,0.0,0.0,0.01,0.0,0.0,0.0,0.01,0.02862459421157837,-0.1677703857421875,-0.014479756355285645,0.01,0.0,0.0,0.0,0.01,0.0,0.0,0.0,0.01
1700026481.6217947,51257,1700026481,605001216,sensor_wgs84,0.6540540456771851,0.133231520652771,0.1696172058582306,0.725046694278717,2.0553914678644788e-06,0.0,0.0,0.0,2.348307999575292e-06,0.0,0.0,0.0,6.63051171499035e-05,-0.00612144498154521,-0.019586943089962006,0.0563434399664402,0.01,0.0,0.0,0.0,0.01,0.0,0.0,0.0,0.01,0.048232972621917725,-0.08439922332763672,-0.046245694160461426,0.01,0.0,0.0,0.0,0.01,0.0,0.0,0.0,0.01
1700026481.632683,51258,1700026481,615016960,sensor_wgs84,0.6541135311126709,0.13298551738262177,0.16976264119148254,0.7250041365623474,2.0553914678644788e-06,0.0,0.0,0.0,2.348307999575292e-06,0.0,0.0,0.0,6.63051171499035e-05,0.004055487923324108,-0.01906474307179451,0.056913964450359344,0.01,0.0,0.0,0.0,0.01,0.0,0.0,0.0,0.01,0.06076920032501221,-0.042296409606933594,-0.16809606552124023,0.01,0.0,0.0,0.0,0.01,0.0,0.0,0.0,0.01
1700026481.6484625,51259,1700026481,625028096,sensor_wgs84,0.6542034149169922,0.1327434778213501,0.16986574232578278,0.724943220615387,2.0553914678644788e-06,0.0,0.0,0.0,2.348307999575292e-06,0.0,0.0,0.0,6.63051171499035e-05,0.01467849314212799,-0.027688084170222282,0.0537559948861599,0.01,0.0,0.0,0.0,0.01,0.0,0.0,0.0,0.01,0.05052521824836731,-0.063751220703125,-0.24119961261749268,0.01,0.0,0.0,0.0,0.01,0.0,0.0,0.0,0.01
1700026481.651228,51260,1700026481,635041280,sensor_wgs84,0.654302716255188,0.1324833482503891,0.16990026831626892,0.7248931527137756,2.0553914678644788e-06,0.0,0.0,0.0,2.348307999575292e-06,0.0,0.0,0.0,6.63051171499035e-05,0.00894547812640667,-0.040879666805267334,0.03793097659945488,0.01,0.0,0.0,0.0,0.01,0.0,0.0,0.0,0.01,0.006429076194763184,-0.0695333480834961,-0.18702375888824463,0.01,0.0,0.0,0.0,0.01,0.0,0.0,0.0,0.01
1700026481.6683786,51261,1700026481,645062400,sensor_wgs84,0.6543974876403809,0.13222777843475342,0.16986601054668427,0.724862277507782,2.0553914678644788e-06,0.0,0.0,0.0,2.348307999575292e-06,0.0,0.0,0.0,6.63051171499035e-05,0.010783621110022068,-0.04449085146188736,0.020375091582536697,0.01,0.0,0.0,0.0,0.01,0.0,0.0,0.0,0.01,-0.004881024360656738,0.03139972686767578,-0.0492098331451416,0.01,0.0,0.0,0.0,0.01,0.0,0.0,0.0,0.01
1700026481.6748905,51262,1700026481,655080704,sensor_wgs84,0.6544688940048218,0.13201899826526642,0.16974285244941711,0.7248647212982178,2.0553914678644788e-06,0.0,0.0,0.0,2.348307999575292e-06,0.0,0.0,0.0,6.63051171499035e-05,0.0010466842213645577,-0.048305265605449677,0.002255608094856143,0.01,0.0,0.0,0.0,0.01,0.0,0.0,0.0,0.01,-0.02549368143081665,0.02444744110107422,0.03626251220703125,0.01,0.0,0.0,0.0,0.01,0.0,0.0,0.0,0.01
1700026481.6843894,51263,1700026481,665095680,sensor_wgs84,0.6545187830924988,0.13186532258987427,0.1695624440908432,0.724889874458313,2.0553914678644788e-06,0.0,0.0,0.0,2.348307999575292e-06,0.0,0.0,0.0,6.63051171499035e-05,0.005219507031142712,-0.04695666953921318,-0.006575310602784157,0.01,0.0,0.0,0.0,0.01,0.0,0.0,0.0,0.01,-0.07748407125473022,-0.04976654052734375,0.07185488939285278,0.01,0.0,0.0,0.0,0.01,0.0,0.0,0.0,0.01
1700026481.6921914,51264,1700026481,675110912,sensor_wgs84,0.6545546650886536,0.1317460685968399,0.1693650484085083,0.7249253392219543,2.0553914678644788e-06,0.0,0.0,0.0,2.348307999575292e-06,0.0,0.0,0.0,6.63051171499035e-05,0.0008891307516023517,-0.037697069346904755,-0.02150779776275158,0.01,0.0,0.0,0.0,0.01,0.0,0.0,0.0,0.01,-0.0746830403804779,-0.07605838775634766,0.10106086730957031,0.01,0.0,0.0,0.0,0.01,0.0,0.0,0.0,0.01
1700026481.7053049,51265,1700026481,685122816,sensor_wgs84,0.6545839309692383,0.13165105879306793,0.16916757822036743,0.7249621748924255,2.0553914678644788e-06,0.0,0.0,0.0,2.348307999575292e-06,0.0,0.0,0.0,6.63051171499035e-05,0.0014648613287135959,-0.04139984771609306,-0.015764081850647926,0.01,0.0,0.0,0.0,0.01,0.0,0.0,0.0,0.01,-0.08312821388244629,-0.05137062072753906,0.20197314023971558,0.01,0.0,0.0,0.0,0.01,0.0,0.0,0.0,0.01
1700026481.7108247,51266,1700026481,695136768,sensor_wgs84,0.6546181440353394,0.13158760964870453,0.16897746920585632,0.7249871492385864,2.0553914678644788e-06,0.0,0.0,0.0,2.348307999575292e-06,0.0,0.0,0.0,6.63051171499035e-05,0.00011064822319895029,-0.03754744306206703,-0.025095881894230843,0.01,0.0,0.0,0.0,0.01,0.0,0.0,0.0,0.01,-0.07720255851745605,-0.02764606475830078,0.11824506521224976,0.01,0.0,0.0,0.0,0.01,0.0,0.0,0.0,0.01
1700026481.723741,51267,1700026481,705153280,sensor_wgs84,0.6546180844306946,0.1315460354089737,0.16873429715633392,0.7250515222549438,2.0553914678644788e-06,0.0,0.0,0.0,2.348307999575292e-06,0.0,0.0,0.0,6.63051171499035e-05,-0.006060613784939051,-0.04187071695923805,-0.038451842963695526,0.01,0.0,0.0,0.0,0.01,0.0,0.0,0.0,0.01,-0.07242393493652344,-0.05614280700683594,0.09447604417800903,0.01,0.0,0.0,0.0,0.01,0.0,0.0,0.0,0.01
1700026481.7292752,51268,1700026481,715164416,sensor_wgs84,0.6545665860176086,0.13152213394641876,0.16842317581176758,0.7251746654510498,2.0553914678644788e-06,0.0,0.0,0.0,2.348307999575292e-06,0.0,0.0,0.0,6.63051171499035e-05,-0.017808755859732628,-0.05091848969459534,-0.051258351653814316,0.01,0.0,0.0,0.0,0.01,0.0,0.0,0.0,0.01,-0.08320081233978271,-0.10797691345214844,0.0522991418838501,0.01,0.0,0.0,0.0,0.01,0.0,0.0,0.0,0.01
1700026481.746268,51269,1700026481,725183744,sensor_wgs84,0.6544910669326782,0.1314777135848999,0.16807784140110016,0.7253308892250061,2.0553914678644788e-06,0.0,0.0,0.0,2.348307999575292e-06,0.0,0.0,0.0,6.63051171499035e-05,-0.028352294117212296,-0.05544871836900711,-0.0560564361512661,0.01,0.0,0.0,0.0,0.01,0.0,0.0,0.0,0.01,-0.10550904273986816,-0.08681583404541016,0.008759498596191406,0.01,0.0,0.0,0.0,0.01,0.0,0.0,0.0,0.01
1700026481.762176,51270,1700026481,735206400,sensor_wgs84,0.6543978452682495,0.13142234086990356,0.1677180379629135,0.7255083322525024,2.0553914678644788e-06,0.0,0.0,0.0,2.348307999575292e-06,0.0,0.0,0.0,6.63051171499035e-05,-0.030186768621206284,-0.053577523678541183,-0.05046406760811806,0.01,0.0,0.0,0.0,0.01,0.0,0.0,0.0,0.01,-0.10358235239982605,0.008462905883789062,0.12843865156173706,0.01,0.0,0.0,0.0,0.01,0.0,0.0,0.0,0.01
1700026481.7657723,51271,1700026481,745224192,sensor_wgs84,0.6542925834655762,0.1313689649105072,0.16738943755626678,0.7256888747215271,2.0553914678644788e-06,0.0,0.0,0.0,2.348307999575292e-06,0.0,0.0,0.0,6.63051171499035e-05,-0.03311726823449135,-0.04512001574039459,-0.04211379215121269,0.01,0.0,0.0,0.0,0.01,0.0,0.0,0.0,0.01,-0.10958987474441528,-0.021697998046875,0.1211017370223999,0.01,0.0,0.0,0.0,0.01,0.0,0.0,0.0,0.01
1700026481.7706106,51272,1700026481,755237376,sensor_wgs84,0.6541878581047058,0.13132600486278534,0.16713203489780426,0.7258502840995789,2.0451801963222715e-06,0.0,0.0,0.0,2.334001361978125e-06,0.0,0.0,0.0,6.62543169703024e-05,-0.033852387219667435,-0.03496190533041954,-0.034197431057691574,0.01,0.0,0.0,0.0,0.01,0.0,0.0,0.0,0.01,-0.1115477979183197,-0.04752349853515625,0.10316479206085205,0.01,0.0,0.0,0.0,0.01,0.0,0.0,0.0,0.01
1700026481.7822065,51273,1700026481,765252608,sensor_wgs84,0.6540933847427368,0.13128049671649933,0.1669662594795227,0.7259818911552429,2.0451801963222715e-06,0.0,0.0,0.0,2.334001361978125e-06,0.0,0.0,0.0,6.62543169703024e-05,-0.025322549045085907,-0.02112523838877678,-0.018935002386569977,0.01,0.0,0.0,0.0,0.01,0.0,0.0,0.0,0.01,-0.08878067135810852,-0.0657815933227539,0.022493720054626465,0.01,0.0,0.0,0.0,0.01,0.0,0.0,0.0,0.01
1700026481.7939138,51274,1700026481,775269376,sensor_wgs84,0.6540135145187378,0.13123571872711182,0.16688574850559235,0.7260803580284119,2.0451801963222715e-06,0.0,0.0,0.0,2.334001361978125e-06,0.0,0.0,0.0,6.62543169703024e-05,-0.02373257465660572,-0.012114232406020164,-0.010229512117803097,0.01,0.0,0.0,0.0,0.01,0.0,0.0,0.0,0.01,-0.03191500902175903,0.0008068084716796875,-0.026840806007385254,0.01,0.0,0.0,0.0,0.01,0.0,0.0,0.0,0.01
1700026481.8008525,51275,1700026481,785282816,sensor_wgs84,0.6539351940155029,0.13120339810848236,0.16684560477733612,0.7261659502983093,2.0451801963222715e-06,0.0,0.0,0.0,2.334001361978125e-06,0.0,0.0,0.0,6.62543169703024e-05,-0.029919834807515144,-0.0042606741189956665,-0.002312315860763192,0.01,0.0,0.0,0.0,0.01,0.0,0.0,0.0,0.01,-0.010661005973815918,0.013135910034179688,-0.0992422103881836,0.01,0.0,0.0,0.0,0.01,0.0,0.0,0.0,0.01
1700026481.8137124,51276,1700026481,795299584,sensor_wgs84,0.6538478136062622,0.13116437196731567,0.1668383628129959,0.7262533903121948,2.0451801963222715e-06,0.0,0.0,0.0,2.334001361978125e-06,0.0,0.0,0.0,6.62543169703024e-05,-0.02562953718006611,-0.0059279026463627815,0.004713898990303278,0.01,0.0,0.0,0.0,0.01,0.0,0.0,0.0,0.01,-0.0005201399326324463,0.004633903503417969,-0.11993622779846191,0.01,0.0,0.0,0.0,0.01,0.0,0.0,0.0,0.01
1700026481.8274708,51277,1700026481,805318400,sensor_wgs84,0.6537610292434692,0.13109160959720612,0.16685636341571808,0.7263404726982117,2.0451801963222715e-06,0.0,0.0,0.0,2.334001361978125e-06,0.0,0.0,0.0,6.62543169703024e-05,-0.03006153367459774,-0.008451184257864952,0.013023906387388706,0.01,0.0,0.0,0.0,0.01,0.0,0.0,0.0,0.01,0.013845443725585938,0.054312705993652344,-0.10698378086090088,0.01,0.0,0.0,0.0,0.01,0.0,0.0,0.0,0.01
1700026481.8315701,51278,1700026481,815332608,sensor_wgs84,0.6536632776260376,0.13100776076316833,0.16689200699329376,0.7264353632926941,2.0451801963222715e-06,0.0,0.0,0.0,2.334001361978125e-06,0.0,0.0,0.0,6.62543169703024e-05,-0.03078901767730713,-0.0044821943156421185,0.010272453539073467,0.01,0.0,0.0,0.0,0.01,0.0,0.0,0.0,0.01,0.009442955255508423,0.10305118560791016,-0.11951613426208496,0.01,0.0,0.0,0.0,0.01,0.0,0.0,0.0,0.01
1700026481.8480659,51279,1700026481,825353728,sensor_wgs84,0.65354984998703,0.13091501593589783,0.16691142320632935,0.7265497446060181,2.0451801963222715e-06,0.0,0.0,0.0,2.334001361978125e-06,0.0,0.0,0.0,6.62543169703024e-05,-0.03588590770959854,-0.010074496269226074,0.007962850853800774,0.01,0.0,0.0,0.0,0.01,0.0,0.0,0.0,0.01,-0.022414803504943848,0.11586284637451172,-0.14851856231689453,0.01,0.0,0.0,0.0,0.01,0.0,0.0,0.0,0.01
1700026481.854748,51280,1700026481,835371520,sensor_wgs84,0.6534595489501953,0.13068272173404694,0.16679322719573975,0.726699948310852,2.0451801963222715e-06,0.0,0.0,0.0,2.334001361978125e-06,0.0,0.0,0.0,6.62543169703024e-05,-0.03580494597554207,-0.013071044348180294,0.006518960930407047,0.01,0.0,0.0,0.0,0.01,0.0,0.0,0.0,0.01,-0.07526358962059021,0.12839221954345703,-0.1535186767578125,0.01,0.0,0.0,0.0,0.01,0.0,0.0,0.0,0.01
1700026481.8605857,51281,1700026481,845384704,sensor_wgs84,0.6533311605453491,0.13059192895889282,0.1668071299791336,0.7268285155296326,2.0451801963222715e-06,0.0,0.0,0.0,2.334001361978125e-06,0.0,0.0,0.0,6.62543169703024e-05,-0.042115021497011185,-0.010858502238988876,0.0034311283379793167,0.01,0.0,0.0,0.0,0.01,0.0,0.0,0.0,0.01,-0.0818767249584198,0.2277545928955078,-0.1497400999069214,0.01,0.0,0.0,0.0,0.01,0.0,0.0,0.0,0.01
1700026481.8722246,51282,1700026481,855399680,sensor_wgs84,0.653191864490509,0.1305556297302246,0.16682586073875427,0.7269558906555176,2.0451801963222715e-06,0.0,0.0,0.0,2.334001361978125e-06,0.0,0.0,0.0,6.62543169703024e-05,-0.03540700301527977,0.009497870691120625,-0.0031625665724277496,0.01,0.0,0.0,0.0,0.01,0.0,0.0,0.0,0.01,-0.07325750589370728,0.29991912841796875,-0.1228564977645874,0.01,0.0,0.0,0.0,0.01,0.0,0.0,0.0,0.01
1700026481.8868172,51283,1700026481,865416704,sensor_wgs84,0.6530559659004211,0.13058704137802124,0.16685986518859863,0.7270644903182983,2.0451801963222715e-06,0.0,0.0,0.0,2.334001361978125e-06,0.0,0.0,0.0,6.62543169703024e-05,-0.02596798539161682,0.020827900618314743,-0.00658771488815546,0.01,0.0,0.0,0.0,0.01,0.0,0.0,0.0,0.01,-0.03268629312515259,0.2802896499633789,-0.15668511390686035,0.01,0.0,0.0,0.0,0.01,0.0,0.0,0.0,0.01
1700026481.8899949,51284,1700026481,875429888,sensor_wgs84,0.6529447436332703,0.1306779831647873,0.1669430136680603,0.7271289229393005,2.0451801963222715e-06,0.0,0.0,0.0,2.334001361978125e-06,0.0,0.0,0.0,6.62543169703024e-05,-0.01655399240553379,0.027461763471364975,-0.0029267219360917807,0.01,0.0,0.0,0.0,0.01,0.0,0.0,0.0,0.01,0.00471949577331543,0.2598381042480469,-0.2630298137664795,0.01,0.0,0.0,0.0,0.01,0.0,0.0,0.0,0.01
1700026481.903052,51285,1700026481,885446400,sensor_wgs84,0.6528883576393127,0.13079169392585754,0.167081817984581,0.7271272540092468,2.0451801963222715e-06,0.0,0.0,0.0,2.334001361978125e-06,0.0,0.0,0.0,6.62543169703024e-05,0.0013069891138002276,0.036390673369169235,0.012158334255218506,0.01,0.0,0.0,0.0,0.01,0.0,0.0,0.0,0.01,0.04684658348560333,0.2854928970336914,-0.363397479057312,0.01,0.0,0.0,0.0,0.01,0.0,0.0,0.0,0.01
1700026481.9157727,51286,1700026481,895464960,sensor_wgs84,0.6528913378715515,0.1308877170085907,0.1672375351190567,0.7270715236663818,2.0451801963222715e-06,0.0,0.0,0.0,2.334001361978125e-06,0.0,0.0,0.0,6.62543169703024e-05,0.011634591035544872,0.030612025409936905,0.012373698875308037,0.01,0.0,0.0,0.0,0.01,0.0,0.0,0.0,0.01,0.044402629137039185,0.36194610595703125,-0.46644771099090576,0.01,0.0,0.0,0.0,0.01,0.0,0.0,0.0,0.01
1700026481.9209127,51287,1700026481,905478656,sensor_wgs84,0.6529584527015686,0.1309407353401184,0.1673487275838852,0.7269760966300964,2.0451801963222715e-06,0.0,0.0,0.0,2.334001361978125e-06,0.0,0.0,0.0,6.62543169703024e-05,0.029504666104912758,0.014589487574994564,0.0139954574406147,0.01,0.0,0.0,0.0,0.01,0.0,0.0,0.0,0.01,0.019578397274017334,0.39015769958496094,-0.3825538158416748,0.01,0.0,0.0,0.0,0.01,0.0,0.0,0.0,0.01
1700026481.9471507,51288,1700026481,915499776,sensor_wgs84,0.6530758738517761,0.13100235164165497,0.16740508377552032,0.7268465757369995,2.0451801963222715e-06,0.0,0.0,0.0,2.334001361978125e-06,0.0,0.0,0.0,6.62543169703024e-05,0.04519245773553848,0.01624820940196514,0.004726871382445097,0.01,0.0,0.0,0.0,0.01,0.0,0.0,0.0,0.01,0.003429323434829712,0.3815298080444336,-0.1409153938293457,0.01,0.0,0.0,0.0,0.01,0.0,0.0,0.0,0.01
1700026481.947264,51289,1700026481,925517568,sensor_wgs84,0.6532337665557861,0.1310819387435913,0.16747690737247467,0.7266737222671509,2.0451801963222715e-06,0.0,0.0,0.0,2.334001361978125e-06,0.0,0.0,0.0,6.62543169703024e-05,0.04816846176981926,0.03215799108147621,0.012572219595313072,0.01,0.0,0.0,0.0,0.01,0.0,0.0,0.0,0.01,0.011408388614654541,0.34032344818115234,0.08939027786254883,0.01,0.0,0.0,0.0,0.01,0.0,0.0,0.0,0.01
1700026481.95148,51290,1700026481,935530496,sensor_wgs84,0.6534207463264465,0.13121946156024933,0.1676345318555832,0.7264444828033447,2.0451801963222715e-06,0.0,0.0,0.0,2.334001361978125e-06,0.0,0.0,0.0,6.62543169703024e-05,0.06535017490386963,0.051358822733163834,0.025391671806573868,0.01,0.0,0.0,0.0,0.01,0.0,0.0,0.0,0.01,0.010162383317947388,0.26250553131103516,0.22853738069534302,0.01,0.0,0.0,0.0,0.01,0.0,0.0,0.0,0.01
1700026481.961448,51291,1700026481,945545216,sensor_wgs84,0.6536580920219421,0.13137543201446533,0.16791829466819763,0.7261371612548828,2.0343510478342355e-06,0.0,0.0,0.0,2.3205495180737227e-06,0.0,0.0,0.0,6.61989290620113e-05,0.08216403424739838,0.06296297162771225,0.04765065386891365,0.01,0.0,0.0,0.0,0.01,0.0,0.0,0.0,0.01,0.040214598178863525,0.21748828887939453,0.10882556438446045,0.01,0.0,0.0,0.0,0.01,0.0,0.0,0.0,0.01
1700026481.9739287,51292,1700026481,955561728,sensor_wgs84,0.6539621353149414,0.13150949776172638,0.16828091442584991,0.7257550358772278,2.0343510478342355e-06,0.0,0.0,0.0,2.3205495180737227e-06,0.0,0.0,0.0,6.61989290620113e-05,0.09717084467411041,0.0626324713230133,0.06561768800020218,0.01,0.0,0.0,0.0,0.01,0.0,0.0,0.0,0.01,0.05400562286376953,0.19344711303710938,0.0397028923034668,0.01,0.0,0.0,0.0,0.01,0.0,0.0,0.0,0.01
1700026481.9807174,51293,1700026481,965575168,sensor_wgs84,0.6543336510658264,0.1316039115190506,0.16864684224128723,0.7253180146217346,2.0343510478342355e-06,0.0,0.0,0.0,2.3205495180737227e-06,0.0,0.0,0.0,6.61989290620113e-05,0.10591153800487518,0.05378633737564087,0.06573816388845444,0.01,0.0,0.0,0.0,0.01,0.0,0.0,0.0,0.01,0.0579189658164978,0.1876239776611328,-0.0804067850112915,0.01,0.0,0.0,0.0,0.01,0.0,0.0,0.0,0.01
1700026481.9947624,51294,1700026481,975591680,sensor_wgs84,0.6547375917434692,0.13164088129997253,0.16891998052597046,0.7248830795288086,2.0343510478342355e-06,0.0,0.0,0.0,2.3205495180737227e-06,0.0,0.0,0.0,6.61989290620113e-05,0.10917480289936066,0.024748235940933228,0.055005598813295364,0.01,0.0,0.0,0.0,0.01,0.0,0.0,0.0,0.01,0.05277512967586517,0.12317943572998047,-0.05838727951049805,0.01,0.0,0.0,0.0,0.01,0.0,0.0,0.0,0.01
1700026482.0052087,51295,1700026481,985609984,sensor_wgs84,0.6551415920257568,0.13164761662483215,0.16909228265285492,0.7244766354560852,2.0343510478342355e-06,0.0,0.0,0.0,2.3205495180737227e-06,0.0,0.0,0.0,6.61989290620113e-05,0.1065269485116005,0.014169716276228428,0.04545699805021286,0.01,0.0,0.0,0.0,0.01,0.0,0.0,0.0,0.01,0.02649867534637451,0.01939868927001953,0.04257392883300781,0.01,0.0,0.0,0.0,0.01,0.0,0.0,0.0,0.01
1700026482.0101705,51296,1700026481,995623680,sensor_wgs84,0.6555334329605103,0.13162736594676971,0.169192835688591,0.724102258682251,2.0343510478342355e-06,0.0,0.0,0.0,2.3205495180737227e-06,0.0,0.0,0.0,6.61989290620113e-05,0.0936129242181778,0.0014022554969415069,0.040006302297115326,0.01,0.0,0.0,0.0,0.01,0.0,0.0,0.0,0.01,0.022798389196395874,-0.06865978240966797,0.05946028232574463,0.01,0.0,0.0,0.0,0.01,0.0,0.0,0.0,0.01
1700026482.0274081,51297,1700026482,5644544,sensor_wgs84,0.655891478061676,0.13158588111400604,0.16927306354045868,0.7237667441368103,2.0343510478342355e-06,0.0,0.0,0.0,2.3205495180737227e-06,0.0,0.0,0.0,6.61989290620113e-05,0.08569267392158508,0.003304828889667988,0.03913179412484169,0.01,0.0,0.0,0.0,0.01,0.0,0.0,0.0,0.01,-0.025165408849716187,-0.14745426177978516,0.016184329986572266,0.01,0.0,0.0,0.0,0.01,0.0,0.0,0.0,0.01
1700026482.0346973,51298,1700026482,15661824,sensor_wgs84,0.6562111973762512,0.13151396811008453,0.16934649646282196,0.7234727740287781,2.0343510478342355e-06,0.0,0.0,0.0,2.3205495180737227e-06,0.0,0.0,0.0,6.61989290620113e-05,0.0699554830789566,-0.0057754735462367535,0.037072308361530304,0.01,0.0,0.0,0.0,0.01,0.0,0.0,0.0,0.01,-0.05340993404388428,-0.15237998962402344,-0.03851521015167236,0.01,0.0,0.0,0.0,0.01,0.0,0.0,0.0,0.01
1700026482.0433655,51299,1700026482,25674496,sensor_wgs84,0.6564693450927734,0.13142000138759613,0.16940540075302124,0.7232417464256287,2.0343510478342355e-06,0.0,0.0,0.0,2.3205495180737227e-06,0.0,0.0,0.0,6.61989290620113e-05,0.05588069185614586,-0.015261266380548477,0.03546876087784767,0.01,0.0,0.0,0.0,0.01,0.0,0.0,0.0,0.01,-0.10296064615249634,-0.18750667572021484,-0.1361297369003296,0.01,0.0,0.0,0.0,0.01,0.0,0.0,0.0,0.01
1700026482.053799,51300,1700026482,35689216,sensor_wgs84,0.6566798090934753,0.13130444288253784,0.16943790018558502,0.7230640649795532,2.0343510478342355e-06,0.0,0.0,0.0,2.3205495180737227e-06,0.0,0.0,0.0,6.61989290620113e-05,0.04293283820152283,-0.017902035266160965,0.031144501641392708,0.01,0.0,0.0,0.0,0.01,0.0,0.0,0.0,0.01,-0.15994808077812195,-0.2101879119873047,-0.1971038579940796,0.01,0.0,0.0,0.0,0.01,0.0,0.0,0.0,0.01
1700026482.0643797,51301,1700026482,45707008,sensor_wgs84,0.6568388938903809,0.13115844130516052,0.16945433616638184,0.7229421734809875,2.0343510478342355e-06,0.0,0.0,0.0,2.3205495180737227e-06,0.0,0.0,0.0,6.61989290620113e-05,0.025733496993780136,-0.02351878583431244,0.027144312858581543,0.01,0.0,0.0,0.0,0.01,0.0,0.0,0.0,0.01,-0.22904255986213684,-0.19515228271484375,-0.1687757968902588,0.01,0.0,0.0,0.0,0.01,0.0,0.0,0.0,0.01
1700026482.0710833,51302,1700026482,55721216,sensor_wgs84,0.6569460034370422,0.13102132081985474,0.16945061087608337,0.7228705883026123,2.0343510478342355e-06,0.0,0.0,0.0,2.3205495180737227e-06,0.0,0.0,0.0,6.61989290620113e-05,0.014234604313969612,-0.019893789663910866,0.022696711122989655,0.01,0.0,0.0,0.0,0.01,0.0,0.0,0.0,0.01,-0.263993501663208,-0.1501607894897461,-0.07913661003112793,0.01,0.0,0.0,0.0,0.01,0.0,0.0,0.0,0.01
1700026482.0838017,51303,1700026482,65737728,sensor_wgs84,0.6569913625717163,0.1309245079755783,0.1694498062133789,0.7228471636772156,2.0343510478342355e-06,0.0,0.0,0.0,2.3205495180737227e-06,0.0,0.0,0.0,6.61989290620113e-05,0.00013071810826659203,-0.013140724040567875,0.007066447287797928,0.01,0.0,0.0,0.0,0.01,0.0,0.0,0.0,0.01,-0.2974594831466675,-0.10410213470458984,-0.03467750549316406,0.01,0.0,0.0,0.0,0.01,0.0,0.0,0.0,0.01
1700026482.094566,51304,1700026482,75754496,sensor_wgs84,0.6569523215293884,0.1309177428483963,0.16946540772914886,0.7228801846504211,2.0343510478342355e-06,0.0,0.0,0.0,2.3205495180737227e-06,0.0,0.0,0.0,6.61989290620113e-05,-0.022683752700686455,0.010986781679093838,-0.006014246493577957,0.01,0.0,0.0,0.0,0.01,0.0,0.0,0.0,0.01,-0.2933330237865448,-0.020239830017089844,-0.010329842567443848,0.01,0.0,0.0,0.0,0.01,0.0,0.0,0.0,0.01
1700026482.1043618,51305,1700026482,85767936,sensor_wgs84,0.6568073630332947,0.13091571629047394,0.16939443349838257,0.723028838634491,2.0343510478342355e-06,0.0,0.0,0.0,2.3205495180737227e-06,0.0,0.0,0.0,6.61989290620113e-05,-0.03673265874385834,0.03440994396805763,-0.02728295512497425,0.01,0.0,0.0,0.0,0.01,0.0,0.0,0.0,0.01,-0.2790883779525757,-0.015504837036132812,0.07492196559906006,0.01,0.0,0.0,0.0,0.01,0.0,0.0,0.0,0.01
1700026482.1169312,51306,1700026482,95788288,sensor_wgs84,0.6566110253334045,0.1311630755662918,0.16948609054088593,0.7231408357620239,2.0343510478342355e-06,0.0,0.0,0.0,2.3205495180737227e-06,0.0,0.0,0.0,6.61989290620113e-05,-0.03119031712412834,0.0707402154803276,-0.023601850494742393,0.01,0.0,0.0,0.0,0.01,0.0,0.0,0.0,0.01,-0.2402241826057434,-0.008246421813964844,0.074013352394104,0.01,0.0,0.0,0.0,0.01,0.0,0.0,0.0,0.01
1700026482.1259053,51307,1700026482,105806592,sensor_wgs84,0.6563990712165833,0.1315188705921173,0.16970482468605042,0.7232173681259155,2.0343510478342355e-06,0.0,0.0,0.0,2.3205495180737227e-06,0.0,0.0,0.0,6.61989290620113e-05,-0.0282189529389143,0.10018141567707062,-0.021044328808784485,0.01,0.0,0.0,0.0,0.01,0.0,0.0,0.0,0.01,-0.15927782654762268,0.0697641372680664,0.01675856113433838,0.01,0.0,0.0,0.0,0.01,0.0,0.0,0.0,0.01
1700026482.130054,51308,1700026482,115819264,sensor_wgs84,0.6561955809593201,0.13196255266666412,0.17003826797008514,0.7232429385185242,2.0343510478342355e-06,0.0,0.0,0.0,2.3205495180737227e-06,0.0,0.0,0.0,6.61989290620113e-05,-0.024280110374093056,0.1286306530237198,-0.012368488125503063,0.01,0.0,0.0,0.0,0.01,0.0,0.0,0.0,0.01,-0.05167168378829956,0.2247638702392578,0.0053528547286987305,0.01,0.0,0.0,0.0,0.01,0.0,0.0,0.0,0.01
1700026482.14218,51309,1700026482,125833728,sensor_wgs84,0.6560152769088745,0.1325119584798813,0.17047017812728882,0.7232043147087097,2.0343510478342355e-06,0.0,0.0,0.0,2.3205495180737227e-06,0.0,0.0,0.0,6.61989290620113e-05,-0.0073689669370651245,0.1567346304655075,-0.01471585314720869,0.01,0.0,0.0,0.0,0.01,0.0,0.0,0.0,0.01,0.08012440800666809,0.2922096252441406,-0.014339208602905273,0.01,0.0,0.0,0.0,0.01,0.0,0.0,0.0,0.01
1700026482.1562293,51310,1700026482,135851008,sensor_wgs84,0.6558687686920166,0.13315002620220184,0.17095224559307098,0.7231062054634094,2.0343510478342355e-06,0.0,0.0,0.0,2.3205495180737227e-06,0.0,0.0,0.0,6.61989290620113e-05,0.0067135849967598915,0.17197932302951813,-0.017078300938010216,0.01,0.0,0.0,0.0,0.01,0.0,0.0,0.0,0.01,0.19579842686653137,0.35022640228271484,-0.12554490566253662,0.01,0.0,0.0,0.0,0.01,0.0,0.0,0.0,0.01
1700026482.1640003,51311,1700026482,145864960,sensor_wgs84,0.6557607054710388,0.13380713760852814,0.17139817774295807,0.7229774594306946,2.0238656338833575e-06,0.0,0.0,0.0,2.307873975107363e-06,0.0,0.0,0.0,6.61521084295881e-05,0.02059289813041687,0.15415315330028534,-0.026722446084022522,0.01,0.0,0.0,0.0,0.01,0.0,0.0,0.0,0.01,0.21042847633361816,0.3291788101196289,-0.2521158456802368,0.01,0.0,0.0,0.0,0.01,0.0,0.0,0.0,0.01
1700026482.1728714,51312,1700026482,155880960,sensor_wgs84,0.6556927561759949,0.13443133234977722,0.17170901596546173,0.722849428653717,2.0238656338833575e-06,0.0,0.0,0.0,2.307873975107363e-06,0.0,0.0,0.0,6.61521084295881e-05,0.024374503642320633,0.11773907393217087,-0.043593257665634155,0.01,0.0,0.0,0.0,0.01,0.0,0.0,0.0,0.01,0.21762016415596008,0.3174858093261719,-0.30465149879455566,0.01,0.0,0.0,0.0,0.01,0.0,0.0,0.0,0.01
1700026482.184074,51313,1700026482,165897472,sensor_wgs84,0.6556667685508728,0.13500793278217316,0.17185279726982117,0.722731351852417,2.0238656338833575e-06,0.0,0.0,0.0,2.307873975107363e-06,0.0,0.0,0.0,6.61521084295881e-05,0.030825356021523476,0.0882437452673912,-0.06459910422563553,0.01,0.0,0.0,0.0,0.01,0.0,0.0,0.0,0.01,0.24431872367858887,0.35867786407470703,-0.22475552558898926,0.01,0.0,0.0,0.0,0.01,0.0,0.0,0.0,0.01
1700026482.1907735,51314,1700026482,175910656,sensor_wgs84,0.6556805372238159,0.13555613160133362,0.17181789875030518,0.7226245403289795,2.0238656338833575e-06,0.0,0.0,0.0,2.307873975107363e-06,0.0,0.0,0.0,6.61521084295881e-05,0.036114651709795,0.0675986036658287,-0.08439386636018753,0.01,0.0,0.0,0.0,0.01,0.0,0.0,0.0,0.01,0.2689684331417084,0.34713172912597656,-0.1881847381591797,0.01,0.0,0.0,0.0,0.01,0.0,0.0,0.0,0.01
1700026482.207874,51315,1700026482,185931008,sensor_wgs84,0.6557092666625977,0.13608866930007935,0.1716449111700058,0.722539484500885,2.0238656338833575e-06,0.0,0.0,0.0,2.307873975107363e-06,0.0,0.0,0.0,6.61521084295881e-05,0.043087247759103775,0.048505622893571854,-0.0967603325843811,0.01,0.0,0.0,0.0,0.01,0.0,0.0,0.0,0.01,0.297736257314682,0.266082763671875,-0.15858256816864014,0.01,0.0,0.0,0.0,0.01,0.0,0.0,0.0,0.01
1700026482.216257,51316,1700026482,195949312,sensor_wgs84,0.6557926535606384,0.13657912611961365,0.1713876873254776,0.7224323153495789,2.0238656338833575e-06,0.0,0.0,0.0,2.307873975107363e-06,0.0,0.0,0.0,6.61521084295881e-05,0.05769534781575203,0.022826582193374634,-0.09084845334291458,0.01,0.0,0.0,0.0,0.01,0.0,0.0,0.0,0.01,0.3190241754055023,0.2032146453857422,-0.24859201908111572,0.01,0.0,0.0,0.0,0.01,0.0,0.0,0.0,0.01
1700026482.2310112,51317,1700026482,205961984,sensor_wgs84,0.6559442281723022,0.1369919627904892,0.17106923460960388,0.7222920656204224,2.0238656338833575e-06,0.0,0.0,0.0,2.307873975107363e-06,0.0,0.0,0.0,6.61521084295881e-05,0.06995604932308197,0.003040421288460493,-0.08475861698389053,0.01,0.0,0.0,0.0,0.01,0.0,0.0,0.0,0.01,0.25696682929992676,0.100738525390625,-0.3169448971748352,0.01,0.0,0.0,0.0,0.01,0.0,0.0,0.0,0.01
1700026482.2334583,51318,1700026482,215976448,sensor_wgs84,0.6561825275421143,0.13732865452766418,0.17070533335208893,0.7220976948738098,2.0238656338833575e-06,0.0,0.0,0.0,2.307873975107363e-06,0.0,0.0,0.0,6.61521084295881e-05,0.09080695360898972,-0.0022634402848780155,-0.08590415120124817,0.01,0.0,0.0,0.0,0.01,0.0,0.0,0.0,0.01,0.32105955481529236,0.186370849609375,-0.32121795415878296,0.01,0.0,0.0,0.0,0.01,0.0,0.0,0.0,0.01
1700026482.2441597,51319,1700026482,225993472,sensor_wgs84,0.6565059423446655,0.1376085877418518,0.1702953428030014,0.7218471765518188,2.0238656338833575e-06,0.0,0.0,0.0,2.307873975107363e-06,0.0,0.0,0.0,6.61521084295881e-05,0.10800270736217499,-0.01980607956647873,-0.07082466036081314,0.01,0.0,0.0,0.0,0.01,0.0,0.0,0.0,0.01,0.25782135128974915,0.1297006607055664,-0.17819160223007202,0.01,0.0,0.0,0.0,0.01,0.0,0.0,0.0,0.01
1700026482.251773,51320,1700026482,236007424,sensor_wgs84,0.6568856835365295,0.1378219574689865,0.16987323760986328,0.7215604782104492,2.0238656338833575e-06,0.0,0.0,0.0,2.307873975107363e-06,0.0,0.0,0.0,6.61521084295881e-05,0.11506745219230652,-0.039479371160268784,-0.06369339674711227,0.01,0.0,0.0,0.0,0.01,0.0,0.0,0.0,0.01,0.18997451663017273,0.04556846618652344,-0.15873122215270996,0.01,0.0,0.0,0.0,0.01,0.0,0.0,0.0,0.01
1700026482.265289,51321,1700026482,246023168,sensor_wgs84,0.6573134064674377,0.13798829913139343,0.1694779098033905,0.7212320566177368,2.0238656338833575e-06,0.0,0.0,0.0,2.307873975107363e-06,0.0,0.0,0.0,6.61521084295881e-05,0.12480597198009491,-0.03165176138281822,-0.04766559600830078,0.01,0.0,0.0,0.0,0.01,0.0,0.0,0.0,0.01,0.10991493612527847,-0.028898239135742188,-0.02480250597000122,0.01,0.0,0.0,0.0,0.01,0.0,0.0,0.0,0.01
1700026482.2751613,51322,1700026482,256039424,sensor_wgs84,0.6577728390693665,0.13811469078063965,0.16915494203567505,0.7208646535873413,2.0238656338833575e-06,0.0,0.0,0.0,2.307873975107363e-06,0.0,0.0,0.0,6.61521084295881e-05,0.13089707493782043,-0.02606160007417202,-0.03285400941967964,0.01,0.0,0.0,0.0,0.01,0.0,0.0,0.0,0.01,0.08565676212310791,-0.10926151275634766,0.09269213676452637,0.01,0.0,0.0,0.0,0.01,0.0,0.0,0.0,0.01
1700026482.283727,51323,1700026482,266052096,sensor_wgs84,0.6582404375076294,0.13821278512477875,0.16894042491912842,0.7204692363739014,2.0238656338833575e-06,0.0,0.0,0.0,2.307873975107363e-06,0.0,0.0,0.0,6.61521084295881e-05,0.12830772995948792,-0.012811443768441677,-0.004580684006214142,0.01,0.0,0.0,0.0,0.01,0.0,0.0,0.0,0.01,-0.006851449608802795,-0.11966514587402344,0.06942492723464966,0.01,0.0,0.0,0.0,0.01,0.0,0.0,0.0,0.01
1700026482.2983608,51324,1700026482,276071936,sensor_wgs84,0.6587042212486267,0.13829199969768524,0.1687956005334854,0.7200639843940735,2.0238656338833575e-06,0.0,0.0,0.0,2.307873975107363e-06,0.0,0.0,0.0,6.61521084295881e-05,0.12039965391159058,-0.012441346421837807,-0.006908390671014786,0.01,0.0,0.0,0.0,0.01,0.0,0.0,0.0,0.01,-0.06866681575775146,-0.08258247375488281,0.05637699365615845,0.01,0.0,0.0,0.0,0.01,0.0,0.0,0.0,0.01
1700026482.3046086,51325,1700026482,286088704,sensor_wgs84,0.6591554880142212,0.13839592039585114,0.16867868602275848,0.719658374786377,2.0238656338833575e-06,0.0,0.0,0.0,2.307873975107363e-06,0.0,0.0,0.0,6.61521084295881e-05,0.12425746023654938,0.004676422569900751,-0.00220877374522388,0.01,0.0,0.0,0.0,0.01,0.0,0.0,0.0,0.01,-0.13784581422805786,-0.10657691955566406,0.2702931761741638,0.01,0.0,0.0,0.0,0.01,0.0,0.0,0.0,0.01
1700026482.3134525,51326,1700026482,296100864,sensor_wgs84,0.6595904231071472,0.13855604827404022,0.16863560676574707,0.7192391157150269,2.0238656338833575e-06,0.0,0.0,0.0,2.307873975107363e-06,0.0,0.0,0.0,6.61521084295881e-05,0.12674638628959656,0.028695959597826004,0.005648799240589142,0.01,0.0,0.0,0.0,0.01,0.0,0.0,0.0,0.01,-0.20191553235054016,-0.18980979919433594,0.3567183017730713,0.01,0.0,0.0,0.0,0.01,0.0,0.0,0.0,0.01
1700026482.3245535,51327,1700026482,306115072,sensor_wgs84,0.6600042581558228,0.13879196345806122,0.1687372922897339,0.7187899351119995,2.0238656338833575e-06,0.0,0.0,0.0,2.307873975107363e-06,0.0,0.0,0.0,6.61521084295881e-05,0.12351898849010468,0.061897870153188705,0.020011192187666893,0.01,0.0,0.0,0.0,0.01,0.0,0.0,0.0,0.01,-0.222117617726326,-0.18804931640625,0.32382452487945557,0.01,0.0,0.0,0.0,0.01,0.0,0.0,0.0,0.01
1700026482.3335576,51328,1700026482,316131072,sensor_wgs84,0.6604180932044983,0.13906094431877136,0.16898375749588013,0.7182997465133667,2.0238656338833575e-06,0.0,0.0,0.0,2.307873975107363e-06,0.0,0.0,0.0,6.61521084295881e-05,0.1290387064218521,0.08292292803525925,0.03458273038268089,0.01,0.0,0.0,0.0,0.01,0.0,0.0,0.0,0.01,-0.23580829799175262,-0.1291046142578125,0.2733394503593445,0.01,0.0,0.0,0.0,0.01,0.0,0.0,0.0,0.01
1700026482.3406265,51329,1700026482,326144000,sensor_wgs84,0.6608625650405884,0.1393900215625763,0.16935446858406067,0.7177397012710571,2.0238656338833575e-06,0.0,0.0,0.0,2.307873975107363e-06,0.0,0.0,0.0,6.61521084295881e-05,0.1456492394208908,0.10860416293144226,0.051152534782886505,0.01,0.0,0.0,0.0,0.01,0.0,0.0,0.0,0.01,-0.26480334997177124,-0.12407302856445312,0.3066341280937195,0.01,0.0,0.0,0.0,0.01,0.0,0.0,0.0,0.01
1700026482.3537092,51330,1700026482,336159744,sensor_wgs84,0.6613895893096924,0.13966132700443268,0.169708251953125,0.7171176671981812,2.0238656338833575e-06,0.0,0.0,0.0,2.307873975107363e-06,0.0,0.0,0.0,6.61521084295881e-05,0.1745973825454712,0.1287480741739273,0.06578905880451202,0.01,0.0,0.0,0.0,0.01,0.0,0.0,0.0,0.01,-0.24006406962871552,-0.0699300765991211,0.2875027656555176,0.01,0.0,0.0,0.0,0.01,0.0,0.0,0.0,0.01
1700026482.3722441,51331,1700026482,346178048,sensor_wgs84,0.6619911193847656,0.14007334411144257,0.17033061385154724,0.7163342237472534,2.0124612314725236e-06,0.0,0.0,0.0,2.2955961286715362e-06,0.0,0.0,0.0,6.609350750222485e-05,0.19991041719913483,0.15105022490024567,0.08676553517580032,0.01,0.0,0.0,0.0,0.01,0.0,0.0,0.0,0.01,-0.3349548876285553,-0.13315868377685547,0.27640074491500854,0.01,0.0,0.0,0.0,0.01,0.0,0.0,0.0,0.01
1700026482.3722727,51332,1700026482,356190208,sensor_wgs84,0.6627074480056763,0.14051559567451477,0.17109064757823944,0.7154035568237305,2.0124612314725236e-06,0.0,0.0,0.0,2.2955961286715362e-06,0.0,0.0,0.0,6.609350750222485e-05,0.2340703010559082,0.18499435484409332,0.11536356061697006,0.01,0.0,0.0,0.0,0.01,0.0,0.0,0.0,0.01,-0.3751060664653778,-0.09654617309570312,0.3471069037914276,0.01,0.0,0.0,0.0,0.01,0.0,0.0,0.0,0.01
1700026482.387939,51333,1700026482,366210304,sensor_wgs84,0.6635007262229919,0.14104220271110535,0.1720116287469864,0.7143430113792419,2.0124612314725236e-06,0.0,0.0,0.0,2.2955961286715362e-06,0.0,0.0,0.0,6.609350750222485e-05,0.2589972913265228,0.22211530804634094,0.1273198425769806,0.01,0.0,0.0,0.0,0.01,0.0,0.0,0.0,0.01,-0.33334028720855713,0.051674842834472656,0.4407331645488739,0.01,0.0,0.0,0.0,0.01,0.0,0.0,0.0,0.01
1700026482.3941698,51334,1700026482,376227328,sensor_wgs84,0.6643155217170715,0.14174453914165497,0.17305798828601837,0.7131930589675903,2.0124612314725236e-06,0.0,0.0,0.0,2.2955961286715362e-06,0.0,0.0,0.0,6.609350750222485e-05,0.27299898862838745,0.26499634981155396,0.11490853130817413,0.01,0.0,0.0,0.0,0.01,0.0,0.0,0.0,0.01,-0.2499903440475464,0.11582565307617188,0.45085108280181885,0.01,0.0,0.0,0.0,0.01,0.0,0.0,0.0,0.01
1700026482.399373,51335,1700026482,386239488,sensor_wgs84,0.6651504039764404,0.1426243931055069,0.17419792711734772,0.7119609713554382,2.0124612314725236e-06,0.0,0.0,0.0,2.2955961286715362e-06,0.0,0.0,0.0,6.609350750222485e-05,0.28381145000457764,0.29728978872299194,0.10679568350315094,0.01,0.0,0.0,0.0,0.01,0.0,0.0,0.0,0.01,-0.15870293974876404,0.0658111572265625,0.17701607942581177,0.01,0.0,0.0,0.0,0.01,0.0,0.0,0.0,0.01
1700026482.412065,51336,1700026482,396253696,sensor_wgs84,0.6659698486328125,0.14359059929847717,0.17531830072402954,0.7107246518135071,2.0124612314725236e-06,0.0,0.0,0.0,2.2955961286715362e-06,0.0,0.0,0.0,6.609350750222485e-05,0.2827806770801544,0.2850203216075897,0.08287231624126434,0.01,0.0,0.0,0.0,0.01,0.0,0.0,0.0,0.01,-0.08897408843040466,0.09868335723876953,-0.21321123838424683,0.01,0.0,0.0,0.0,0.01,0.0,0.0,0.0,0.01
1700026482.423472,51337,1700026482,406269696,sensor_wgs84,0.6667340993881226,0.1445762664079666,0.1762346625328064,0.709580659866333,2.0124612314725236e-06,0.0,0.0,0.0,2.2955961286715362e-06,0.0,0.0,0.0,6.609350750222485e-05,0.2535345256328583,0.2423654943704605,0.03672650828957558,0.01,0.0,0.0,0.0,0.01,0.0,0.0,0.0,0.01,-0.04158896207809448,0.15481948852539062,-0.5125482082366943,0.01,0.0,0.0,0.0,0.01,0.0,0.0,0.0,0.01
1700026482.4298422,51338,1700026482,416282368,sensor_wgs84,0.667426347732544,0.1455339640378952,0.17680378258228302,0.708591878414154,2.0124612314725236e-06,0.0,0.0,0.0,2.2955961286715362e-06,0.0,0.0,0.0,6.609350750222485e-05,0.24299749732017517,0.18740631639957428,-0.01661856286227703,0.01,0.0,0.0,0.0,0.01,0.0,0.0,0.0,0.01,-0.03107115626335144,0.1821269989013672,-0.6191880702972412,0.01,0.0,0.0,0.0,0.01,0.0,0.0,0.0,0.01
1700026482.4426703,51339,1700026482,426297088,sensor_wgs84,0.668092668056488,0.14646056294441223,0.17702047526836395,0.7077183723449707,2.0124612314725236e-06,0.0,0.0,0.0,2.2955961286715362e-06,0.0,0.0,0.0,6.609350750222485e-05,0.23318524658679962,0.1430802196264267,-0.0620586983859539,0.01,0.0,0.0,0.0,0.01,0.0,0.0,0.0,0.01,-0.07765519618988037,0.09031391143798828,-0.2490546703338623,0.01,0.0,0.0,0.0,0.01,0.0,0.0,0.0,0.01
1700026482.456066,51340,1700026482,436315136,sensor_wgs84,0.6687555909156799,0.1473814845085144,0.177044078707695,0.7068946957588196,2.0124612314725236e-06,0.0,0.0,0.0,2.2955961286715362e-06,0.0,0.0,0.0,6.609350750222485e-05,0.2382725328207016,0.12485654652118683,-0.08253329992294312,0.01,0.0,0.0,0.0,0.01,0.0,0.0,0.0,0.01,-0.08601570129394531,0.009715080261230469,-0.01822531223297119,0.01,0.0,0.0,0.0,0.01,0.0,0.0,0.0,0.01
1700026482.459962,51341,1700026482,446327040,sensor_wgs84,0.6693901419639587,0.14834284782409668,0.1769873946905136,0.7061067223548889,2.0124612314725236e-06,0.0,0.0,0.0,2.2955961286715362e-06,0.0,0.0,0.0,6.609350750222485e-05,0.2204025685787201,0.13222244381904602,-0.09154322743415833,0.01,0.0,0.0,0.0,0.01,0.0,0.0,0.0,0.01,-0.06443670392036438,-0.07207202911376953,0.10160434246063232,0.01,0.0,0.0,0.0,0.01,0.0,0.0,0.0,0.01
1700026482.478629,51342,1700026482,456347392,sensor_wgs84,0.6699684262275696,0.14934028685092926,0.17696018517017365,0.7053544521331787,2.0124612314725236e-06,0.0,0.0,0.0,2.2955961286715362e-06,0.0,0.0,0.0,6.609350750222485e-05,0.22171565890312195,0.1428220272064209,-0.08118472993373871,0.01,0.0,0.0,0.0,0.01,0.0,0.0,0.0,0.01,-0.056699663400650024,-0.14488506317138672,0.11792781949043274,0.01,0.0,0.0,0.0,0.01,0.0,0.0,0.0,0.01
1700026482.485216,51343,1700026482,466364672,sensor_wgs84,0.6705400943756104,0.15032199025154114,0.17699390649795532,0.7045938372612,2.0124612314725236e-06,0.0,0.0,0.0,2.2955961286715362e-06,0.0,0.0,0.0,6.609350750222485e-05,0.2131885588169098,0.1433688998222351,-0.08004989475011826,0.01,0.0,0.0,0.0,0.01,0.0,0.0,0.0,0.01,-0.07132977247238159,-0.09746551513671875,-0.007124543190002441,0.01,0.0,0.0,0.0,0.01,0.0,0.0,0.0,0.01
1700026482.494774,51344,1700026482,476378368,sensor_wgs84,0.6710817217826843,0.151281476020813,0.1769985407590866,0.7038713693618774,2.0124612314725236e-06,0.0,0.0,0.0,2.2955961286715362e-06,0.0,0.0,0.0,6.609350750222485e-05,0.1985204964876175,0.13195021450519562,-0.09387685358524323,0.01,0.0,0.0,0.0,0.01,0.0,0.0,0.0,0.01,-0.057207196950912476,-0.02158069610595703,-0.04332965612411499,0.01,0.0,0.0,0.0,0.01,0.0,0.0,0.0,0.01
1700026482.5049386,51345,1700026482,486392832,sensor_wgs84,0.671548068523407,0.15223091840744019,0.17689771950244904,0.7032468914985657,2.0124612314725236e-06,0.0,0.0,0.0,2.2955961286715362e-06,0.0,0.0,0.0,6.609350750222485e-05,0.1759243607521057,0.11500252038240433,-0.11511392891407013,0.01,0.0,0.0,0.0,0.01,0.0,0.0,0.0,0.01,-0.05554647743701935,-0.07055950164794922,0.10283342003822327,0.01,0.0,0.0,0.0,0.01,0.0,0.0,0.0,0.01
1700026482.5150466,51346,1700026482,496408576,sensor_wgs84,0.6719352006912231,0.15316060185432434,0.17676296830177307,0.702708899974823,2.0124612314725236e-06,0.0,0.0,0.0,2.2955961286715362e-06,0.0,0.0,0.0,6.609350750222485e-05,0.14807039499282837,0.11531232297420502,-0.10901521146297455,0.01,0.0,0.0,0.0,0.01,0.0,0.0,0.0,0.01,-0.07524803280830383,-0.15093517303466797,0.3023425340652466,0.01,0.0,0.0,0.0,0.01,0.0,0.0,0.0,0.01
