Time,header.seq,header.stamp.secs,header.stamp.nsecs,header.frame_id,orientation.x,orientation.y,orientation.z,orientation.w,orientation_covariance_0,orientation_covariance_1,orientation_covariance_2,orientation_covariance_3,orientation_covariance_4,orientation_covariance_5,orientation_covariance_6,orientation_covariance_7,orientation_covariance_8,angular_velocity.x,angular_velocity.y,angular_velocity.z,angular_velocity_covariance_0,angular_velocity_covariance_1,angular_velocity_covariance_2,angular_velocity_covariance_3,angular_velocity_covariance_4,angular_velocity_covariance_5,angular_velocity_covariance_6,angular_velocity_covariance_7,angular_velocity_covariance_8,linear_acceleration.x,linear_acceleration.y,linear_acceleration.z,linear_acceleration_covariance_0,linear_acceleration_covariance_1,linear_acceleration_covariance_2,linear_acceleration_covariance_3,linear_acceleration_covariance_4,linear_acceleration_covariance_5,linear_acceleration_covariance_6,linear_acceleration_covariance_7,linear_acceleration_covariance_8
1700026481.3762155,51071,1700026481,234633472,gx5_link,0.6602797508239746,0.11036123335361481,0.14584659039974213,0.7284091114997864,0.01,0.0,0.0,0.0,0.01,0.0,0.0,0.0,0.01,-0.015375645831227303,-0.017319917678833008,-0.033920980989933014,0.01,0.0,0.0,0.0,0.01,0.0,0.0,0.0,0.01,-0.308806202257052,-9.873519304180144,-0.9532179124999791,0.01,0.0,0.0,0.0,0.01,0.0,0.0,0.0,0.01
1700026481.376306,51072,1700026481,244648448,gx5_link,0.6602029800415039,0.1103876531124115,0.14568454027175903,0.7285071015357971,0.01,0.0,0.0,0.0,0.01,0.0,0.0,0.0,0.01,-0.021909773349761963,-0.020516304299235344,-0.03187573701143265,0.01,0.0,0.0,0.0,0.01,0.0,0.0,0.0,0.01,-0.29908067132811994,-9.837648364853859,-0.9327004635196179,0.01,0.0,0.0,0.0,0.01,0.0,0.0,0.0,0.01
1700026481.3765028,51073,1700026481,254664448,gx5_link,0.6601186990737915,0.11038314551115036,0.14554961025714874,0.728611171245575,0.01,0.0,0.0,0.0,0.01,0.0,0.0,0.0,0.01,-0.02602529339492321,-0.02316831611096859,-0.02555219829082489,0.01,0.0,0.0,0.0,0.01,0.0,0.0,0.0,0.01,-0.31413075828067955,-9.821403332495688,-0.9230590672101825,0.01,0.0,0.0,0.0,0.01,0.0,0.0,0.0,0.01
1700026481.3765655,51074,1700026481,264682752,gx5_link,0.6600439548492432,0.11036457866430283,0.14543595910072327,0.7287044525146484,0.01,0.0,0.0,0.0,0.01,0.0,0.0,0.0,0.01,-0.024346614256501198,-0.022410189732909203,-0.020942986011505127,0.01,0.0,0.0,0.0,0.01,0.0,0.0,0.0,0.01,-0.32022849063389003,-9.780527716749907,-0.9418306954365223,0.01,0.0,0.0,0.0,0.01,0.0,0.0,0.0,0.01
1700026481.3767533,51075,1700026481,274697728,gx5_link,0.6599959135055542,0.1103140339255333,0.14532576501369476,0.7287775278091431,0.01,0.0,0.0,0.0,0.01,0.0,0.0,0.0,0.01,-0.017117954790592194,-0.024851994588971138,-0.015439431183040142,0.01,0.0,0.0,0.0,0.01,0.0,0.0,0.0,0.01,-0.32620928207654504,-9.760161805069446,-0.9985752767696976,0.01,0.0,0.0,0.0,0.01,0.0,0.0,0.0,0.01
1700026481.376874,51076,1700026481,284720896,gx5_link,0.6599651575088501,0.11023160070180893,0.14521081745624542,0.7288408279418945,0.01,0.0,0.0,0.0,0.01,0.0,0.0,0.0,0.01,-0.011863434687256813,-0.028894245624542236,-0.009441313333809376,0.01,0.0,0.0,0.0,0.01,0.0,0.0,0.0,0.01,-0.32974881784692406,-9.773163909983634,-1.0328414843130855,0.01,0.0,0.0,0.0,0.01,0.0,0.0,0.0,0.01
1700026481.3770797,51077,1700026481,294738688,gx5_link,0.659960150718689,0.11015666276216507,0.14512839913368225,0.7288730144500732,0.01,0.0,0.0,0.0,0.01,0.0,0.0,0.0,0.01,-0.007074263412505388,-0.025904668495059013,-0.004693998023867607,0.01,0.0,0.0,0.0,0.01,0.0,0.0,0.0,0.01,-0.3241184472771361,-9.795093417719006,-1.0177192454397679,0.01,0.0,0.0,0.0,0.01,0.0,0.0,0.0,0.01
1700026481.377219,51078,1700026481,304753920,gx5_link,0.6599765419960022,0.1100805252790451,0.14507988095283508,0.7288793325424194,0.01,0.0,0.0,0.0,0.01,0.0,0.0,0.0,0.01,-0.0005071929190307856,-0.02353234961628914,0.0023106210865080357,0.01,0.0,0.0,0.0,0.01,0.0,0.0,0.0,0.01,-0.3133417267948389,-9.81921838967204,-1.0392801390584558,0.01,0.0,0.0,0.0,0.01,0.0,0.0,0.0,0.01
1700026481.37729,51079,1700026481,314770944,gx5_link,0.6600144505500793,0.1099802777171135,0.1450357288122177,0.7288690209388733,0.01,0.0,0.0,0.0,0.01,0.0,0.0,0.0,0.01,0.00527166947722435,-0.024731555953621864,0.0075066713616251945,0.01,0.0,0.0,0.0,0.01,0.0,0.0,0.0,0.01,-0.3009848792479373,-9.856683904713393,-1.0715301114086062,0.01,0.0,0.0,0.0,0.01,0.0,0.0,0.0,0.01
1700026481.3776143,51080,1700026481,324788992,gx5_link,0.6600375175476074,0.10986780375242233,0.1449749767780304,0.728877067565918,0.01,0.0,0.0,0.0,0.01,0.0,0.0,0.0,0.01,0.0031325998716056347,-0.029001988470554352,0.004501625429838896,0.01,0.0,0.0,0.0,0.01,0.0,0.0,0.0,0.01,-0.2840703866629861,-9.850808290678263,-1.1468336280655116,0.01,0.0,0.0,0.0,0.01,0.0,0.0,0.0,0.01
1700026481.3777418,51081,1700026481,334803200,gx5_link,0.6599929928779602,0.10973428934812546,0.14482645690441132,0.728967010974884,0.01,0.0,0.0,0.0,0.01,0.0,0.0,0.0,0.01,-0.011648079380393028,-0.04035590589046478,-0.005910349544137716,0.01,0.0,0.0,0.0,0.01,0.0,0.0,0.0,0.01,-0.2726320604667999,-9.822061504143475,-1.1927332825183867,0.01,0.0,0.0,0.0,0.01,0.0,0.0,0.0,0.01
1700026481.3779154,51082,1700026481,344819200,gx5_link,0.659900963306427,0.10957878082990646,0.14458388090133667,0.7291219234466553,0.01,0.0,0.0,0.0,0.01,0.0,0.0,0.0,0.01,-0.024922672659158707,-0.054297398775815964,-0.017400000244379044,0.01,0.0,0.0,0.0,0.01,0.0,0.0,0.0,0.01,-0.2679602509971708,-9.80597663078308,-1.1978916151296346,0.01,0.0,0.0,0.0,0.01,0.0,0.0,0.0,0.01
1700026481.377954,51083,1700026481,354836480,gx5_link,0.6597663164138794,0.1093917116522789,0.14428767561912537,0.7293304800987244,0.01,0.0,0.0,0.0,0.01,0.0,0.0,0.0,0.01,-0.03868986293673515,-0.06578471511602402,-0.024828441441059113,0.01,0.0,0.0,0.0,0.01,0.0,0.0,0.0,0.01,-0.2891711438680999,-9.807356102442741,-1.20352589468956,0.01,0.0,0.0,0.0,0.01,0.0,0.0,0.0,0.01
1700026481.3828294,51084,1700026481,364852224,gx5_link,0.6596118211746216,0.10917142778635025,0.1440025269985199,0.7295595407485962,0.01,0.0,0.0,0.0,0.01,0.0,0.0,0.0,0.01,-0.046922631561756134,-0.07188352942466736,-0.023224536329507828,0.01,0.0,0.0,0.0,0.01,0.0,0.0,0.0,0.01,-0.33878333430439234,-9.825703075516223,-1.1761387791354208,0.01,0.0,0.0,0.0,0.01,0.0,0.0,0.0,0.01
1700026481.4020452,51085,1700026481,374874624,gx5_link,0.6594719290733337,0.10892479121685028,0.14379848539829254,0.7297630906105042,0.01,0.0,0.0,0.0,0.01,0.0,0.0,0.0,0.01,-0.04760940372943878,-0.06725643575191498,-0.012111067771911621,0.01,0.0,0.0,0.0,0.01,0.0,0.0,0.0,0.01,-0.38904122049938883,-9.796445416849851,-1.0830248804997653,0.01,0.0,0.0,0.0,0.01,0.0,0.0,0.0,0.01
1700026481.4044392,51086,1700026481,384892160,gx5_link,0.659357488155365,0.10871999710798264,0.14367781579494476,0.7299208641052246,0.01,0.0,0.0,0.0,0.01,0.0,0.0,0.0,0.01,-0.044132862240076065,-0.0506448969244957,-0.003984293434768915,0.01,0.0,0.0,0.0,0.01,0.0,0.0,0.0,0.01,-0.4272129110487178,-9.74079425677657,-0.9671402009990065,0.01,0.0,0.0,0.0,0.01,0.0,0.0,0.0,0.01
1700026481.4144304,51087,1700026481,394907136,gx5_link,0.6592515707015991,0.10862836986780167,0.14367173612117767,0.7300313115119934,0.01,0.0,0.0,0.0,0.01,0.0,0.0,0.0,0.01,-0.04054269194602966,-0.02277052029967308,-0.00041685940232127905,0.01,0.0,0.0,0.0,0.01,0.0,0.0,0.0,0.01,-0.43592963026128706,-9.707512749421596,-0.8567116680122911,0.01,0.0,0.0,0.0,0.01,0.0,0.0,0.0,0.01
1700026481.4243717,51088,1700026481,404923648,gx5_link,0.6591501832008362,0.10868177562952042,0.14376886188983917,0.7300958037376404,0.01,0.0,0.0,0.0,0.01,0.0,0.0,0.0,0.01,-0.03370056673884392,0.011776300147175789,-0.0010903378715738654,0.01,0.0,0.0,0.0,0.01,0.0,0.0,0.0,0.01,-0.4043476933658123,-9.685389764940737,-0.81175543188937,0.01,0.0,0.0,0.0,0.01,0.0,0.0,0.0,0.01
1700026481.4344969,51089,1700026481,414941696,gx5_link,0.6590145230293274,0.10883910208940506,0.14392562210559845,0.7301639914512634,0.01,0.0,0.0,0.0,0.01,0.0,0.0,0.0,0.01,-0.03267218917608261,0.03585156053304672,-0.004839079920202494,0.01,0.0,0.0,0.0,0.01,0.0,0.0,0.0,0.01,-0.3337387642659247,-9.63193699169457,-0.9082778237942606,0.01,0.0,0.0,0.0,0.01,0.0,0.0,0.0,0.01
1700026481.444505,51090,1700026481,424955648,gx5_link,0.6588305234909058,0.10906751453876495,0.14402957260608673,0.7302753925323486,0.01,0.0,0.0,0.0,0.01,0.0,0.0,0.0,0.01,-0.0337471142411232,0.044968873262405396,-0.019268972799181938,0.01,0.0,0.0,0.0,0.01,0.0,0.0,0.0,0.01,-0.2501600068199448,-9.562810263976454,-1.0817193508591503,0.01,0.0,0.0,0.0,0.01,0.0,0.0,0.0,0.01
1700026481.4550297,51091,1700026481,434972672,gx5_link,0.6586071252822876,0.10930515080690384,0.14402267336845398,0.7304427027702332,0.01,0.0,0.0,0.0,0.01,0.0,0.0,0.0,0.01,-0.037928905338048935,0.03425956517457962,-0.034452635794878006,0.01,0.0,0.0,0.0,0.01,0.0,0.0,0.0,0.01,-0.17344737228378654,-9.503428100681305,-1.2615088587112724,0.01,0.0,0.0,0.0,0.01,0.0,0.0,0.0,0.01
1700026481.4644122,51092,1700026481,444989696,gx5_link,0.6583818793296814,0.109498530626297,0.14383845031261444,0.7306530475616455,0.01,0.0,0.0,0.0,0.01,0.0,0.0,0.0,0.01,-0.037702154368162155,0.008758784271776676,-0.054207026958465576,0.01,0.0,0.0,0.0,0.01,0.0,0.0,0.0,0.01,-0.10594252841277048,-9.457887415733932,-1.3812114890649914,0.01,0.0,0.0,0.0,0.01,0.0,0.0,0.0,0.01
1700026481.4744534,51093,1700026481,455005184,gx5_link,0.658190131187439,0.10963201522827148,0.14350992441177368,0.7308703660964966,0.01,0.0,0.0,0.0,0.01,0.0,0.0,0.0,0.01,-0.03315434977412224,-0.018732938915491104,-0.06551636755466461,0.01,0.0,0.0,0.0,0.01,0.0,0.0,0.0,0.01,-0.06385954617122187,-9.452741869539022,-1.39855410740152,0.01,0.0,0.0,0.0,0.01,0.0,0.0,0.0,0.01
1700026481.4908452,51094,1700026481,465028608,gx5_link,0.658057451248169,0.10969051718711853,0.14308126270771027,0.7310651540756226,0.01,0.0,0.0,0.0,0.01,0.0,0.0,0.0,0.01,-0.02364158257842064,-0.04345163330435753,-0.07015626132488251,0.01,0.0,0.0,0.0,0.01,0.0,0.0,0.0,0.01,-0.06961692695443053,-9.487931256341934,-1.3707725126370787,0.01,0.0,0.0,0.0,0.01,0.0,0.0,0.0,0.01
1700026481.4981763,51095,1700026481,475046400,gx5_link,0.6580055356025696,0.10967876762151718,0.1426190584897995,0.7312038540840149,0.01,0.0,0.0,0.0,0.01,0.0,0.0,0.0,0.01,-0.011207184754312038,-0.06109723076224327,-0.06467413157224655,0.01,0.0,0.0,0.0,0.01,0.0,0.0,0.0,0.01,-0.09780308849834836,-9.526848139235376,-1.2896835444465278,0.01,0.0,0.0,0.0,0.01,0.0,0.0,0.0,0.01
1700026481.5055494,51096,1700026481,485060864,gx5_link,0.6580280065536499,0.10963015258312225,0.1421864926815033,0.7312752604484558,0.01,0.0,0.0,0.0,0.01,0.0,0.0,0.0,0.01,0.0035678045824170113,-0.06682409346103668,-0.055455826222896576,0.01,0.0,0.0,0.0,0.01,0.0,0.0,0.0,0.01,-0.13370088843209668,-9.551593288913368,-1.1777312359586358,0.01,0.0,0.0,0.0,0.01,0.0,0.0,0.0,0.01
1700026481.5157232,51097,1700026481,495078656,gx5_link,0.658126175403595,0.10957790911197662,0.1418083757162094,0.7312681078910828,0.01,0.0,0.0,0.0,0.01,0.0,0.0,0.0,0.01,0.018232759088277817,-0.06386296451091766,-0.04585270583629608,0.01,0.0,0.0,0.0,0.01,0.0,0.0,0.0,0.01,-0.1754014654936269,-9.600439445146918,-1.0653530302088707,0.01,0.0,0.0,0.0,0.01,0.0,0.0,0.0,0.01
1700026481.5321698,51098,1700026481,505096448,gx5_link,0.6582801938056946,0.10952771455049515,0.14152894914150238,0.731191098690033,0.01,0.0,0.0,0.0,0.01,0.0,0.0,0.0,0.01,0.03234391286969185,-0.05308445543050766,-0.03090682066977024,0.01,0.0,0.0,0.0,0.01,0.0,0.0,0.0,0.01,-0.21241098039578646,-9.706137953937054,-0.9992360787659883,0.01,0.0,0.0,0.0,0.01,0.0,0.0,0.0,0.01
1700026481.532491,51099,1700026481,515110400,gx5_link,0.6584595441818237,0.10947971045970917,0.14136017858982086,0.7310695052146912,0.01,0.0,0.0,0.0,0.01,0.0,0.0,0.0,0.01,0.038742706179618835,-0.038497574627399445,-0.012577767483890057,0.01,0.0,0.0,0.0,0.01,0.0,0.0,0.0,0.01,-0.23554600972970946,-9.815912333863974,-0.9615066520914435,0.01,0.0,0.0,0.0,0.01,0.0,0.0,0.0,0.01
1700026481.544305,51100,1700026481,525126912,gx5_link,0.6586273312568665,0.10942032188177109,0.1412881761789322,0.7309411764144897,0.01,0.0,0.0,0.0,0.01,0.0,0.0,0.0,0.01,0.03770332410931587,-0.02716909535229206,0.000517801265232265,0.01,0.0,0.0,0.0,0.01,0.0,0.0,0.0,0.01,-0.25308307292610405,-9.86448376480937,-0.9785356744341551,0.01,0.0,0.0,0.0,0.01,0.0,0.0,0.0,0.01
1700026481.554503,51101,1700026481,535144960,gx5_link,0.6587749719619751,0.10934527963399887,0.1412453055381775,0.7308275699615479,0.01,0.0,0.0,0.0,0.01,0.0,0.0,0.0,0.01,0.032123126089572906,-0.02468346431851387,0.0076785217970609665,0.01,0.0,0.0,0.0,0.01,0.0,0.0,0.0,0.01,-0.2458170822448097,-9.870105696344375,-1.0072082997541874,0.01,0.0,0.0,0.0,0.01,0.0,0.0,0.0,0.01
1700026481.5629015,51102,1700026481,545159936,gx5_link,0.6588600873947144,0.1092386469244957,0.14118580520153046,0.7307782769203186,0.01,0.0,0.0,0.0,0.01,0.0,0.0,0.0,0.01,0.018961621448397636,-0.02840404585003853,0.00831272080540657,0.01,0.0,0.0,0.0,0.01,0.0,0.0,0.0,0.01,-0.24166295824004336,-9.909079277861117,-1.0743527676139026,0.01,0.0,0.0,0.0,0.01,0.0,0.0,0.0,0.01
1700026481.5927079,51103,1700026481,555183360,gx5_link,0.6588965058326721,0.10905575007200241,0.14112946391105652,0.7307836413383484,0.01,0.0,0.0,0.0,0.01,0.0,0.0,0.0,0.01,0.004396699368953705,-0.03724515438079834,0.015870574861764908,0.01,0.0,0.0,0.0,0.01,0.0,0.0,0.0,0.01,-0.24835124036492778,-9.929765507537127,-1.1193635834682731,0.01,0.0,0.0,0.0,0.01,0.0,0.0,0.0,0.01
1700026481.5927665,51104,1700026481,565201152,gx5_link,0.6589017510414124,0.10883434861898422,0.14106504619121552,0.73082435131073,0.01,0.0,0.0,0.0,0.01,0.0,0.0,0.0,0.01,-0.006867772433906794,-0.04438541457056999,0.01879103295505047,0.01,0.0,0.0,0.0,0.01,0.0,0.0,0.0,0.01,-0.25081878125593066,-9.893325243890285,-1.0810703123658896,0.01,0.0,0.0,0.0,0.01,0.0,0.0,0.0,0.01
1700026481.5963612,51105,1700026481,575216896,gx5_link,0.6588960289955139,0.10858496278524399,0.14101921021938324,0.7308754324913025,0.01,0.0,0.0,0.0,0.01,0.0,0.0,0.0,0.01,-0.013422919437289238,-0.04685395956039429,0.024115346372127533,0.01,0.0,0.0,0.0,0.01,0.0,0.0,0.0,0.01,-0.24414313941691068,-9.851341374641656,-1.0358215961024164,0.01,0.0,0.0,0.0,0.01,0.0,0.0,0.0,0.01
1700026481.6065295,51106,1700026481,585232896,gx5_link,0.6588786244392395,0.10833699256181717,0.1410106122493744,0.7309296131134033,0.01,0.0,0.0,0.0,0.01,0.0,0.0,0.0,0.01,-0.01706060767173767,-0.041881442070007324,0.029806846752762794,0.01,0.0,0.0,0.0,0.01,0.0,0.0,0.0,0.01,-0.2476141947946511,-9.873431625896691,-1.0309251292977482,0.01,0.0,0.0,0.0,0.01,0.0,0.0,0.0,0.01
1700026481.6162527,51107,1700026481,595250176,gx5_link,0.6588678956031799,0.10809581726789474,0.14109300076961517,0.7309590578079224,0.01,0.0,0.0,0.0,0.01,0.0,0.0,0.0,0.01,-0.014418892562389374,-0.03063417226076126,0.04273710399866104,0.01,0.0,0.0,0.0,0.01,0.0,0.0,0.0,0.01,-0.2507835272794589,-9.897166721749306,-1.0683731086824089,0.01,0.0,0.0,0.0,0.01,0.0,0.0,0.0,0.01
1700026481.622262,51108,1700026481,605264384,gx5_link,0.6588882803916931,0.10785774886608124,0.1412474811077118,0.7309460639953613,0.01,0.0,0.0,0.0,0.01,0.0,0.0,0.0,0.01,-0.004744144156575203,-0.02068154141306877,0.05323883891105652,0.01,0.0,0.0,0.0,0.01,0.0,0.0,0.0,0.01,-0.23978222252735867,-9.847238030976056,-1.1124748468678445,0.01,0.0,0.0,0.0,0.01,0.0,0.0,0.0,0.01
1700026481.6335895,51109,1700026481,615280384,gx5_link,0.6589328050613403,0.10763874650001526,0.1414032131433487,0.7309081554412842,0.01,0.0,0.0,0.0,0.01,0.0,0.0,0.0,0.01,0.005686793476343155,-0.017034020274877548,0.05398613587021828,0.01,0.0,0.0,0.0,0.01,0.0,0.0,0.0,0.01,-0.22888320910595356,-9.80414999987781,-1.2070182668499647,0.01,0.0,0.0,0.0,0.01,0.0,0.0,0.0,0.01
1700026481.6485245,51110,1700026481,625298176,gx5_link,0.6589934825897217,0.10740018635988235,0.14149239659309387,0.7308711409568787,0.01,0.0,0.0,0.0,0.01,0.0,0.0,0.0,0.01,0.011080138385295868,-0.025373714044690132,0.048143863677978516,0.01,0.0,0.0,0.0,0.01,0.0,0.0,0.0,0.01,-0.23980149348340926,-9.812949976927042,-1.279318656168133,0.01,0.0,0.0,0.0,0.01,0.0,0.0,0.0,0.01
1700026481.6518133,51111,1700026481,635311872,gx5_link,0.6590595245361328,0.10714346170425415,0.14152249693870544,0.7308434844017029,0.01,0.0,0.0,0.0,0.01,0.0,0.0,0.0,0.01,0.011746902018785477,-0.03425125777721405,0.04146069660782814,0.01,0.0,0.0,0.0,0.01,0.0,0.0,0.0,0.01,-0.2724931086538359,-9.810468096983433,-1.255486383551359,0.01,0.0,0.0,0.0,0.01,0.0,0.0,0.0,0.01
1700026481.6691277,51112,1700026481,645333504,gx5_link,0.6591295599937439,0.10691095143556595,0.14147387444972992,0.730823814868927,0.01,0.0,0.0,0.0,0.01,0.0,0.0,0.0,0.01,0.009440760128200054,-0.04263175651431084,0.026142798364162445,0.01,0.0,0.0,0.0,0.01,0.0,0.0,0.0,0.01,-0.2951600090193562,-9.738851306015253,-1.1548111097507179,0.01,0.0,0.0,0.0,0.01,0.0,0.0,0.0,0.01
1700026481.678954,51113,1700026481,655351808,gx5_link,0.6591932773590088,0.1067296639084816,0.14134442806243896,0.7308178544044495,0.01,0.0,0.0,0.0,0.01,0.0,0.0,0.0,0.01,0.00818715337663889,-0.04683316498994827,0.008154630661010742,0.01,0.0,0.0,0.0,0.01,0.0,0.0,0.0,0.01,-0.31477007909752425,-9.72111983449161,-1.059578246199712,0.01,0.0,0.0,0.0,0.01,0.0,0.0,0.0,0.01
1700026481.684607,51114,1700026481,665366784,gx5_link,0.6592444777488708,0.10660281032323837,0.14118175208568573,0.7308217287063599,0.01,0.0,0.0,0.0,0.01,0.0,0.0,0.0,0.01,0.0051072342321276665,-0.04570809379220009,-0.005621578078716993,0.01,0.0,0.0,0.0,0.01,0.0,0.0,0.0,0.01,-0.35954606328271327,-9.774735104823112,-1.0056132125824688,0.01,0.0,0.0,0.0,0.01,0.0,0.0,0.0,0.01
1700026481.6938288,51115,1700026481,675382528,gx5_link,0.6592804789543152,0.10651849955320358,0.14101818203926086,0.7308330535888672,0.01,0.0,0.0,0.0,0.01,0.0,0.0,0.0,0.01,0.0020320171024650335,-0.042401861399412155,-0.014677431434392929,0.01,0.0,0.0,0.0,0.01,0.0,0.0,0.0,0.01,-0.37384456468299027,-9.800170574852825,-0.961491600652784,0.01,0.0,0.0,0.0,0.01,0.0,0.0,0.0,0.01
1700026481.7059197,51116,1700026481,685399552,gx5_link,0.659336507320404,0.10645489394664764,0.14086498320102692,0.7308213114738464,0.01,0.0,0.0,0.0,0.01,0.0,0.0,0.0,0.01,0.0045881010591983795,-0.03790448606014252,-0.01610187627375126,0.01,0.0,0.0,0.0,0.01,0.0,0.0,0.0,0.01,-0.38290743045210834,-9.793359141272306,-0.8927791528239846,0.01,0.0,0.0,0.0,0.01,0.0,0.0,0.0,0.01
1700026481.714019,51117,1700026481,695413504,gx5_link,0.6593770980834961,0.10641610622406006,0.14069169759750366,0.730823814868927,0.01,0.0,0.0,0.0,0.01,0.0,0.0,0.0,0.01,0.002788796555250883,-0.03612228482961655,-0.023070568218827248,0.01,0.0,0.0,0.0,0.01,0.0,0.0,0.0,0.01,-0.37779480014611033,-9.771048525264858,-0.9278666136223822,0.01,0.0,0.0,0.0,0.01,0.0,0.0,0.0,0.01
1700026481.724865,51118,1700026481,705430784,gx5_link,0.6593745350837708,0.10639889538288116,0.14045464992523193,0.7308741211891174,0.01,0.0,0.0,0.0,0.01,0.0,0.0,0.0,0.01,-0.0062262830324471,-0.03914323449134827,-0.036881156265735626,0.01,0.0,0.0,0.0,0.01,0.0,0.0,0.0,0.01,-0.38805275745131074,-9.750545250940322,-0.9343832289747893,0.01,0.0,0.0,0.0,0.01,0.0,0.0,0.0,0.01
1700026481.735368,51119,1700026481,715449344,gx5_link,0.6593242287635803,0.10638707876205444,0.14015421271324158,0.7309789061546326,0.01,0.0,0.0,0.0,0.01,0.0,0.0,0.0,0.01,-0.015818653628230095,-0.04664524644613266,-0.047283053398132324,0.01,0.0,0.0,0.0,0.01,0.0,0.0,0.0,0.01,-0.38731680785957723,-9.79924293861389,-0.9806099964901804,0.01,0.0,0.0,0.0,0.01,0.0,0.0,0.0,0.01
1700026481.7473514,51120,1700026481,725468672,gx5_link,0.6592451333999634,0.10634934157133102,0.13982580602169037,0.7311186194419861,0.01,0.0,0.0,0.0,0.01,0.0,0.0,0.0,0.01,-0.02405238151550293,-0.05278945714235306,-0.05216008797287941,0.01,0.0,0.0,0.0,0.01,0.0,0.0,0.0,0.01,-0.3885810921743512,-9.80155530720949,-1.0143807486668228,0.01,0.0,0.0,0.0,0.01,0.0,0.0,0.0,0.01
1700026481.762254,51121,1700026481,737489408,gx5_link,0.6591605544090271,0.10631422698497772,0.1395167112350464,0.7312589883804321,0.01,0.0,0.0,0.0,0.01,0.0,0.0,0.0,0.01,-0.028771113604307175,-0.051842156797647476,-0.05077911540865898,0.01,0.0,0.0,0.0,0.01,0.0,0.0,0.0,0.01,-0.38248244650568813,-9.769950208634137,-0.9649236209280788,0.01,0.0,0.0,0.0,0.01,0.0,0.0,0.0,0.01
1700026481.766477,51122,1700026481,745507584,gx5_link,0.6590679287910461,0.10629604756832123,0.13924722373485565,0.731396496295929,0.01,0.0,0.0,0.0,0.01,0.0,0.0,0.0,0.01,-0.02954110875725746,-0.04592461138963699,-0.046779874712228775,0.01,0.0,0.0,0.0,0.01,0.0,0.0,0.0,0.01,-0.3751409246364608,-9.777430335256456,-0.9733546915996819,0.01,0.0,0.0,0.0,0.01,0.0,0.0,0.0,0.01
1700026481.7762735,51123,1700026481,755527424,gx5_link,0.6589763760566711,0.1062716692686081,0.13906100392341614,0.7315179705619812,0.01,0.0,0.0,0.0,0.01,0.0,0.0,0.0,0.01,-0.028371289372444153,-0.03588488698005676,-0.03418579325079918,0.01,0.0,0.0,0.0,0.01,0.0,0.0,0.0,0.01,-0.37276966546047474,-9.79609236562848,-0.989172584586963,0.01,0.0,0.0,0.0,0.01,0.0,0.0,0.0,0.01
1700026481.7851915,51124,1700026481,765542912,gx5_link,0.6588929891586304,0.10624366253614426,0.1389678418636322,0.7316148281097412,0.01,0.0,0.0,0.0,0.01,0.0,0.0,0.0,0.01,-0.02408970147371292,-0.022970695048570633,-0.019079653546214104,0.01,0.0,0.0,0.0,0.01,0.0,0.0,0.0,0.01,-0.35184462205991146,-9.793478383737803,-1.0343191556502134,0.01,0.0,0.0,0.0,0.01,0.0,0.0,0.0,0.01
1700026481.795267,51125,1700026481,775559936,gx5_link,0.6588146090507507,0.10622526705265045,0.13893455266952515,0.7316944003105164,0.01,0.0,0.0,0.0,0.01,0.0,0.0,0.0,0.01,-0.02164209634065628,-0.012657511979341507,-0.010325051844120026,0.01,0.0,0.0,0.0,0.01,0.0,0.0,0.0,0.01,-0.3082294618150219,-9.751638891395926,-1.096337658798322,0.01,0.0,0.0,0.0,0.01,0.0,0.0,0.0,0.01
1700026481.8053434,51126,1700026481,785578496,gx5_link,0.6587182283401489,0.10620835423469543,0.13892655074596405,0.7317851781845093,0.01,0.0,0.0,0.0,0.01,0.0,0.0,0.0,0.01,-0.02250884473323822,-0.006177123636007309,-0.004391116555780172,0.01,0.0,0.0,0.0,0.01,0.0,0.0,0.0,0.01,-0.28680373888332394,-9.738840784621239,-1.1720573550406843,0.01,0.0,0.0,0.0,0.01,0.0,0.0,0.0,0.01
1700026481.820152,51127,1700026481,795595264,gx5_link,0.6586125493049622,0.10616927593946457,0.1389441341161728,0.7318826913833618,0.01,0.0,0.0,0.0,0.01,0.0,0.0,0.0,0.01,-0.02464001253247261,-0.005609346088021994,0.0017947552260011435,0.01,0.0,0.0,0.0,0.01,0.0,0.0,0.0,0.01,-0.27207948635164647,-9.736124511399865,-1.1917860647961496,0.01,0.0,0.0,0.0,0.01,0.0,0.0,0.0,0.01
1700026481.8264172,51128,1700026481,805614080,gx5_link,0.6585029363632202,0.10611532628536224,0.138993039727211,0.7319798469543457,0.01,0.0,0.0,0.0,0.01,0.0,0.0,0.0,0.01,-0.027722101658582687,-0.0051031154580414295,0.007685888092964888,0.01,0.0,0.0,0.0,0.01,0.0,0.0,0.0,0.01,-0.26284029590124264,-9.69525181826353,-1.1910722174383699,0.01,0.0,0.0,0.0,0.01,0.0,0.0,0.0,0.01
1700026481.8358076,51129,1700026481,815632896,gx5_link,0.6583848595619202,0.10604776442050934,0.1390441656112671,0.7320860624313354,0.01,0.0,0.0,0.0,0.01,0.0,0.0,0.0,0.01,-0.030271777883172035,-0.007078090216964483,0.010070902295410633,0.01,0.0,0.0,0.0,0.01,0.0,0.0,0.0,0.01,-0.26344648163346573,-9.647238605722784,-1.2080676297724247,0.01,0.0,0.0,0.0,0.01,0.0,0.0,0.0,0.01
1700026481.8490622,51130,1700026481,825654016,gx5_link,0.658240795135498,0.10596434772014618,0.13907715678215027,0.7322214841842651,0.01,0.0,0.0,0.0,0.01,0.0,0.0,0.0,0.01,-0.035202186554670334,-0.009204283356666565,0.008797462098300457,0.01,0.0,0.0,0.0,0.01,0.0,0.0,0.0,0.01,-0.2946371541890316,-9.631883800202608,-1.2372542690292,0.01,0.0,0.0,0.0,0.01,0.0,0.0,0.0,0.01
1700026481.8556461,51131,1700026481,835672064,gx5_link,0.6580978631973267,0.1058657094836235,0.13910417258739471,0.732358992099762,0.01,0.0,0.0,0.0,0.01,0.0,0.0,0.0,0.01,-0.0368506982922554,-0.010711758397519588,0.007123891264200211,0.01,0.0,0.0,0.0,0.01,0.0,0.0,0.0,0.01,-0.3388853333741426,-9.609805823907255,-1.2419941570326685,0.01,0.0,0.0,0.0,0.01,0.0,0.0,0.0,0.01
1700026481.8663452,51132,1700026481,845691136,gx5_link,0.6579440832138062,0.10580440610647202,0.1391485184431076,0.7324975728988647,0.01,0.0,0.0,0.0,0.01,0.0,0.0,0.0,0.01,-0.038008153438568115,-0.004933876451104879,0.0040221749804914,0.01,0.0,0.0,0.0,0.01,0.0,0.0,0.0,0.01,-0.3552435072505846,-9.529907526805996,-1.2444276677899062,0.01,0.0,0.0,0.0,0.01,0.0,0.0,0.0,0.01
1700026481.8765717,51133,1700026481,855706368,gx5_link,0.6577857732772827,0.10581034421920776,0.13919369876384735,0.7326303124427795,0.01,0.0,0.0,0.0,0.01,0.0,0.0,0.0,0.01,-0.036280062049627304,0.0043247719295322895,-0.003231918439269066,0.01,0.0,0.0,0.0,0.01,0.0,0.0,0.0,0.01,-0.34388164382409303,-9.464719307580589,-1.2389863535188137,0.01,0.0,0.0,0.0,0.01,0.0,0.0,0.0,0.01
1700026481.8868666,51134,1700026481,865723392,gx5_link,0.65763920545578,0.10588058829307556,0.1392742097377777,0.7327365279197693,0.01,0.0,0.0,0.0,0.01,0.0,0.0,0.0,0.01,-0.02905428037047386,0.018618755042552948,-0.004340795800089836,0.01,0.0,0.0,0.0,0.01,0.0,0.0,0.0,0.01,-0.3144258687697351,-9.46130453070104,-1.274673168449849,0.01,0.0,0.0,0.0,0.01,0.0,0.0,0.0,0.01
1700026481.8948286,51135,1700026481,875741696,gx5_link,0.6575206518173218,0.10599712282419205,0.139395073056221,0.7328029870986938,0.01,0.0,0.0,0.0,0.01,0.0,0.0,0.0,0.01,-0.0159306637942791,0.030127791687846184,-0.0017331105191260576,0.01,0.0,0.0,0.0,0.01,0.0,0.0,0.0,0.01,-0.27445231643021106,-9.471997774150967,-1.3555920407705009,0.01,0.0,0.0,0.0,0.01,0.0,0.0,0.0,0.01
1700026481.9052446,51136,1700026481,885758208,gx5_link,0.6574438810348511,0.10612227022647858,0.13956785202026367,0.7328208684921265,0.01,0.0,0.0,0.0,0.01,0.0,0.0,0.0,0.01,-0.002321959240362048,0.038166094571352005,0.006390603259205818,0.01,0.0,0.0,0.0,0.01,0.0,0.0,0.0,0.01,-0.24093581300927325,-9.44896176647842,-1.4600721136815844,0.01,0.0,0.0,0.0,0.01,0.0,0.0,0.0,0.01
1700026481.9165432,51137,1700026481,895777024,gx5_link,0.6574210524559021,0.10618920624256134,0.13972514867782593,0.7328016757965088,0.01,0.0,0.0,0.0,0.01,0.0,0.0,0.0,0.01,0.012618652544915676,0.03145197778940201,0.01310531236231327,0.01,0.0,0.0,0.0,0.01,0.0,0.0,0.0,0.01,-0.2360748924420215,-9.392959893271327,-1.5473726498633622,0.01,0.0,0.0,0.0,0.01,0.0,0.0,0.0,0.01
1700026481.9257376,51138,1700026481,905796096,gx5_link,0.657466471195221,0.10624253749847412,0.13982437551021576,0.7327343821525574,0.01,0.0,0.0,0.0,0.01,0.0,0.0,0.0,0.01,0.027185875922441483,0.022591833025217056,0.009915217757225037,0.01,0.0,0.0,0.0,0.01,0.0,0.0,0.0,0.01,-0.25212272172765804,-9.357882150149345,-1.4861827064938842,0.01,0.0,0.0,0.0,0.01,0.0,0.0,0.0,0.01
1700026481.9477546,51139,1700026481,915817216,gx5_link,0.6575862169265747,0.1063157469034195,0.13990601897239685,0.7326006889343262,0.01,0.0,0.0,0.0,0.01,0.0,0.0,0.0,0.01,0.03941458836197853,0.019730590283870697,0.00863918662071228,0.01,0.0,0.0,0.0,0.01,0.0,0.0,0.0,0.01,-0.2668224243399687,-9.360680840957164,-1.2792043821386991,0.01,0.0,0.0,0.0,0.01,0.0,0.0,0.0,0.01
1700026481.947778,51140,1700026481,925835008,gx5_link,0.65776526927948,0.10643427073955536,0.14003914594650269,0.732397198677063,0.01,0.0,0.0,0.0,0.01,0.0,0.0,0.0,0.01,0.050405483692884445,0.029284054413437843,0.012947821989655495,0.01,0.0,0.0,0.0,0.01,0.0,0.0,0.0,0.01,-0.2596750368033536,-9.389693000429869,-1.060891009298712,0.01,0.0,0.0,0.0,0.01,0.0,0.0,0.0,0.01
1700026481.9562788,51141,1700026481,935854336,gx5_link,0.6579955816268921,0.10661718249320984,0.1402895748615265,0.7321157455444336,0.01,0.0,0.0,0.0,0.01,0.0,0.0,0.0,0.01,0.06365948170423508,0.04956240952014923,0.02493765950202942,0.01,0.0,0.0,0.0,0.01,0.0,0.0,0.0,0.01,-0.2657254594161175,-9.465878999009728,-0.9400682158086449,0.01,0.0,0.0,0.0,0.01,0.0,0.0,0.0,0.01
1700026481.961647,51142,1700026481,945869312,gx5_link,0.6582790017127991,0.10679061710834503,0.14065223932266235,0.7317660450935364,0.01,0.0,0.0,0.0,0.01,0.0,0.0,0.0,0.01,0.07933338731527328,0.0642552524805069,0.04376279562711716,0.01,0.0,0.0,0.0,0.01,0.0,0.0,0.0,0.01,-0.24440062130931764,-9.517039861926436,-0.9713776924382894,0.01,0.0,0.0,0.0,0.01,0.0,0.0,0.0,0.01
1700026481.9752953,51143,1700026481,955886080,gx5_link,0.6586219072341919,0.1069183275103569,0.1410617083311081,0.7313599586486816,0.01,0.0,0.0,0.0,0.01,0.0,0.0,0.0,0.01,0.09574887901544571,0.06556659936904907,0.05934396758675575,0.01,0.0,0.0,0.0,0.01,0.0,0.0,0.0,0.01,-0.23523893480822441,-9.536701424729824,-1.037751833512634,0.01,0.0,0.0,0.0,0.01,0.0,0.0,0.0,0.01
1700026481.98544,51144,1700026481,965904384,gx5_link,0.6590041518211365,0.10699308663606644,0.14142420887947083,0.7309345006942749,0.01,0.0,0.0,0.0,0.01,0.0,0.0,0.0,0.01,0.10699953138828278,0.053417474031448364,0.0633029192686081,0.01,0.0,0.0,0.0,0.01,0.0,0.0,0.0,0.01,-0.23585483821686357,-9.553533317065238,-1.1223417224962264,0.01,0.0,0.0,0.0,0.01,0.0,0.0,0.0,0.01
1700026481.9950125,51145,1700026481,975920896,gx5_link,0.6594074964523315,0.10702157020568848,0.14167636632919312,0.7305176854133606,0.01,0.0,0.0,0.0,0.01,0.0,0.0,0.0,0.01,0.11032238602638245,0.0342111736536026,0.0549141950905323,0.01,0.0,0.0,0.0,0.01,0.0,0.0,0.0,0.01,-0.2488060531940311,-9.607043373456596,-1.1061278889939188,0.01,0.0,0.0,0.0,0.01,0.0,0.0,0.0,0.01
1700026482.0057347,51146,1700026481,985938944,gx5_link,0.6598076224327087,0.10702840238809586,0.14185260236263275,0.7301210165023804,0.01,0.0,0.0,0.0,0.01,0.0,0.0,0.0,0.01,0.10702170431613922,0.019419584423303604,0.04609529301524162,0.01,0.0,0.0,0.0,0.01,0.0,0.0,0.0,0.01,-0.27092363084740934,-9.683767132174967,-1.0260475133240223,0.01,0.0,0.0,0.0,0.01,0.0,0.0,0.0,0.01
1700026482.0150979,51147,1700026481,995957248,gx5_link,0.6601916551589966,0.10700783133506775,0.14197096228599548,0.729753851890564,0.01,0.0,0.0,0.0,0.01,0.0,0.0,0.0,0.01,0.09859902411699295,0.007463797926902771,0.039914850145578384,0.01,0.0,0.0,0.0,0.01,0.0,0.0,0.0,0.01,-0.2923309048069641,-9.792964004474877,-0.9795306768208741,0.01,0.0,0.0,0.0,0.01,0.0,0.0,0.0,0.01
1700026482.0285244,51148,1700026482,5977600,gx5_link,0.6605403423309326,0.10696757584810257,0.1420847624540329,0.7294219136238098,0.01,0.0,0.0,0.0,0.01,0.0,0.0,0.0,0.01,0.09036452323198318,0.00258429441601038,0.03841413930058479,0.01,0.0,0.0,0.0,0.01,0.0,0.0,0.0,0.01,-0.32741310490835457,-9.877224003916979,-1.0178020283523947,0.01,0.0,0.0,0.0,0.01,0.0,0.0,0.0,0.01
1700026482.0381556,51149,1700026482,15994880,gx5_link,0.6608281135559082,0.10688324272632599,0.14218872785568237,0.7291533350944519,0.01,0.0,0.0,0.0,0.01,0.0,0.0,0.0,0.01,0.07619646191596985,-0.0036592676769942045,0.03739611804485321,0.01,0.0,0.0,0.0,0.01,0.0,0.0,0.0,0.01,-0.3625113793617114,-9.907073198735713,-1.0640856406215577,0.01,0.0,0.0,0.0,0.01,0.0,0.0,0.0,0.01
1700026482.0481496,51150,1700026482,26013696,gx5_link,0.6610497832298279,0.10677734017372131,0.14227351546287537,0.7289513945579529,0.01,0.0,0.0,0.0,0.01,0.0,0.0,0.0,0.01,0.060994718223810196,-0.00947006419301033,0.033388443291187286,0.01,0.0,0.0,0.0,0.01,0.0,0.0,0.0,0.01,-0.4103967277390882,-9.933221200948953,-1.1254162345707417,0.01,0.0,0.0,0.0,0.01,0.0,0.0,0.0,0.01
1700026482.0537963,51151,1700026482,36028416,gx5_link,0.6612164974212646,0.10663475096225739,0.14234422147274017,0.728807270526886,0.01,0.0,0.0,0.0,0.01,0.0,0.0,0.0,0.01,0.045403171330690384,-0.015295354649424553,0.03130664303898811,0.01,0.0,0.0,0.0,0.01,0.0,0.0,0.0,0.01,-0.4679574112281203,-9.949189169931412,-1.1915635080866516,0.01,0.0,0.0,0.0,0.01,0.0,0.0,0.0,0.01
1700026482.0644646,51152,1700026482,46045952,gx5_link,0.6613327860832214,0.10647746920585632,0.14239630103111267,0.7287145256996155,0.01,0.0,0.0,0.0,0.01,0.0,0.0,0.0,0.01,0.031217075884342194,-0.01867068186402321,0.02665707841515541,0.01,0.0,0.0,0.0,0.01,0.0,0.0,0.0,0.01,-0.533625303729251,-9.938403572022914,-1.1775227808397262,0.01,0.0,0.0,0.0,0.01,0.0,0.0,0.0,0.01
1700026482.0758593,51153,1700026482,56064256,gx5_link,0.6614057421684265,0.10632748901844025,0.14244772493839264,0.7286602258682251,0.01,0.0,0.0,0.0,0.01,0.0,0.0,0.0,0.01,0.01662910357117653,-0.01852382905781269,0.02132018841803074,0.01,0.0,0.0,0.0,0.01,0.0,0.0,0.0,0.01,-0.5820185650961474,-9.904142405980824,-1.0986897018171846,0.01,0.0,0.0,0.0,0.01,0.0,0.0,0.0,0.01
1700026482.0848768,51154,1700026482,66080768,gx5_link,0.6614177823066711,0.10625157505273819,0.14251114428043365,0.7286478281021118,0.01,0.0,0.0,0.0,0.01,0.0,0.0,0.0,0.01,0.0012243628734722733,-0.008151235990226269,0.01065025944262743,0.01,0.0,0.0,0.0,0.01,0.0,0.0,0.0,0.01,-0.6177371999375522,-9.857119958043098,-1.047888027601689,0.01,0.0,0.0,0.0,0.01,0.0,0.0,0.0,0.01
1700026482.096601,51155,1700026482,76097536,gx5_link,0.6613447070121765,0.10629650205373764,0.14258234202861786,0.7286937236785889,0.01,0.0,0.0,0.0,0.01,0.0,0.0,0.0,0.01,-0.015371013432741165,0.010053577832877636,-0.007563578896224499,0.01,0.0,0.0,0.0,0.01,0.0,0.0,0.0,0.01,-0.6183667300127447,-9.79119056506157,-1.0158871346417815,0.01,0.0,0.0,0.0,0.01,0.0,0.0,0.0,0.01
1700026482.1052437,51156,1700026482,86115584,gx5_link,0.6611954569816589,0.10647261142730713,0.14267723262310028,0.7287848591804504,0.01,0.0,0.0,0.0,0.01,0.0,0.0,0.0,0.01,-0.030563771724700928,0.03362608700990677,-0.02229366824030876,0.01,0.0,0.0,0.0,0.01,0.0,0.0,0.0,0.01,-0.6037888636818155,-9.771277657845616,-0.9538592791434377,0.01,0.0,0.0,0.0,0.01,0.0,0.0,0.0,0.01
1700026482.11762,51157,1700026482,96135936,gx5_link,0.6610124111175537,0.10677608847618103,0.14287203550338745,0.7288684248924255,0.01,0.0,0.0,0.0,0.01,0.0,0.0,0.0,0.01,-0.03458234295248985,0.0650545135140419,-0.024213407188653946,0.01,0.0,0.0,0.0,0.01,0.0,0.0,0.0,0.01,-0.5637510869996621,-9.750682029062508,-0.9417596760269253,0.01,0.0,0.0,0.0,0.01,0.0,0.0,0.0,0.01
1700026482.1267657,51158,1700026482,106154496,gx5_link,0.6608271598815918,0.10718819499015808,0.14317716658115387,0.7289159297943115,0.01,0.0,0.0,0.0,0.01,0.0,0.0,0.0,0.01,-0.02898321859538555,0.09650193154811859,-0.02111785113811493,0.01,0.0,0.0,0.0,0.01,0.0,0.0,0.0,0.01,-0.4919953259522095,-9.68307272017002,-0.9869155994404106,0.01,0.0,0.0,0.0,0.01,0.0,0.0,0.0,0.01
1700026482.1360538,51159,1700026482,116173056,gx5_link,0.6606466174125671,0.10769005119800568,0.14358630776405334,0.7289251685142517,0.01,0.0,0.0,0.0,0.01,0.0,0.0,0.0,0.01,-0.021102484315633774,0.1262202262878418,-0.01446258183568716,0.01,0.0,0.0,0.0,0.01,0.0,0.0,0.0,0.01,-0.38157552426122127,-9.55453635662794,-1.009421080432832,0.01,0.0,0.0,0.0,0.01,0.0,0.0,0.0,0.01
1700026482.1430702,51160,1700026482,126187776,gx5_link,0.6605003476142883,0.10831629484891891,0.14405463635921478,0.728872537612915,0.01,0.0,0.0,0.0,0.01,0.0,0.0,0.0,0.01,-0.0067170364782214165,0.1526319533586502,-0.014048018492758274,0.01,0.0,0.0,0.0,0.01,0.0,0.0,0.0,0.01,-0.2595991768218577,-9.469376193475723,-1.035143842971325,0.01,0.0,0.0,0.0,0.01,0.0,0.0,0.0,0.01
1700026482.156329,51161,1700026482,136205568,gx5_link,0.6603713631629944,0.10899641364812851,0.14452943205833435,0.7287939786911011,0.01,0.0,0.0,0.0,0.01,0.0,0.0,0.0,0.01,0.004891628865152597,0.16297921538352966,-0.015632474794983864,0.01,0.0,0.0,0.0,0.01,0.0,0.0,0.0,0.01,-0.14998200588379987,-9.415664477032422,-1.1277028842031955,0.01,0.0,0.0,0.0,0.01,0.0,0.0,0.0,0.01
1700026482.1657908,51162,1700026482,146224384,gx5_link,0.6602733731269836,0.10967043042182922,0.14491109549999237,0.728705883026123,0.01,0.0,0.0,0.0,0.01,0.0,0.0,0.0,0.01,0.016225770115852356,0.1537131518125534,-0.02572888880968094,0.01,0.0,0.0,0.0,0.01,0.0,0.0,0.0,0.01,-0.10323771730032749,-9.419027815985679,-1.2572580693989992,0.01,0.0,0.0,0.0,0.01,0.0,0.0,0.0,0.01
1700026482.1739526,51163,1700026482,156240128,gx5_link,0.6602060198783875,0.11029302328824997,0.14513058960437775,0.7286292314529419,0.01,0.0,0.0,0.0,0.01,0.0,0.0,0.0,0.01,0.023984335362911224,0.127395361661911,-0.039970822632312775,0.01,0.0,0.0,0.0,0.01,0.0,0.0,0.0,0.01,-0.08474032117179595,-9.420157112276554,-1.3024531557790935,0.01,0.0,0.0,0.0,0.01,0.0,0.0,0.0,0.01
1700026482.185233,51164,1700026482,166256896,gx5_link,0.6601852178573608,0.11087426543235779,0.14517691731452942,0.7285506725311279,0.01,0.0,0.0,0.0,0.01,0.0,0.0,0.0,0.01,0.030902178958058357,0.09768348932266235,-0.058011580258607864,0.01,0.0,0.0,0.0,0.01,0.0,0.0,0.0,0.01,-0.05562931813423056,-9.391483975499868,-1.2399997683450579,0.01,0.0,0.0,0.0,0.01,0.0,0.0,0.0,0.01
1700026482.1955512,51165,1700026482,176274944,gx5_link,0.6601951122283936,0.11145160347223282,0.14505362510681152,0.7284781336784363,0.01,0.0,0.0,0.0,0.01,0.0,0.0,0.0,0.01,0.0357748344540596,0.07376062870025635,-0.07961414754390717,0.01,0.0,0.0,0.0,0.01,0.0,0.0,0.0,0.01,-0.021715785069589037,-9.404991107326746,-1.2108000504110008,0.01,0.0,0.0,0.0,0.01,0.0,0.0,0.0,0.01
1700026482.2086666,51166,1700026482,186295296,gx5_link,0.6602393388748169,0.11199726164340973,0.14481066167354584,0.7284027934074402,0.01,0.0,0.0,0.0,0.01,0.0,0.0,0.0,0.01,0.044231873005628586,0.052494317293167114,-0.09165608882904053,0.01,0.0,0.0,0.0,0.01,0.0,0.0,0.0,0.01,0.013572502380399963,-9.472912550908326,-1.1948369037341326,0.01,0.0,0.0,0.0,0.01,0.0,0.0,0.0,0.01
1700026482.2307758,51167,1700026482,196313600,gx5_link,0.6603357791900635,0.11248641461133957,0.14449483156204224,0.7283027172088623,0.01,0.0,0.0,0.0,0.01,0.0,0.0,0.0,0.01,0.05646023899316788,0.03368455171585083,-0.0943416878581047,0.01,0.0,0.0,0.0,0.01,0.0,0.0,0.0,0.01,0.03732023395230062,-9.5370994841367,-1.2439619499742984,0.01,0.0,0.0,0.0,0.01,0.0,0.0,0.0,0.01
1700026482.2308002,51168,1700026482,206332160,gx5_link,0.6605021357536316,0.11286976933479309,0.14412999153137207,0.7281647324562073,0.01,0.0,0.0,0.0,0.01,0.0,0.0,0.0,0.01,0.07036437094211578,0.010149583220481873,-0.08632054924964905,0.01,0.0,0.0,0.0,0.01,0.0,0.0,0.0,0.01,0.05826139737060293,-9.559811082160472,-1.2559879033327102,0.01,0.0,0.0,0.0,0.01,0.0,0.0,0.0,0.01
1700026482.2338233,51169,1700026482,216346368,gx5_link,0.6607469916343689,0.11321225017309189,0.14372596144676208,0.727969229221344,0.01,0.0,0.0,0.0,0.01,0.0,0.0,0.0,0.01,0.08905909210443497,-0.004367191344499588,-0.08357997983694077,0.01,0.0,0.0,0.0,0.01,0.0,0.0,0.0,0.01,0.03727216159345116,-9.569096796900034,-1.302839378617704,0.01,0.0,0.0,0.0,0.01,0.0,0.0,0.0,0.01
1700026482.2445462,51170,1700026482,226363392,gx5_link,0.6610821485519409,0.11347486078739166,0.14330431818962097,0.7277071475982666,0.01,0.0,0.0,0.0,0.01,0.0,0.0,0.0,0.01,0.10484971106052399,-0.01823122426867485,-0.074066162109375,0.01,0.0,0.0,0.0,0.01,0.0,0.0,0.0,0.01,-0.00014656486808380578,-9.618804538398981,-1.2194961286943404,0.01,0.0,0.0,0.0,0.01,0.0,0.0,0.0,0.01
1700026482.256443,51171,1700026482,236381952,gx5_link,0.6614755988121033,0.11366890370845795,0.14288288354873657,0.7274022102355957,0.01,0.0,0.0,0.0,0.01,0.0,0.0,0.0,0.01,0.11618965864181519,-0.029903557151556015,-0.06367719173431396,0.01,0.0,0.0,0.0,0.01,0.0,0.0,0.0,0.01,-0.044414274733327326,-9.701419693243503,-1.1269037697147577,0.01,0.0,0.0,0.0,0.01,0.0,0.0,0.0,0.01
1700026482.265887,51172,1700026482,246397952,gx5_link,0.6619157791137695,0.11382526159286499,0.14253003895282745,0.7270464301109314,0.01,0.0,0.0,0.0,0.01,0.0,0.0,0.0,0.01,0.1227368488907814,-0.030167507007718086,-0.04893186688423157,0.01,0.0,0.0,0.0,0.01,0.0,0.0,0.0,0.01,-0.09910102848755195,-9.789407773298025,-1.0106552984029054,0.01,0.0,0.0,0.0,0.01,0.0,0.0,0.0,0.01
1700026482.278482,51173,1700026482,259411456,gx5_link,0.6623978018760681,0.11395194381475449,0.14229172468185425,0.72663414478302,0.01,0.0,0.0,0.0,0.01,0.0,0.0,0.0,0.01,0.12861447036266327,-0.02129659801721573,-0.028482016175985336,0.01,0.0,0.0,0.0,0.01,0.0,0.0,0.0,0.01,-0.15369845999050885,-9.863422273057699,-0.8965807370640337,0.01,0.0,0.0,0.0,0.01,0.0,0.0,0.0,0.01
1700026482.288736,51174,1700026482,269426176,gx5_link,0.6628833413124084,0.11403466016054153,0.14217205345630646,0.7262017130851746,0.01,0.0,0.0,0.0,0.01,0.0,0.0,0.0,0.01,0.12881791591644287,-0.013518358580768108,-0.010594782419502735,0.01,0.0,0.0,0.0,0.01,0.0,0.0,0.0,0.01,-0.23668118777209893,-9.872364288926123,-0.8539807817436754,0.01,0.0,0.0,0.0,0.01,0.0,0.0,0.0,0.01
1700026482.299631,51175,1700026482,279443456,gx5_link,0.6633583903312683,0.1141219213604927,0.14209070801734924,0.7257699966430664,0.01,0.0,0.0,0.0,0.01,0.0,0.0,0.0,0.01,0.1268886774778366,-0.0065264226868748665,-0.005783975124359131,0.01,0.0,0.0,0.0,0.01,0.0,0.0,0.0,0.01,-0.3061378232980147,-9.847041631621122,-0.8046494723416865,0.01,0.0,0.0,0.0,0.01,0.0,0.0,0.0,0.01
1700026482.3084235,51176,1700026482,289457408,gx5_link,0.6638422012329102,0.11426887661218643,0.14207105338573456,0.7253082990646362,0.01,0.0,0.0,0.0,0.01,0.0,0.0,0.0,0.01,0.1262347251176834,0.0075837429612874985,-0.004171605687588453,0.01,0.0,0.0,0.0,0.01,0.0,0.0,0.0,0.01,-0.36853337959758936,-9.872029942405224,-0.670897712238878,0.01,0.0,0.0,0.0,0.01,0.0,0.0,0.0,0.01
1700026482.322009,51177,1700026482,299473152,gx5_link,0.6643207669258118,0.11447884887456894,0.14218606054782867,0.7248142957687378,0.01,0.0,0.0,0.0,0.01,0.0,0.0,0.0,0.01,0.12516498565673828,0.03434112295508385,0.004984094761312008,0.01,0.0,0.0,0.0,0.01,0.0,0.0,0.0,0.01,-0.4170994402481243,-9.932091904658078,-0.5555110819207504,0.01,0.0,0.0,0.0,0.01,0.0,0.0,0.0,0.01
1700026482.328325,51178,1700026482,309490688,gx5_link,0.664791464805603,0.1147344782948494,0.14244940876960754,0.7242904305458069,0.01,0.0,0.0,0.0,0.01,0.0,0.0,0.0,0.01,0.12670356035232544,0.06091494858264923,0.020801100879907608,0.01,0.0,0.0,0.0,0.01,0.0,0.0,0.0,0.01,-0.4453790476625785,-9.932434434485435,-0.5567423772813752,0.01,0.0,0.0,0.0,0.01,0.0,0.0,0.0,0.01
1700026482.3337245,51179,1700026482,319503360,gx5_link,0.6652695536613464,0.11502794921398163,0.1428389847278595,0.723727822303772,0.01,0.0,0.0,0.0,0.01,0.0,0.0,0.0,0.01,0.1347104012966156,0.08607357740402222,0.03408423066139221,0.01,0.0,0.0,0.0,0.01,0.0,0.0,0.0,0.01,-0.4586283322708681,-9.895670345711707,-0.5942945476928726,0.01,0.0,0.0,0.0,0.01,0.0,0.0,0.0,0.01
1700026482.34548,51180,1700026482,329517824,gx5_link,0.6658095717430115,0.11536216735839844,0.14336960017681122,0.7230729460716248,0.01,0.0,0.0,0.0,0.01,0.0,0.0,0.0,0.01,0.15059438347816467,0.11001080274581909,0.05204619839787483,0.01,0.0,0.0,0.0,0.01,0.0,0.0,0.0,0.01,-0.48996027646064755,-9.875788418155908,-0.5613769052142277,0.01,0.0,0.0,0.0,0.01,0.0,0.0,0.0,0.01
1700026482.3572276,51181,1700026482,339534336,gx5_link,0.6664366126060486,0.11574284732341766,0.1440308690071106,0.7223026156425476,0.01,0.0,0.0,0.0,0.01,0.0,0.0,0.0,0.01,0.17562434077262878,0.13394016027450562,0.06973909586668015,0.01,0.0,0.0,0.0,0.01,0.0,0.0,0.0,0.01,-0.5036852522892877,-9.832439105772972,-0.5245804120082408,0.01,0.0,0.0,0.0,0.01,0.0,0.0,0.0,0.01
1700026482.372706,51182,1700026482,349549824,gx5_link,0.6671710014343262,0.11614241451025009,0.1448284238576889,0.7214003801345825,0.01,0.0,0.0,0.0,0.01,0.0,0.0,0.0,0.01,0.20597226917743683,0.15526050329208374,0.09057385474443436,0.01,0.0,0.0,0.0,0.01,0.0,0.0,0.0,0.01,-0.5791400870503858,-9.890897139960527,-0.5212500985417515,0.01,0.0,0.0,0.0,0.01,0.0,0.0,0.0,0.01
1700026482.3767946,51183,1700026482,359566336,gx5_link,0.6680126190185547,0.11659544706344604,0.1458006054162979,0.7203518748283386,0.01,0.0,0.0,0.0,0.01,0.0,0.0,0.0,0.01,0.23490479588508606,0.18486528098583221,0.11233282089233398,0.01,0.0,0.0,0.0,0.01,0.0,0.0,0.0,0.01,-0.6140064159113914,-9.853146378237009,-0.46787079239059237,0.01,0.0,0.0,0.0,0.01,0.0,0.0,0.0,0.01
1700026482.3879616,51184,1700026482,369583360,gx5_link,0.6688998341560364,0.11719795316457748,0.14690066874027252,0.7192064523696899,0.01,0.0,0.0,0.0,0.01,0.0,0.0,0.0,0.01,0.2551007568836212,0.2247466742992401,0.11802873015403748,0.01,0.0,0.0,0.0,0.01,0.0,0.0,0.0,0.01,-0.579075716577284,-9.719935008621215,-0.3558077900698408,0.01,0.0,0.0,0.0,0.01,0.0,0.0,0.0,0.01
1700026482.394573,51185,1700026482,379597312,gx5_link,0.6698158979415894,0.11798630654811859,0.14809060096740723,0.7179798483848572,0.01,0.0,0.0,0.0,0.01,0.0,0.0,0.0,0.01,0.27378830313682556,0.26595988869667053,0.1150398999452591,0.01,0.0,0.0,0.0,0.01,0.0,0.0,0.0,0.01,-0.5190556207047775,-9.701769237333535,-0.3580599529108032,0.01,0.0,0.0,0.0,0.01,0.0,0.0,0.0,0.01
1700026482.4056258,51186,1700026482,389612544,gx5_link,0.6706898212432861,0.11889003962278366,0.1492987871170044,0.7167637348175049,0.01,0.0,0.0,0.0,0.01,0.0,0.0,0.0,0.01,0.28181323409080505,0.28941258788108826,0.10498548299074173,0.01,0.0,0.0,0.0,0.01,0.0,0.0,0.0,0.01,-0.4356303185211494,-9.708086749917268,-0.6268892052948475,0.01,0.0,0.0,0.0,0.01,0.0,0.0,0.0,0.01
1700026482.4218917,51187,1700026482,399630080,gx5_link,0.6714845895767212,0.11981809884309769,0.15035299956798553,0.7156438827514648,0.01,0.0,0.0,0.0,0.01,0.0,0.0,0.0,0.01,0.27634769678115845,0.27975380420684814,0.07786493748426437,0.01,0.0,0.0,0.0,0.01,0.0,0.0,0.0,0.01,-0.36637579970490186,-9.677018826958536,-0.9378172220114618,0.01,0.0,0.0,0.0,0.01,0.0,0.0,0.0,0.01
1700026482.4238138,51188,1700026482,409643008,gx5_link,0.672177791595459,0.12072710692882538,0.1510808765888214,0.7146863341331482,0.01,0.0,0.0,0.0,0.01,0.0,0.0,0.0,0.01,0.2580261826515198,0.24000877141952515,0.031884681433439255,0.01,0.0,0.0,0.0,0.01,0.0,0.0,0.0,0.01,-0.338553799864836,-9.630030281290411,-1.164214678716287,0.01,0.0,0.0,0.0,0.01,0.0,0.0,0.0,0.01
1700026482.434915,51189,1700026482,419657472,gx5_link,0.6728200912475586,0.12159153819084167,0.1514327973127365,0.7138604521751404,0.01,0.0,0.0,0.0,0.01,0.0,0.0,0.0,0.01,0.24339014291763306,0.18790172040462494,-0.018522311002016068,0.01,0.0,0.0,0.0,0.01,0.0,0.0,0.0,0.01,-0.3391716029696166,-9.631104048001765,-1.1482338502522558,0.01,0.0,0.0,0.0,0.01,0.0,0.0,0.0,0.01
1700026482.447582,51190,1700026482,429674240,gx5_link,0.6735009551048279,0.12245970964431763,0.15153178572654724,0.71304851770401,0.01,0.0,0.0,0.0,0.01,0.0,0.0,0.0,0.01,0.239812433719635,0.15028704702854156,-0.05663345009088516,0.01,0.0,0.0,0.0,0.01,0.0,0.0,0.0,0.01,-0.3575511996710673,-9.702239192932844,-0.9084236620057373,0.01,0.0,0.0,0.0,0.01,0.0,0.0,0.0,0.01
1700026482.4568388,51191,1700026482,439689472,gx5_link,0.6741948127746582,0.12336350232362747,0.15152022242546082,0.7122390866279602,0.01,0.0,0.0,0.0,0.01,0.0,0.0,0.0,0.01,0.23581397533416748,0.13505661487579346,-0.08033213019371033,0.01,0.0,0.0,0.0,0.01,0.0,0.0,0.0,0.01,-0.35489319597557184,-9.764981188049912,-0.6386383144732565,0.01,0.0,0.0,0.0,0.01,0.0,0.0,0.0,0.01
1700026482.4767492,51192,1700026482,449704704,gx5_link,0.6748451590538025,0.12431956827640533,0.15149235725402832,0.7114623785018921,0.01,0.0,0.0,0.0,0.01,0.0,0.0,0.0,0.01,0.22413420677185059,0.13831929862499237,-0.0924411490559578,0.01,0.0,0.0,0.0,0.01,0.0,0.0,0.0,0.01,-0.33982126251738515,-9.85931776034832,-0.47468825385309754,0.01,0.0,0.0,0.0,0.01,0.0,0.0,0.0,0.01
1700026482.4796317,51193,1700026482,459722240,gx5_link,0.675471842288971,0.12527546286582947,0.15152737498283386,0.7106921672821045,0.01,0.0,0.0,0.0,0.01,0.0,0.0,0.0,0.01,0.21909219026565552,0.14463117718696594,-0.08692647516727448,0.01,0.0,0.0,0.0,0.01,0.0,0.0,0.0,0.01,-0.3237559706402942,-9.910125572043656,-0.4915396546065807,0.01,0.0,0.0,0.0,0.01,0.0,0.0,0.0,0.01
1700026482.4893017,51194,1700026482,469736448,gx5_link,0.6760720014572144,0.12619711458683014,0.1515781581401825,0.7099472880363464,0.01,0.0,0.0,0.0,0.01,0.0,0.0,0.0,0.01,0.21371430158615112,0.14290258288383484,-0.08361955732107162,0.01,0.0,0.0,0.0,0.01,0.0,0.0,0.0,0.01,-0.31172599869389084,-9.869351663106679,-0.5639615148799494,0.01,0.0,0.0,0.0,0.01,0.0,0.0,0.0,0.01
1700026482.4993527,51195,1700026482,479751936,gx5_link,0.676605761051178,0.12711241841316223,0.15153011679649353,0.7092853784561157,0.01,0.0,0.0,0.0,0.01,0.0,0.0,0.0,0.01,0.19618868827819824,0.1311292052268982,-0.09692274034023285,0.01,0.0,0.0,0.0,0.01,0.0,0.0,0.0,0.01,-0.3050241264350712,-9.83410265507102,-0.5208074693407863,0.01,0.0,0.0,0.0,0.01,0.0,0.0,0.0,0.01
1700026482.5093544,51196,1700026482,489769216,gx5_link,0.6770777106285095,0.12802104651927948,0.15140055119991302,0.708699107170105,0.01,0.0,0.0,0.0,0.01,0.0,0.0,0.0,0.01,0.17504049837589264,0.11994242668151855,-0.10986463725566864,0.01,0.0,0.0,0.0,0.01,0.0,0.0,0.0,0.01,-0.296075936554186,-9.876814838594198,-0.37447281611654903,0.01,0.0,0.0,0.0,0.01,0.0,0.0,0.0,0.01
1700026482.5161037,51197,1700026482,499782656,gx5_link,0.6774942874908447,0.1289111077785492,0.1512984186410904,0.7081611752510071,0.01,0.0,0.0,0.0,0.01,0.0,0.0,0.0,0.01,0.1532166600227356,0.11748798191547394,-0.10893958061933517,0.01,0.0,0.0,0.0,0.01,0.0,0.0,0.0,0.01,-0.278144321082253,-9.945035557383298,-0.21347199722342192,0.01,0.0,0.0,0.0,0.01,0.0,0.0,0.0,0.01
1700026482.5257347,51198,1700026482,509797120,gx5_link,0.6778502464294434,0.12976610660552979,0.15127301216125488,0.7076696157455444,0.01,0.0,0.0,0.0,0.01,0.0,0.0,0.0,0.01,0.1336495578289032,0.12384484708309174,-0.09627890586853027,0.01,0.0,0.0,0.0,0.01,0.0,0.0,0.0,0.01,-0.24463064893921835,-9.979129550164938,-0.15615264820959418,0.01,0.0,0.0,0.0,0.01,0.0,0.0,0.0,0.01
1700026482.5375905,51199,1700026482,519813632,gx5_link,0.6781315803527832,0.1305268555879593,0.1513153463602066,0.7072510123252869,0.01,0.0,0.0,0.0,0.01,0.0,0.0,0.0,0.01,0.11330242455005646,0.12195613235235214,-0.07882461696863174,0.01,0.0,0.0,0.0,0.01,0.0,0.0,0.0,0.01,-0.19306599099459126,-9.978840796351433,-0.20192480382528155,0.01,0.0,0.0,0.0,0.01,0.0,0.0,0.0,0.01
1700026482.5456948,51200,1700026482,529827072,gx5_link,0.6783670783042908,0.1312011480331421,0.15138103067874908,0.7068862915039062,0.01,0.0,0.0,0.0,0.01,0.0,0.0,0.0,0.01,0.09755119681358337,0.11387383192777634,-0.06285853683948517,0.01,0.0,0.0,0.0,0.01,0.0,0.0,0.0,0.01,-0.1495512315174099,-10.021247859448193,-0.2707384104736149,0.01,0.0,0.0,0.0,0.01,0.0,0.0,0.0,0.01
1700026482.5561185,51201,1700026482,539842304,gx5_link,0.6785834431648254,0.13169008493423462,0.15152400732040405,0.7065569758415222,0.01,0.0,0.0,0.0,0.01,0.0,0.0,0.0,0.01,0.0867864117026329,0.1011565700173378,-0.029380232095718384,0.01,0.0,0.0,0.0,0.01,0.0,0.0,0.0,0.01,-0.10333645583391189,-10.0637203889966,-0.3490396111091599,0.01,0.0,0.0,0.0,0.01,0.0,0.0,0.0,0.01
1700026482.5813215,51202,1700026482,549861120,gx5_link,0.678866446018219,0.13197186589241028,0.15180213749408722,0.7061727046966553,0.01,0.0,0.0,0.0,0.01,0.0,0.0,0.0,0.01,0.09406117349863052,0.09061127156019211,0.01967555284500122,0.01,0.0,0.0,0.0,0.01,0.0,0.0,0.0,0.01,-0.08689808372757397,-10.093875873285532,-0.41150903636254366,0.01,0.0,0.0,0.0,0.01,0.0,0.0,0.0,0.01
1700026482.5816875,51203,1700026482,559875328,gx5_link,0.6792439222335815,0.13205333054065704,0.15227073431015015,0.7056934833526611,0.01,0.0,0.0,0.0,0.01,0.0,0.0,0.0,0.01,0.10827953368425369,0.08653845638036728,0.07590329647064209,0.01,0.0,0.0,0.0,0.01,0.0,0.0,0.0,0.01,-0.08426113195326179,-10.063083260136843,-0.4768982945853844,0.01,0.0,0.0,0.0,0.01,0.0,0.0,0.0,0.01
1700026482.5867748,51204,1700026482,569889536,gx5_link,0.6796964406967163,0.13200610876083374,0.15287436544895172,0.7051359415054321,0.01,0.0,0.0,0.0,0.01,0.0,0.0,0.0,0.01,0.12088149785995483,0.086786650121212,0.11908125132322311,0.01,0.0,0.0,0.0,0.01,0.0,0.0,0.0,0.01,-0.06531502850942779,-9.961727164465188,-0.45293914418593045,0.01,0.0,0.0,0.0,0.01,0.0,0.0,0.0,0.01
1700026482.5985155,51205,1700026482,579906816,gx5_link,0.6801608800888062,0.13185250759124756,0.15356488525867462,0.704566478729248,0.01,0.0,0.0,0.0,0.01,0.0,0.0,0.0,0.01,0.12628817558288574,0.08528226613998413,0.14860443770885468,0.01,0.0,0.0,0.0,0.01,0.0,0.0,0.0,0.01,-0.05414065047905314,-9.910303266698122,-0.5567038719018921,0.01,0.0,0.0,0.0,0.01,0.0,0.0,0.0,0.01
1700026482.6069043,51206,1700026482,589921280,gx5_link,0.6806215643882751,0.1315794587135315,0.1542539894580841,0.7040219306945801,0.01,0.0,0.0,0.0,0.01,0.0,0.0,0.0,0.01,0.12540847063064575,0.07114192098379135,0.1647959053516388,0.01,0.0,0.0,0.0,0.01,0.0,0.0,0.0,0.01,-0.07735292346738279,-9.915555780398845,-0.7413863759599626,0.01,0.0,0.0,0.0,0.01,0.0,0.0,0.0,0.01
1700026482.6199977,51207,1700026482,599935744,gx5_link,0.6810978651046753,0.13119427859783173,0.15492498874664307,0.7034856081008911,0.01,0.0,0.0,0.0,0.01,0.0,0.0,0.0,0.01,0.12447091192007065,0.0539422333240509,0.17866994440555573,0.01,0.0,0.0,0.0,0.01,0.0,0.0,0.0,0.01,-0.11254868521215393,-9.941572849708795,-0.7583048506002873,0.01,0.0,0.0,0.0,0.01,0.0,0.0,0.0,0.01
1700026482.6276524,51208,1700026482,609952256,gx5_link,0.6816011071205139,0.1307249814271927,0.15559066832065582,0.702938437461853,0.01,0.0,0.0,0.0,0.01,0.0,0.0,0.0,0.01,0.12408742308616638,0.04012792184948921,0.18931812047958374,0.01,0.0,0.0,0.0,0.01,0.0,0.0,0.0,0.01,-0.15879443142265082,-9.95187680158019,-0.7022426985733211,0.01,0.0,0.0,0.0,0.01,0.0,0.0,0.0,0.01
1700026482.6366367,51209,1700026482,619965952,gx5_link,0.6820705533027649,0.13022908568382263,0.15620023012161255,0.7024397850036621,0.01,0.0,0.0,0.0,0.01,0.0,0.0,0.0,0.01,0.11292711645364761,0.028422288596630096,0.1811250001192093,0.01,0.0,0.0,0.0,0.01,0.0,0.0,0.0,0.01,-0.22591045863917097,-9.886989026606082,-0.6883422565799207,0.01,0.0,0.0,0.0,0.01,0.0,0.0,0.0,0.01
1700026482.6466703,51210,1700026482,629980928,gx5_link,0.6824047565460205,0.12976357340812683,0.15667159855365753,0.7020963430404663,0.01,0.0,0.0,0.0,0.01,0.0,0.0,0.0,0.01,0.08104178309440613,0.013277729041874409,0.1497124433517456,0.01,0.0,0.0,0.0,0.01,0.0,0.0,0.0,0.01,-0.33914518988672643,-9.867024096941947,-0.6633822220422327,0.01,0.0,0.0,0.0,0.01,0.0,0.0,0.0,0.01
1700026482.6596386,51211,1700026482,639998464,gx5_link,0.6825889348983765,0.12936942279338837,0.15698635578155518,0.7019196152687073,0.01,0.0,0.0,0.0,0.01,0.0,0.0,0.0,0.01,0.04346643015742302,0.0008119958220049739,0.1079658716917038,0.01,0.0,0.0,0.0,0.01,0.0,0.0,0.0,0.01,-0.457769158158265,-9.897916078811884,-0.5846036131532862,0.01,0.0,0.0,0.0,0.01,0.0,0.0,0.0,0.01
1700026482.66976,51212,1700026482,650011136,gx5_link,0.6826303005218506,0.12907825410366058,0.1571650207042694,0.701893150806427,0.01,0.0,0.0,0.0,0.01,0.0,0.0,0.0,0.01,0.005111084319651127,-0.005034304223954678,0.06467664986848831,0.01,0.0,0.0,0.0,0.01,0.0,0.0,0.0,0.01,-0.5863750432725996,-9.990517205619811,-0.4930496207781136,0.01,0.0,0.0,0.0,0.01,0.0,0.0,0.0,0.01
1700026482.6775832,51213,1700026482,660025344,gx5_link,0.6825683116912842,0.12887820601463318,0.1573009490966797,0.7019597291946411,0.01,0.0,0.0,0.0,0.01,0.0,0.0,0.0,0.01,-0.022910095751285553,0.002173550194129348,0.03531687334179878,0.01,0.0,0.0,0.0,0.01,0.0,0.0,0.0,0.01,-0.6814028857707977,-10.091226820081472,-0.3413903019323945,0.01,0.0,0.0,0.0,0.01,0.0,0.0,0.0,0.01
1700026482.6874824,51214,1700026482,670041344,gx5_link,0.6824163198471069,0.1288149207830429,0.1575314998626709,0.7020673155784607,0.01,0.0,0.0,0.0,0.01,0.0,0.0,0.0,0.01,-0.04432418942451477,0.03163570165634155,0.023764481768012047,0.01,0.0,0.0,0.0,0.01,0.0,0.0,0.0,0.01,-0.7364882286548614,-10.115385109782219,-0.2333916995063424,0.01,0.0,0.0,0.0,0.01,0.0,0.0,0.0,0.01
1700026482.697526,51215,1700026482,680056320,gx5_link,0.6822186708450317,0.1289072483778,0.1579340398311615,0.7021520733833313,0.01,0.0,0.0,0.0,0.01,0.0,0.0,0.0,0.01,-0.051445845514535904,0.07580164819955826,0.02295761927962303,0.01,0.0,0.0,0.0,0.01,0.0,0.0,0.0,0.01,-0.7579187738921492,-10.05271734894514,-0.14643017688742838,0.01,0.0,0.0,0.0,0.01,0.0,0.0,0.0,0.01
1700026482.707232,51216,1700026482,690071040,gx5_link,0.6820070743560791,0.1292121559381485,0.1585351526737213,0.7021661400794983,0.01,0.0,0.0,0.0,0.01,0.0,0.0,0.0,0.01,-0.046465832740068436,0.13268665969371796,0.023056339472532272,0.01,0.0,0.0,0.0,0.01,0.0,0.0,0.0,0.01,-0.7478411781225353,-9.902322204816342,-0.08609745313548482,0.01,0.0,0.0,0.0,0.01,0.0,0.0,0.0,0.01
1700026482.7216716,51217,1700026482,700088832,gx5_link,0.6817682385444641,0.12973175942897797,0.15928877890110016,0.7021316289901733,0.01,0.0,0.0,0.0,0.01,0.0,0.0,0.0,0.01,-0.040308352559804916,0.1851632446050644,0.017274020239710808,0.01,0.0,0.0,0.0,0.01,0.0,0.0,0.0,0.01,-0.7260339815925806,-9.76054642047286,-0.12091959579489193,0.01,0.0,0.0,0.0,0.01,0.0,0.0,0.0,0.01
1700026482.7271829,51218,1700026482,710102784,gx5_link,0.6815297603607178,0.1304381787776947,0.16012300550937653,0.7020426392555237,0.01,0.0,0.0,0.0,0.01,0.0,0.0,0.0,0.01,-0.028110845014452934,0.22568167746067047,0.00681001553311944,0.01,0.0,0.0,0.0,0.01,0.0,0.0,0.0,0.01,-0.6928468014575541,-9.675897713974118,-0.1673561610029079,0.01,0.0,0.0,0.0,0.01,0.0,0.0,0.0,0.01
1700026482.73712,51219,1700026482,720116992,gx5_link,0.6812798380851746,0.1313294917345047,0.16095761954784393,0.7019280791282654,0.01,0.0,0.0,0.0,0.01,0.0,0.0,0.0,0.01,-0.018840618431568146,0.25521573424339294,-0.014321886003017426,0.01,0.0,0.0,0.0,0.01,0.0,0.0,0.0,0.01,-0.6391472138434648,-9.592018822804093,-0.21085330262500793,0.01,0.0,0.0,0.0,0.01,0.0,0.0,0.0,0.01
1700026482.7535925,51220,1700026482,730139136,gx5_link,0.6809812784194946,0.13236406445503235,0.16171349585056305,0.7018496990203857,0.01,0.0,0.0,0.0,0.01,0.0,0.0,0.0,0.01,-0.018827160820364952,0.26942989230155945,-0.04327334463596344,0.01,0.0,0.0,0.0,0.01,0.0,0.0,0.0,0.01,-0.5596305730035528,-9.482592233401537,-0.3180451917780563,0.01,0.0,0.0,0.0,0.01,0.0,0.0,0.0,0.01
1700026482.7571087,51221,1700026482,740153088,gx5_link,0.6806503534317017,0.13354440033435822,0.16232700645923615,0.7018054723739624,0.01,0.0,0.0,0.0,0.01,0.0,0.0,0.0,0.01,-0.016851697117090225,0.2742901146411896,-0.08073709905147552,0.01,0.0,0.0,0.0,0.01,0.0,0.0,0.0,0.01,-0.4904056090753525,-9.44150034455657,-0.3581699160913005,0.01,0.0,0.0,0.0,0.01,0.0,0.0,0.0,0.01
1700026482.7769094,51222,1700026482,750167552,gx5_link,0.6803308129310608,0.1348104476928711,0.16279982030391693,0.7017637491226196,0.01,0.0,0.0,0.0,0.01,0.0,0.0,0.0,0.01,-0.010215322487056255,0.26990365982055664,-0.1105576679110527,0.01,0.0,0.0,0.0,0.01,0.0,0.0,0.0,0.01,-0.4178043736470863,-9.458212994426487,-0.36214904885534194,0.01,0.0,0.0,0.0,0.01,0.0,0.0,0.0,0.01
1700026482.7781613,51223,1700026482,760183808,gx5_link,0.6800713539123535,0.13613416254520416,0.16319623589515686,0.7016676068305969,0.01,0.0,0.0,0.0,0.01,0.0,0.0,0.0,0.01,0.00768422894179821,0.2678583562374115,-0.12416394799947739,0.01,0.0,0.0,0.0,0.01,0.0,0.0,0.0,0.01,-0.3384269220821559,-9.501427282252907,-0.31716650924738493,0.01,0.0,0.0,0.0,0.01,0.0,0.0,0.0,0.01
1700026482.787304,51224,1700026482,770196992,gx5_link,0.6799434423446655,0.13747243583202362,0.16357922554016113,0.7014414668083191,0.01,0.0,0.0,0.0,0.01,0.0,0.0,0.0,0.01,0.04076463356614113,0.2668260633945465,-0.12165817618370056,0.01,0.0,0.0,0.0,0.01,0.0,0.0,0.0,0.01,-0.27341510060327123,-9.550696632334589,-0.3111785939441994,0.01,0.0,0.0,0.0,0.01,0.0,0.0,0.0,0.01
1700026482.8017185,51225,1700026482,780211712,gx5_link,0.6799411773681641,0.13881082832813263,0.16395685076713562,0.7010917663574219,0.01,0.0,0.0,0.0,0.01,0.0,0.0,0.0,0.01,0.07302585989236832,0.2663217782974243,-0.11523276567459106,0.01,0.0,0.0,0.0,0.01,0.0,0.0,0.0,0.01,-0.20189031703379004,-9.565347088977694,-0.28096469399891794,0.01,0.0,0.0,0.0,0.01,0.0,0.0,0.0,0.01
1700026482.8082888,51226,1700026482,791227648,gx5_link,0.6800562739372253,0.14015769958496094,0.16433630883693695,0.7006232142448425,0.01,0.0,0.0,0.0,0.01,0.0,0.0,0.0,0.01,0.10301467031240463,0.2678700089454651,-0.1077132523059845,0.01,0.0,0.0,0.0,0.01,0.0,0.0,0.0,0.01,-0.16524053882211445,-9.644145900404453,-0.1905520902112126,0.01,0.0,0.0,0.0,0.01,0.0,0.0,0.0,0.01
1700026482.8239489,51227,1700026482,801245440,gx5_link,0.6802322864532471,0.14153097569942474,0.16473063826560974,0.7000834941864014,0.01,0.0,0.0,0.0,0.01,0.0,0.0,0.0,0.01,0.11948853731155396,0.2717640995979309,-0.10465104877948761,0.01,0.0,0.0,0.0,0.01,0.0,0.0,0.0,0.01,-0.07800794417685829,-9.632153264793754,-0.11132135364059358,0.01,0.0,0.0,0.0,0.01,0.0,0.0,0.0,0.01
1700026482.832251,51228,1700026482,811265280,gx5_link,0.6803746223449707,0.1429482400417328,0.16502365469932556,0.6995880603790283,0.01,0.0,0.0,0.0,0.01,0.0,0.0,0.0,0.01,0.11772673577070236,0.2663102149963379,-0.11887378990650177,0.01,0.0,0.0,0.0,0.01,0.0,0.0,0.0,0.01,0.05499950493124779,-9.60440893329978,-0.15306472866423426,0.01,0.0,0.0,0.0,0.01,0.0,0.0,0.0,0.01
1700026482.8391373,51229,1700026482,821280768,gx5_link,0.6804448366165161,0.1442968249320984,0.16517695784568787,0.699206531047821,0.01,0.0,0.0,0.0,0.01,0.0,0.0,0.0,0.01,0.10221274942159653,0.24151891469955444,-0.12988078594207764,0.01,0.0,0.0,0.0,0.01,0.0,0.0,0.0,0.01,0.14515150785427539,-9.69113035441935,-0.276456514125783,0.01,0.0,0.0,0.0,0.01,0.0,0.0,0.0,0.01
