Time,header.seq,header.stamp.secs,header.stamp.nsecs,header.frame_id,magnetic_field.x,magnetic_field.y,magnetic_field.z,magnetic_field_covariance_0,magnetic_field_covariance_1,magnetic_field_covariance_2,magnetic_field_covariance_3,magnetic_field_covariance_4,magnetic_field_covariance_5,magnetic_field_covariance_6,magnetic_field_covariance_7,magnetic_field_covariance_8
1700026234.6558661,26519,1700026234,630917120,gx5_link,0.6580629348754883,0.2059812992811203,0.2623794674873352,0.0,0.0,0.0,0.0,0.0,0.0,0.0,0.0,0.0
1700026234.6589563,26520,1700026234,640931328,gx5_link,0.6580832600593567,0.20580729842185974,0.2635475695133209,0.0,0.0,0.0,0.0,0.0,0.0,0.0,0.0,0.0
1700026234.6803772,26521,1700026234,650948352,gx5_link,0.6580641269683838,0.20569714903831482,0.2643175721168518,0.0,0.0,0.0,0.0,0.0,0.0,0.0,0.0,0.0
1700026234.6850603,26522,1700026234,661965312,gx5_link,0.6582847833633423,0.20563378930091858,0.2636246085166931,0.0,0.0,0.0,0.0,0.0,0.0,0.0,0.0,0.0
1700026234.6949759,26523,1700026234,672983040,gx5_link,0.658497154712677,0.20559853315353394,0.262800008058548,0.0,0.0,0.0,0.0,0.0,0.0,0.0,0.0,0.0
1700026234.701485,26524,1700026234,682997248,gx5_link,0.6589680910110474,0.20553052425384521,0.2625473737716675,0.0,0.0,0.0,0.0,0.0,0.0,0.0,0.0,0.0
1700026234.7112734,26525,1700026234,693013248,gx5_link,0.6593650579452515,0.20547424256801605,0.2624923884868622,0.0,0.0,0.0,0.0,0.0,0.0,0.0,0.0,0.0
1700026234.7220201,26526,1700026234,703031040,gx5_link,0.6595252156257629,0.20535793900489807,0.2631568908691406,0.0,0.0,0.0,0.0,0.0,0.0,0.0,0.0,0.0
1700026234.7298121,26527,1700026234,713044736,gx5_link,0.6595697402954102,0.20520856976509094,0.2642001509666443,0.0,0.0,0.0,0.0,0.0,0.0,0.0,0.0,0.0
1700026234.7456315,26528,1700026234,723066112,gx5_link,0.659521758556366,0.20508553087711334,0.26416629552841187,0.0,0.0,0.0,0.0,0.0,0.0,0.0,0.0,0.0
1700026234.7525263,26529,1700026234,733084160,gx5_link,0.6592958569526672,0.20488561689853668,0.2626362442970276,0.0,0.0,0.0,0.0,0.0,0.0,0.0,0.0,0.0
1700026234.7598805,26530,1700026234,743097856,gx5_link,0.6591869592666626,0.2047892063856125,0.26189854741096497,0.0,0.0,0.0,0.0,0.0,0.0,0.0,0.0,0.0
1700026234.779048,26531,1700026234,753114112,gx5_link,0.6587281227111816,0.20494040846824646,0.2611185312271118,0.0,0.0,0.0,0.0,0.0,0.0,0.0,0.0,0.0
1700026234.7815502,26532,1700026234,763131136,gx5_link,0.6585068702697754,0.20501333475112915,0.2607424259185791,0.0,0.0,0.0,0.0,0.0,0.0,0.0,0.0,0.0
1700026234.7900383,26533,1700026234,773145344,gx5_link,0.6586868762969971,0.20504704117774963,0.2615862786769867,0.0,0.0,0.0,0.0,0.0,0.0,0.0,0.0,0.0
1700026234.802987,26534,1700026234,783162624,gx5_link,0.658822774887085,0.20506304502487183,0.2621687650680542,0.0,0.0,0.0,0.0,0.0,0.0,0.0,0.0,0.0
1700026234.811809,26535,1700026234,793179904,gx5_link,0.6589779853820801,0.20519626140594482,0.2618202865123749,0.0,0.0,0.0,0.0,0.0,0.0,0.0,0.0,0.0
1700026234.8238158,26536,1700026234,803194624,gx5_link,0.6590942144393921,0.20531833171844482,0.261362224817276,0.0,0.0,0.0,0.0,0.0,0.0,0.0,0.0,0.0
1700026234.8361564,26537,1700026234,813215744,gx5_link,0.6594752073287964,0.20555634796619415,0.2611403465270996,0.0,0.0,0.0,0.0,0.0,0.0,0.0,0.0,0.0
1700026234.8422675,26538,1700026234,823233280,gx5_link,0.659998893737793,0.20585854351520538,0.2610323131084442,0.0,0.0,0.0,0.0,0.0,0.0,0.0,0.0,0.0
1700026234.8516722,26539,1700026234,833246976,gx5_link,0.6599538326263428,0.20591221749782562,0.26125872135162354,0.0,0.0,0.0,0.0,0.0,0.0,0.0,0.0,0.0
1700026234.8616705,26540,1700026234,843262464,gx5_link,0.659094512462616,0.20567911863327026,0.26215165853500366,0.0,0.0,0.0,0.0,0.0,0.0,0.0,0.0,0.0
1700026234.87335,26541,1700026234,853278976,gx5_link,0.6586802005767822,0.20556671917438507,0.2625822126865387,0.0,0.0,0.0,0.0,0.0,0.0,0.0,0.0,0.0
1700026234.881705,26542,1700026234,863292928,gx5_link,0.658075213432312,0.20564526319503784,0.26208314299583435,0.0,0.0,0.0,0.0,0.0,0.0,0.0,0.0,0.0
1700026234.891583,26543,1700026234,873308416,gx5_link,0.6577835083007812,0.2056831419467926,0.2618424892425537,0.0,0.0,0.0,0.0,0.0,0.0,0.0,0.0,0.0
1700026234.9029808,26544,1700026234,883326720,gx5_link,0.6579774618148804,0.20624007284641266,0.2624478340148926,0.0,0.0,0.0,0.0,0.0,0.0,0.0,0.0,0.0
1700026234.915542,26545,1700026234,893340928,gx5_link,0.6581282615661621,0.20660088956356049,0.26286327838897705,0.0,0.0,0.0,0.0,0.0,0.0,0.0,0.0,0.0
1700026234.9253979,26546,1700026234,903361792,gx5_link,0.658202588558197,0.20668825507164001,0.2631606459617615,0.0,0.0,0.0,0.0,0.0,0.0,0.0,0.0,0.0
1700026234.9319003,26547,1700026234,913379328,gx5_link,0.6582390666007996,0.2066904753446579,0.2633487582206726,0.0,0.0,0.0,0.0,0.0,0.0,0.0,0.0,0.0
1700026234.9416804,26548,1700026234,923392512,gx5_link,0.6580952405929565,0.2065403312444687,0.2635438144207001,0.0,0.0,0.0,0.0,0.0,0.0,0.0,0.0,0.0
1700026234.9519076,26549,1700026234,933408256,gx5_link,0.6578570008277893,0.2063097357749939,0.2637470066547394,0.0,0.0,0.0,0.0,0.0,0.0,0.0,0.0,0.0
1700026234.962456,26550,1700026234,943425536,gx5_link,0.6576722860336304,0.2061670422554016,0.2639007568359375,0.0,0.0,0.0,0.0,0.0,0.0,0.0,0.0,0.0
1700026234.9716058,26551,1700026234,953438720,gx5_link,0.6573866605758667,0.20600958168506622,0.2641318440437317,0.0,0.0,0.0,0.0,0.0,0.0,0.0,0.0,0.0
1700026234.9831622,26552,1700026234,963453952,gx5_link,0.6572489142417908,0.20593366026878357,0.2642432749271393,0.0,0.0,0.0,0.0,0.0,0.0,0.0,0.0,0.0
1700026234.9916735,26553,1700026234,973470464,gx5_link,0.6573906540870667,0.20551106333732605,0.26429834961891174,0.0,0.0,0.0,0.0,0.0,0.0,0.0,0.0,0.0
1700026235.0074055,26554,1700026234,983484416,gx5_link,0.657459020614624,0.20530730485916138,0.2643248736858368,0.0,0.0,0.0,0.0,0.0,0.0,0.0,0.0,0.0
1700026235.015393,26555,1700026234,993504768,gx5_link,0.6580042839050293,0.2054150104522705,0.26439669728279114,0.0,0.0,0.0,0.0,0.0,0.0,0.0,0.0,0.0
1700026235.0217657,26556,1700026235,3521792,gx5_link,0.6583548784255981,0.2055022269487381,0.26444143056869507,0.0,0.0,0.0,0.0,0.0,0.0,0.0,0.0,0.0
1700026235.0316582,26557,1700026235,13536000,gx5_link,0.6588481068611145,0.2054058462381363,0.2643181085586548,0.0,0.0,0.0,0.0,0.0,0.0,0.0,0.0,0.0
1700026235.044372,26558,1700026235,23552000,gx5_link,0.6592352986335754,0.20529557764530182,0.2641918957233429,0.0,0.0,0.0,0.0,0.0,0.0,0.0,0.0,0.0
1700026235.0549688,26559,1700026235,33569024,gx5_link,0.6590936779975891,0.20525038242340088,0.2642694413661957,0.0,0.0,0.0,0.0,0.0,0.0,0.0,0.0,0.0
1700026235.0616682,26560,1700026235,43582208,gx5_link,0.6586819887161255,0.20523691177368164,0.26445165276527405,0.0,0.0,0.0,0.0,0.0,0.0,0.0,0.0,0.0
1700026235.0716574,26561,1700026235,53597184,gx5_link,0.6584479808807373,0.20524752140045166,0.2644653916358948,0.0,0.0,0.0,0.0,0.0,0.0,0.0,0.0,0.0
1700026235.0817857,26562,1700026235,63613440,gx5_link,0.6582351922988892,0.20530074834823608,0.2642633616924286,0.0,0.0,0.0,0.0,0.0,0.0,0.0,0.0,0.0
1700026235.0917947,26563,1700026235,73626880,gx5_link,0.6581326127052307,0.2053264081478119,0.2641659379005432,0.0,0.0,0.0,0.0,0.0,0.0,0.0,0.0,0.0
1700026235.115557,26564,1700026235,83650304,gx5_link,0.6589508056640625,0.2056376338005066,0.26418760418891907,0.0,0.0,0.0,0.0,0.0,0.0,0.0,0.0,0.0
1700026235.1158285,26565,1700026235,93667072,gx5_link,0.659345269203186,0.20578770339488983,0.26419806480407715,0.0,0.0,0.0,0.0,0.0,0.0,0.0,0.0,0.0
1700026235.1216226,26566,1700026235,103681024,gx5_link,0.6567792296409607,0.20613811910152435,0.26414433121681213,0.0,0.0,0.0,0.0,0.0,0.0,0.0,0.0,0.0
1700026235.1319172,26567,1700026235,113696512,gx5_link,0.6550698280334473,0.20635470747947693,0.2641083300113678,0.0,0.0,0.0,0.0,0.0,0.0,0.0,0.0,0.0
1700026235.1420395,26568,1700026235,123713792,gx5_link,0.6536961793899536,0.20634222030639648,0.26438215374946594,0.0,0.0,0.0,0.0,0.0,0.0,0.0,0.0,0.0
1700026235.1517427,26569,1700026235,133726976,gx5_link,0.6527806520462036,0.20628231763839722,0.2646483778953552,0.0,0.0,0.0,0.0,0.0,0.0,0.0,0.0,0.0
1700026235.1682317,26570,1700026235,143744000,gx5_link,0.6536845564842224,0.20625457167625427,0.26477545499801636,0.0,0.0,0.0,0.0,0.0,0.0,0.0,0.0,0.0
1700026235.1712499,26571,1700026235,153760000,gx5_link,0.6555277705192566,0.2062423974275589,0.2648353576660156,0.0,0.0,0.0,0.0,0.0,0.0,0.0,0.0,0.0
1700026235.1816745,26572,1700026235,163774464,gx5_link,0.6552358865737915,0.20631259679794312,0.26482802629470825,0.0,0.0,0.0,0.0,0.0,0.0,0.0,0.0,0.0
1700026235.210941,26573,1700026235,173789184,gx5_link,0.6517722010612488,0.20656053721904755,0.2647225260734558,0.0,0.0,0.0,0.0,0.0,0.0,0.0,0.0,0.0
1700026235.2109668,26574,1700026235,186803200,gx5_link,0.6496090888977051,0.20671848952770233,0.2647394835948944,0.0,0.0,0.0,0.0,0.0,0.0,0.0,0.0,0.0
1700026235.216299,26575,1700026235,196818176,gx5_link,0.6479834914207458,0.20684510469436646,0.2649631202220917,0.0,0.0,0.0,0.0,0.0,0.0,0.0,0.0,0.0
1700026235.2231479,26576,1700026235,206830336,gx5_link,0.6486964225769043,0.20687240362167358,0.26497703790664673,0.0,0.0,0.0,0.0,0.0,0.0,0.0,0.0,0.0
1700026235.233238,26577,1700026235,216844544,gx5_link,0.6532526612281799,0.20679061114788055,0.26471948623657227,0.0,0.0,0.0,0.0,0.0,0.0,0.0,0.0,0.0
1700026235.2440386,26578,1700026235,226860288,gx5_link,0.6554494500160217,0.20675118267536163,0.26459529995918274,0.0,0.0,0.0,0.0,0.0,0.0,0.0,0.0,0.0
1700026235.253406,26579,1700026235,236872192,gx5_link,0.6510042548179626,0.206663578748703,0.26447030901908875,0.0,0.0,0.0,0.0,0.0,0.0,0.0,0.0,0.0
1700026235.26369,26580,1700026235,246886400,gx5_link,0.6488609910011292,0.20662133395671844,0.2644100487232208,0.0,0.0,0.0,0.0,0.0,0.0,0.0,0.0,0.0
1700026235.2744496,26581,1700026235,256902400,gx5_link,0.6475954055786133,0.20676659047603607,0.26389795541763306,0.0,0.0,0.0,0.0,0.0,0.0,0.0,0.0,0.0
1700026235.28617,26582,1700026235,266920448,gx5_link,0.6469454169273376,0.20686499774456024,0.26356828212738037,0.0,0.0,0.0,0.0,0.0,0.0,0.0,0.0,0.0
1700026235.2932715,26583,1700026235,276934144,gx5_link,0.6504948735237122,0.2067844271659851,0.2636963725090027,0.0,0.0,0.0,0.0,0.0,0.0,0.0,0.0,0.0
1700026235.307573,26584,1700026235,286949376,gx5_link,0.6539865732192993,0.2066865861415863,0.26389041543006897,0.0,0.0,0.0,0.0,0.0,0.0,0.0,0.0,0.0
1700026235.311212,26585,1700026235,296961280,gx5_link,0.6525478363037109,0.20692579448223114,0.26388221979141235,0.0,0.0,0.0,0.0,0.0,0.0,0.0,0.0,0.0
1700026235.3244898,26586,1700026235,306976768,gx5_link,0.6485877633094788,0.20734073221683502,0.26377180218696594,0.0,0.0,0.0,0.0,0.0,0.0,0.0,0.0,0.0
1700026235.3337867,26587,1700026235,316992000,gx5_link,0.6467127203941345,0.20758922398090363,0.26355165243148804,0.0,0.0,0.0,0.0,0.0,0.0,0.0,0.0,0.0
1700026235.3419368,26588,1700026235,327004416,gx5_link,0.6459053754806519,0.2078453153371811,0.26297563314437866,0.0,0.0,0.0,0.0,0.0,0.0,0.0,0.0,0.0
1700026235.356247,26589,1700026235,337018880,gx5_link,0.6455160975456238,0.2079687863588333,0.26269790530204773,0.0,0.0,0.0,0.0,0.0,0.0,0.0,0.0,0.0
1700026235.3634903,26590,1700026235,347034624,gx5_link,0.6496315002441406,0.20768144726753235,0.2631971836090088,0.0,0.0,0.0,0.0,0.0,0.0,0.0,0.0,0.0
1700026235.3760574,26591,1700026235,357052416,gx5_link,0.6516157984733582,0.20754289627075195,0.2634379267692566,0.0,0.0,0.0,0.0,0.0,0.0,0.0,0.0,0.0
1700026235.3827715,26592,1700026235,367065856,gx5_link,0.6484314203262329,0.20827393233776093,0.26361510157585144,0.0,0.0,0.0,0.0,0.0,0.0,0.0,0.0,0.0
1700026235.3933938,26593,1700026235,377080832,gx5_link,0.6461867094039917,0.20876306295394897,0.26371097564697266,0.0,0.0,0.0,0.0,0.0,0.0,0.0,0.0,0.0
1700026235.4022498,26594,1700026235,387092736,gx5_link,0.6454737782478333,0.20890438556671143,0.26390233635902405,0.0,0.0,0.0,0.0,0.0,0.0,0.0,0.0,0.0
1700026235.4184504,26595,1700026235,397108224,gx5_link,0.6453002095222473,0.2089289426803589,0.26406151056289673,0.0,0.0,0.0,0.0,0.0,0.0,0.0,0.0,0.0
1700026235.4231765,26596,1700026235,407123456,gx5_link,0.6475821733474731,0.20876474678516388,0.2643093168735504,0.0,0.0,0.0,0.0,0.0,0.0,0.0,0.0,0.0
1700026235.431166,26597,1700026235,417135616,gx5_link,0.6511572003364563,0.208501398563385,0.26460781693458557,0.0,0.0,0.0,0.0,0.0,0.0,0.0,0.0,0.0
1700026235.4435198,26598,1700026235,427149824,gx5_link,0.6520868539810181,0.20849163830280304,0.2646593749523163,0.0,0.0,0.0,0.0,0.0,0.0,0.0,0.0,0.0
1700026235.4542675,26599,1700026235,433169664,gx5_link,0.6503000259399414,0.2088167667388916,0.2644244134426117,0.0,0.0,0.0,0.0,0.0,0.0,0.0,0.0,0.0
1700026235.4661493,26600,1700026235,443191296,gx5_link,0.6494385004043579,0.20897354185581207,0.26431113481521606,0.0,0.0,0.0,0.0,0.0,0.0,0.0,0.0,0.0
1700026235.477687,26601,1700026235,453208832,gx5_link,0.6501727104187012,0.208578959107399,0.2643279433250427,0.0,0.0,0.0,0.0,0.0,0.0,0.0,0.0,0.0
1700026235.4828396,26602,1700026235,463227904,gx5_link,0.650526762008667,0.20838873088359833,0.2643360495567322,0.0,0.0,0.0,0.0,0.0,0.0,0.0,0.0,0.0
1700026235.4918191,26603,1700026235,473243648,gx5_link,0.6524760127067566,0.20820346474647522,0.2643989622592926,0.0,0.0,0.0,0.0,0.0,0.0,0.0,0.0,0.0
1700026235.5048594,26604,1700026235,483262720,gx5_link,0.6537205576896667,0.2080981284379959,0.2644394040107727,0.0,0.0,0.0,0.0,0.0,0.0,0.0,0.0,0.0
1700026235.5138376,26605,1700026235,493282048,gx5_link,0.6536271572113037,0.20827937126159668,0.26426514983177185,0.0,0.0,0.0,0.0,0.0,0.0,0.0,0.0,0.0
1700026235.5222268,26606,1700026235,503298304,gx5_link,0.6532624959945679,0.20847369730472565,0.2640918493270874,0.0,0.0,0.0,0.0,0.0,0.0,0.0,0.0,0.0
1700026235.5403037,26607,1700026235,513316608,gx5_link,0.6534477472305298,0.20855920016765594,0.2639734447002411,0.0,0.0,0.0,0.0,0.0,0.0,0.0,0.0,0.0
1700026235.5435557,26608,1700026235,523336192,gx5_link,0.6539148092269897,0.20859183371067047,0.2638799250125885,0.0,0.0,0.0,0.0,0.0,0.0,0.0,0.0,0.0
1700026235.5561273,26609,1700026235,533357568,gx5_link,0.6538046002388,0.2086649388074875,0.26381638646125793,0.0,0.0,0.0,0.0,0.0,0.0,0.0,0.0,0.0
1700026235.5630012,26610,1700026235,543374848,gx5_link,0.6528074145317078,0.20886161923408508,0.2637338936328888,0.0,0.0,0.0,0.0,0.0,0.0,0.0,0.0,0.0
1700026235.5734026,26611,1700026235,553393408,gx5_link,0.6523265838623047,0.20895645022392273,0.2636941373348236,0.0,0.0,0.0,0.0,0.0,0.0,0.0,0.0,0.0
1700026235.5825794,26612,1700026235,563409152,gx5_link,0.6524911522865295,0.20937436819076538,0.2636024057865143,0.0,0.0,0.0,0.0,0.0,0.0,0.0,0.0,0.0
1700026235.6001253,26613,1700026235,573428224,gx5_link,0.6525705456733704,0.20957587659358978,0.26355817914009094,0.0,0.0,0.0,0.0,0.0,0.0,0.0,0.0,0.0
1700026235.60358,26614,1700026235,583447040,gx5_link,0.6522627472877502,0.20978954434394836,0.2635970711708069,0.0,0.0,0.0,0.0,0.0,0.0,0.0,0.0,0.0
1700026235.6109488,26615,1700026235,593462784,gx5_link,0.6520551443099976,0.20991253852844238,0.2636261284351349,0.0,0.0,0.0,0.0,0.0,0.0,0.0,0.0,0.0
1700026235.6227486,26616,1700026235,603480320,gx5_link,0.6525511741638184,0.21004371345043182,0.2632523477077484,0.0,0.0,0.0,0.0,0.0,0.0,0.0,0.0,0.0
1700026235.6445608,26617,1700026235,613499904,gx5_link,0.6530650854110718,0.21014010906219482,0.2628934383392334,0.0,0.0,0.0,0.0,0.0,0.0,0.0,0.0,0.0
1700026235.6445913,26618,1700026235,623515136,gx5_link,0.6528517007827759,0.210288867354393,0.26247870922088623,0.0,0.0,0.0,0.0,0.0,0.0,0.0,0.0,0.0
1700026235.661469,26619,1700026235,633540096,gx5_link,0.6522663831710815,0.21046759188175201,0.26202592253685,0.0,0.0,0.0,0.0,0.0,0.0,0.0,0.0,0.0
1700026235.6654038,26620,1700026235,643558400,gx5_link,0.6520026326179504,0.21050292253494263,0.2617151737213135,0.0,0.0,0.0,0.0,0.0,0.0,0.0,0.0,0.0
1700026235.674727,26621,1700026235,653573632,gx5_link,0.6519274711608887,0.21037684381008148,0.26130518317222595,0.0,0.0,0.0,0.0,0.0,0.0,0.0,0.0,0.0
1700026235.6852527,26622,1700026235,663590656,gx5_link,0.6518912315368652,0.21031606197357178,0.26110750436782837,0.0,0.0,0.0,0.0,0.0,0.0,0.0,0.0,0.0
1700026235.6948674,26623,1700026235,673609472,gx5_link,0.6526136994361877,0.2102128565311432,0.2622835636138916,0.0,0.0,0.0,0.0,0.0,0.0,0.0,0.0,0.0
1700026235.7047434,26624,1700026235,683625216,gx5_link,0.6529620289802551,0.21016310155391693,0.26285064220428467,0.0,0.0,0.0,0.0,0.0,0.0,0.0,0.0,0.0
1700026235.7152512,26625,1700026235,693642752,gx5_link,0.6524428725242615,0.2100905328989029,0.2611343264579773,0.0,0.0,0.0,0.0,0.0,0.0,0.0,0.0,0.0
1700026235.7295601,26626,1700026235,703661824,gx5_link,0.6520748138427734,0.21004723012447357,0.2599659264087677,0.0,0.0,0.0,0.0,0.0,0.0,0.0,0.0,0.0
1700026235.7425947,26627,1700026235,719683072,gx5_link,0.6522567868232727,0.21011172235012054,0.2594364285469055,0.0,0.0,0.0,0.0,0.0,0.0,0.0,0.0,0.0
1700026235.7565887,26628,1700026235,729703168,gx5_link,0.6526978611946106,0.2102423757314682,0.25920796394348145,0.0,0.0,0.0,0.0,0.0,0.0,0.0,0.0,0.0
1700026235.7589102,26629,1700026235,739721728,gx5_link,0.651816189289093,0.21039175987243652,0.2603636384010315,0.0,0.0,0.0,0.0,0.0,0.0,0.0,0.0,0.0
1700026235.765491,26630,1700026235,749736704,gx5_link,0.6512043476104736,0.2104782909154892,0.2611379623413086,0.0,0.0,0.0,0.0,0.0,0.0,0.0,0.0,0.0
1700026235.7774699,26631,1700026235,759753728,gx5_link,0.6510442495346069,0.21068499982357025,0.2602531313896179,0.0,0.0,0.0,0.0,0.0,0.0,0.0,0.0,0.0
1700026235.7903523,26632,1700026235,769772288,gx5_link,0.6510292291641235,0.2108606994152069,0.25924667716026306,0.0,0.0,0.0,0.0,0.0,0.0,0.0,0.0,0.0
1700026235.7955906,26633,1700026235,779786496,gx5_link,0.651155412197113,0.21081800758838654,0.2587272524833679,0.0,0.0,0.0,0.0,0.0,0.0,0.0,0.0,0.0
1700026235.8073595,26634,1700026235,789802496,gx5_link,0.6513559222221375,0.21066415309906006,0.25844112038612366,0.0,0.0,0.0,0.0,0.0,0.0,0.0,0.0,0.0
1700026235.8196154,26635,1700026235,799821312,gx5_link,0.6513974070549011,0.21072718501091003,0.25885826349258423,0.0,0.0,0.0,0.0,0.0,0.0,0.0,0.0,0.0
1700026235.831398,26636,1700026235,809841920,gx5_link,0.6512621641159058,0.21114377677440643,0.2606218457221985,0.0,0.0,0.0,0.0,0.0,0.0,0.0,0.0,0.0
1700026235.8381522,26637,1700026235,819858432,gx5_link,0.6511969566345215,0.2113446593284607,0.2614721655845642,0.0,0.0,0.0,0.0,0.0,0.0,0.0,0.0,0.0
1700026235.8492484,26638,1700026235,829876480,gx5_link,0.6504995226860046,0.21112965047359467,0.26004713773727417,0.0,0.0,0.0,0.0,0.0,0.0,0.0,0.0,0.0
1700026235.8574758,26639,1700026235,839891712,gx5_link,0.6501632332801819,0.21102596819400787,0.25936007499694824,0.0,0.0,0.0,0.0,0.0,0.0,0.0,0.0,0.0
1700026235.8704119,26640,1700026235,849908224,gx5_link,0.6499456763267517,0.21087157726287842,0.259632408618927,0.0,0.0,0.0,0.0,0.0,0.0,0.0,0.0,0.0
1700026235.8791573,26641,1700026235,859926272,gx5_link,0.649831235408783,0.21077924966812134,0.2598671317100525,0.0,0.0,0.0,0.0,0.0,0.0,0.0,0.0,0.0
1700026235.8863451,26642,1700026235,869941504,gx5_link,0.649819016456604,0.21091389656066895,0.26123693585395813,0.0,0.0,0.0,0.0,0.0,0.0,0.0,0.0,0.0
1700026235.8982728,26643,1700026235,879958528,gx5_link,0.6498328447341919,0.21106138825416565,0.26247653365135193,0.0,0.0,0.0,0.0,0.0,0.0,0.0,0.0,0.0
1700026235.9101694,26644,1700026235,889977088,gx5_link,0.649543046951294,0.21119771897792816,0.26234912872314453,0.0,0.0,0.0,0.0,0.0,0.0,0.0,0.0,0.0
1700026235.922337,26645,1700026235,899997696,gx5_link,0.6490931510925293,0.21133171021938324,0.26152917742729187,0.0,0.0,0.0,0.0,0.0,0.0,0.0,0.0,0.0
1700026235.9336345,26646,1700026235,910013696,gx5_link,0.649070143699646,0.21137693524360657,0.2614670991897583,0.0,0.0,0.0,0.0,0.0,0.0,0.0,0.0,0.0
1700026235.9397914,26647,1700026235,920032512,gx5_link,0.6496050357818604,0.21134421229362488,0.262375146150589,0.0,0.0,0.0,0.0,0.0,0.0,0.0,0.0,0.0
1700026235.9451382,26648,1700026235,930046976,gx5_link,0.6498628854751587,0.2113284468650818,0.2628130316734314,0.0,0.0,0.0,0.0,0.0,0.0,0.0,0.0,0.0
1700026235.9590912,26649,1700026235,940064256,gx5_link,0.6487134099006653,0.2112264633178711,0.26394417881965637,0.0,0.0,0.0,0.0,0.0,0.0,0.0,0.0,0.0
1700026235.969485,26650,1700026235,950082048,gx5_link,0.6481591463088989,0.2111772894859314,0.2644895315170288,0.0,0.0,0.0,0.0,0.0,0.0,0.0,0.0,0.0
1700026235.976154,26651,1700026235,960096768,gx5_link,0.648580014705658,0.2111339122056961,0.26384714245796204,0.0,0.0,0.0,0.0,0.0,0.0,0.0,0.0,0.0
1700026235.988285,26652,1700026235,970113280,gx5_link,0.6489008069038391,0.21110963821411133,0.26338234543800354,0.0,0.0,0.0,0.0,0.0,0.0,0.0,0.0,0.0
1700026235.9994318,26653,1700026235,980131840,gx5_link,0.6495212912559509,0.2107410877943039,0.2634977400302887,0.0,0.0,0.0,0.0,0.0,0.0,0.0,0.0,0.0
1700026236.0050104,26654,1700026235,990145536,gx5_link,0.6500351428985596,0.21039895713329315,0.2637098729610443,0.0,0.0,0.0,0.0,0.0,0.0,0.0,0.0,0.0
1700026236.0205562,26655,1700026236,162560,gx5_link,0.6502484679222107,0.21032845973968506,0.26391538977622986,0.0,0.0,0.0,0.0,0.0,0.0,0.0,0.0,0.0
1700026236.0376234,26656,1700026236,10181376,gx5_link,0.6503152847290039,0.2103932946920395,0.26412248611450195,0.0,0.0,0.0,0.0,0.0,0.0,0.0,0.0,0.0
1700026236.0376568,26657,1700026236,20195840,gx5_link,0.650488018989563,0.21043799817562103,0.26420360803604126,0.0,0.0,0.0,0.0,0.0,0.0,0.0,0.0,0.0
1700026236.046871,26658,1700026236,30211584,gx5_link,0.6509668827056885,0.2104974091053009,0.26419004797935486,0.0,0.0,0.0,0.0,0.0,0.0,0.0,0.0,0.0
1700026236.0594552,26659,1700026236,40229120,gx5_link,0.6511979103088379,0.21052604913711548,0.26418352127075195,0.0,0.0,0.0,0.0,0.0,0.0,0.0,0.0,0.0
1700026236.0661297,26660,1700026236,50243840,gx5_link,0.651046097278595,0.21022583544254303,0.26375800371170044,0.0,0.0,0.0,0.0,0.0,0.0,0.0,0.0,0.0
1700026236.077987,26661,1700026236,60260352,gx5_link,0.6509729027748108,0.210081085562706,0.26355281472206116,0.0,0.0,0.0,0.0,0.0,0.0,0.0,0.0,0.0
1700026236.0937502,26662,1700026236,70279680,gx5_link,0.6509347558021545,0.21017621457576752,0.26387545466423035,0.0,0.0,0.0,0.0,0.0,0.0,0.0,0.0,0.0
1700026236.095744,26663,1700026236,80293120,gx5_link,0.6509159207344055,0.21025033295154572,0.2641032338142395,0.0,0.0,0.0,0.0,0.0,0.0,0.0,0.0,0.0
1700026236.1103697,26664,1700026236,90310144,gx5_link,0.6508616209030151,0.2102419137954712,0.26387473940849304,0.0,0.0,0.0,0.0,0.0,0.0,0.0,0.0,0.0
1700026236.1195416,26665,1700026236,100328192,gx5_link,0.6508145928382874,0.21021752059459686,0.2636086344718933,0.0,0.0,0.0,0.0,0.0,0.0,0.0,0.0,0.0
1700026236.124858,26666,1700026236,110342144,gx5_link,0.650693953037262,0.21017803251743317,0.2637222409248352,0.0,0.0,0.0,0.0,0.0,0.0,0.0,0.0,0.0
1700026236.137491,26667,1700026236,120357888,gx5_link,0.6505333781242371,0.2101299911737442,0.2640300989151001,0.0,0.0,0.0,0.0,0.0,0.0,0.0,0.0,0.0
1700026236.1595402,26668,1700026236,130376192,gx5_link,0.6504231095314026,0.20997397601604462,0.2641235291957855,0.0,0.0,0.0,0.0,0.0,0.0,0.0,0.0,0.0
1700026236.1595984,26669,1700026236,140390400,gx5_link,0.650277316570282,0.20952482521533966,0.26401379704475403,0.0,0.0,0.0,0.0,0.0,0.0,0.0,0.0,0.0
1700026236.1672416,26670,1700026236,150406400,gx5_link,0.6502070426940918,0.20930828154087067,0.2639608681201935,0.0,0.0,0.0,0.0,0.0,0.0,0.0,0.0,0.0
1700026236.179674,26671,1700026236,160424192,gx5_link,0.6506388783454895,0.20944641530513763,0.2636513411998749,0.0,0.0,0.0,0.0,0.0,0.0,0.0,0.0,0.0
1700026236.1863737,26672,1700026236,170438656,gx5_link,0.6508470773696899,0.20951302349567413,0.2635021209716797,0.0,0.0,0.0,0.0,0.0,0.0,0.0,0.0,0.0
1700026236.2112324,26673,1700026236,180455680,gx5_link,0.6511156558990479,0.20976020395755768,0.2637910544872284,0.0,0.0,0.0,0.0,0.0,0.0,0.0,0.0,0.0
1700026236.2112987,26674,1700026236,190473984,gx5_link,0.6512740254402161,0.20991623401641846,0.26399216055870056,0.0,0.0,0.0,0.0,0.0,0.0,0.0,0.0,0.0
1700026236.216005,26675,1700026236,200487680,gx5_link,0.6502447128295898,0.21014520525932312,0.26379939913749695,0.0,0.0,0.0,0.0,0.0,0.0,0.0,0.0,0.0
1700026236.2274518,26676,1700026236,210503424,gx5_link,0.6492388844490051,0.21032646298408508,0.26357293128967285,0.0,0.0,0.0,0.0,0.0,0.0,0.0,0.0,0.0
1700026236.2403085,26677,1700026236,220521984,gx5_link,0.6477369666099548,0.21040523052215576,0.26343023777008057,0.0,0.0,0.0,0.0,0.0,0.0,0.0,0.0,0.0
1700026236.2473412,26678,1700026236,230535936,gx5_link,0.6459488272666931,0.2104341983795166,0.2633263170719147,0.0,0.0,0.0,0.0,0.0,0.0,0.0,0.0,0.0
1700026236.257187,26679,1700026236,240551680,gx5_link,0.6459652781486511,0.21052934229373932,0.26342323422431946,0.0,0.0,0.0,0.0,0.0,0.0,0.0,0.0,0.0
1700026236.2697265,26680,1700026236,251568384,gx5_link,0.6484460234642029,0.21080362796783447,0.2638837695121765,0.0,0.0,0.0,0.0,0.0,0.0,0.0,0.0,0.0
1700026236.2882826,26681,1700026236,261593088,gx5_link,0.6483752727508545,0.21091397106647491,0.26408857107162476,0.0,0.0,0.0,0.0,0.0,0.0,0.0,0.0,0.0
1700026236.2947185,26682,1700026236,271609600,gx5_link,0.6447756886482239,0.2109055072069168,0.2641388177871704,0.0,0.0,0.0,0.0,0.0,0.0,0.0,0.0,0.0
1700026236.2999067,26683,1700026236,281626624,gx5_link,0.643040120601654,0.2109014242887497,0.2641630470752716,0.0,0.0,0.0,0.0,0.0,0.0,0.0,0.0,0.0
1700026236.316317,26684,1700026236,291647488,gx5_link,0.641470193862915,0.21059930324554443,0.2644592225551605,0.0,0.0,0.0,0.0,0.0,0.0,0.0,0.0,0.0
1700026236.3185053,26685,1700026236,301662720,gx5_link,0.6407132148742676,0.21045362949371338,0.26460203528404236,0.0,0.0,0.0,0.0,0.0,0.0,0.0,0.0,0.0
1700026236.3295653,26686,1700026236,311679744,gx5_link,0.6448168754577637,0.21050135791301727,0.2647264897823334,0.0,0.0,0.0,0.0,0.0,0.0,0.0,0.0,0.0
1700026236.3419185,26687,1700026236,321698560,gx5_link,0.6475610136985779,0.21054458618164062,0.2647959887981415,0.0,0.0,0.0,0.0,0.0,0.0,0.0,0.0,0.0
1700026236.3474736,26688,1700026236,331712768,gx5_link,0.6447961926460266,0.2104378640651703,0.2646404802799225,0.0,0.0,0.0,0.0,0.0,0.0,0.0,0.0,0.0
1700026236.3593307,26689,1700026236,341729024,gx5_link,0.6415791511535645,0.210327610373497,0.2644783556461334,0.0,0.0,0.0,0.0,0.0,0.0,0.0,0.0,0.0
1700026236.376831,26690,1700026236,351753472,gx5_link,0.6398929953575134,0.21049606800079346,0.264641135931015,0.0,0.0,0.0,0.0,0.0,0.0,0.0,0.0,0.0
1700026236.3824475,26691,1700026236,361769472,gx5_link,0.6389386653900146,0.2108091562986374,0.26497167348861694,0.0,0.0,0.0,0.0,0.0,0.0,0.0,0.0,0.0
1700026236.3894904,26692,1700026236,371785728,gx5_link,0.6400108933448792,0.21089324355125427,0.26524096727371216,0.0,0.0,0.0,0.0,0.0,0.0,0.0,0.0,0.0
1700026236.4012716,26693,1700026236,381803776,gx5_link,0.6448408365249634,0.21074558794498444,0.2656802237033844,0.0,0.0,0.0,0.0,0.0,0.0,0.0,0.0,0.0
1700026236.4080222,26694,1700026236,391818752,gx5_link,0.6471695303916931,0.21067436039447784,0.26589199900627136,0.0,0.0,0.0,0.0,0.0,0.0,0.0,0.0,0.0
1700026236.420984,26695,1700026236,401836288,gx5_link,0.6419097185134888,0.21091081202030182,0.2663523852825165,0.0,0.0,0.0,0.0,0.0,0.0,0.0,0.0,0.0
1700026236.43234,26696,1700026236,411854592,gx5_link,0.6393736600875854,0.21102482080459595,0.26657429337501526,0.0,0.0,0.0,0.0,0.0,0.0,0.0,0.0,0.0
1700026236.437598,26697,1700026236,421869568,gx5_link,0.6380897760391235,0.2112976610660553,0.266559898853302,0.0,0.0,0.0,0.0,0.0,0.0,0.0,0.0,0.0
1700026236.449224,26698,1700026236,431886080,gx5_link,0.6374602913856506,0.21146653592586517,0.26653215289115906,0.0,0.0,0.0,0.0,0.0,0.0,0.0,0.0,0.0
1700026236.4632056,26699,1700026236,441905920,gx5_link,0.641154944896698,0.21154558658599854,0.2664182186126709,0.0,0.0,0.0,0.0,0.0,0.0,0.0,0.0,0.0
1700026236.4698715,26700,1700026236,451921664,gx5_link,0.6447790265083313,0.21158260107040405,0.2663169503211975,0.0,0.0,0.0,0.0,0.0,0.0,0.0,0.0,0.0
1700026236.480257,26701,1700026236,461938688,gx5_link,0.643799901008606,0.2117847055196762,0.2661319077014923,0.0,0.0,0.0,0.0,0.0,0.0,0.0,0.0,0.0
1700026236.4932287,26702,1700026236,471956992,gx5_link,0.6404755115509033,0.2120748907327652,0.2659001350402832,0.0,0.0,0.0,0.0,0.0,0.0,0.0,0.0,0.0
1700026236.4972916,26703,1700026236,481970688,gx5_link,0.6390125751495361,0.21226169168949127,0.26578807830810547,0.0,0.0,0.0,0.0,0.0,0.0,0.0,0.0,0.0
1700026236.5093307,26704,1700026236,491986432,gx5_link,0.6387012004852295,0.21248368918895721,0.26573315262794495,0.0,0.0,0.0,0.0,0.0,0.0,0.0,0.0,0.0
1700026236.5224855,26705,1700026236,502005248,gx5_link,0.6385511159896851,0.21259073913097382,0.2657066881656647,0.0,0.0,0.0,0.0,0.0,0.0,0.0,0.0,0.0
1700026236.529424,26706,1700026236,512020736,gx5_link,0.6425811648368835,0.21223360300064087,0.2657622694969177,0.0,0.0,0.0,0.0,0.0,0.0,0.0,0.0,0.0
1700026236.5410786,26707,1700026236,522036992,gx5_link,0.6445242762565613,0.21206142008304596,0.26578906178474426,0.0,0.0,0.0,0.0,0.0,0.0,0.0,0.0,0.0
1700026236.5517933,26708,1700026236,532056064,gx5_link,0.6418354511260986,0.21281997859477997,0.26604336500167847,0.0,0.0,0.0,0.0,0.0,0.0,0.0,0.0,0.0
1700026236.5606484,26709,1700026236,542071808,gx5_link,0.6399179100990295,0.21332986652851105,0.2662073075771332,0.0,0.0,0.0,0.0,0.0,0.0,0.0,0.0,0.0
1700026236.5711608,26710,1700026236,552089088,gx5_link,0.640468418598175,0.2133248895406723,0.26618921756744385,0.0,0.0,0.0,0.0,0.0,0.0,0.0,0.0,0.0
1700026236.5814207,26711,1700026236,562106880,gx5_link,0.6414135694503784,0.21320688724517822,0.2661357820034027,0.0,0.0,0.0,0.0,0.0,0.0,0.0,0.0,0.0
1700026236.5926478,26712,1700026236,572121344,gx5_link,0.6429212093353271,0.21303322911262512,0.26607492566108704,0.0,0.0,0.0,0.0,0.0,0.0,0.0,0.0,0.0
1700026236.5994177,26713,1700026236,582137856,gx5_link,0.6447486877441406,0.21282735466957092,0.2660088837146759,0.0,0.0,0.0,0.0,0.0,0.0,0.0,0.0,0.0
1700026236.6119137,26714,1700026236,592156160,gx5_link,0.6453463435173035,0.21283501386642456,0.2661065459251404,0.0,0.0,0.0,0.0,0.0,0.0,0.0,0.0,0.0
1700026236.6175387,26715,1700026236,602169856,gx5_link,0.6448366641998291,0.2131396234035492,0.26651808619499207,0.0,0.0,0.0,0.0,0.0,0.0,0.0,0.0,0.0
1700026236.630833,26716,1700026236,612186368,gx5_link,0.6445909142494202,0.21328648924827576,0.26671653985977173,0.0,0.0,0.0,0.0,0.0,0.0,0.0,0.0,0.0
1700026236.641401,26717,1700026236,622204928,gx5_link,0.6452156901359558,0.21308615803718567,0.26674190163612366,0.0,0.0,0.0,0.0,0.0,0.0,0.0,0.0,0.0
1700026236.6473846,26718,1700026236,632218624,gx5_link,0.6455169320106506,0.21298956871032715,0.266754150390625,0.0,0.0,0.0,0.0,0.0,0.0,0.0,0.0,0.0
1700026236.6594005,26719,1700026236,642234112,gx5_link,0.6456650495529175,0.21277779340744019,0.2662781774997711,0.0,0.0,0.0,0.0,0.0,0.0,0.0,0.0,0.0
1700026236.6726818,26720,1700026236,652252928,gx5_link,0.6457368731498718,0.21264737844467163,0.26596614718437195,0.0,0.0,0.0,0.0,0.0,0.0,0.0,0.0,0.0
1700026236.6779969,26721,1700026236,662267136,gx5_link,0.6462764739990234,0.21261750161647797,0.265960156917572,0.0,0.0,0.0,0.0,0.0,0.0,0.0,0.0,0.0
1700026236.6946876,26722,1700026236,672283136,gx5_link,0.6467694044113159,0.21261829137802124,0.2660238742828369,0.0,0.0,0.0,0.0,0.0,0.0,0.0,0.0,0.0
1700026236.7007186,26723,1700026236,682300672,gx5_link,0.6468429565429688,0.2126220017671585,0.2659856677055359,0.0,0.0,0.0,0.0,0.0,0.0,0.0,0.0,0.0
1700026236.7081668,26724,1700026236,692315392,gx5_link,0.6467067003250122,0.21262724697589874,0.26589515805244446,0.0,0.0,0.0,0.0,0.0,0.0,0.0,0.0,0.0
1700026236.7201068,26725,1700026236,702331904,gx5_link,0.646765410900116,0.2125609815120697,0.2659812867641449,0.0,0.0,0.0,0.0,0.0,0.0,0.0,0.0,0.0
1700026236.7380335,26726,1700026236,712349696,gx5_link,0.6471439599990845,0.21233539283275604,0.2663881778717041,0.0,0.0,0.0,0.0,0.0,0.0,0.0,0.0,0.0
1700026236.7391865,26727,1700026236,722364160,gx5_link,0.6473264098167419,0.21222661435604095,0.2665843665599823,0.0,0.0,0.0,0.0,0.0,0.0,0.0,0.0,0.0
1700026236.7494493,26728,1700026236,732380416,gx5_link,0.6460160613059998,0.2123878300189972,0.26640287041664124,0.0,0.0,0.0,0.0,0.0,0.0,0.0,0.0,0.0
1700026236.7619514,26729,1700026236,742398720,gx5_link,0.6453843116760254,0.2124655842781067,0.26631537079811096,0.0,0.0,0.0,0.0,0.0,0.0,0.0,0.0,0.0
1700026236.7675,26730,1700026236,752412416,gx5_link,0.6459426283836365,0.21231932938098907,0.26591116189956665,0.0,0.0,0.0,0.0,0.0,0.0,0.0,0.0,0.0
1700026236.7803676,26731,1700026236,762429184,gx5_link,0.6463596224784851,0.21221734583377838,0.2656542658805847,0.0,0.0,0.0,0.0,0.0,0.0,0.0,0.0,0.0
1700026236.7959821,26732,1700026236,775446528,gx5_link,0.6460572481155396,0.21205349266529083,0.2664985954761505,0.0,0.0,0.0,0.0,0.0,0.0,0.0,0.0,0.0
1700026236.8054593,26733,1700026236,785463808,gx5_link,0.6456794142723083,0.21192164719104767,0.2673519253730774,0.0,0.0,0.0,0.0,0.0,0.0,0.0,0.0,0.0
1700026236.8115368,26734,1700026236,795478016,gx5_link,0.6456329226493835,0.2119811624288559,0.2668438255786896,0.0,0.0,0.0,0.0,0.0,0.0,0.0,0.0,0.0
1700026236.829471,26735,1700026236,805499392,gx5_link,0.6456730365753174,0.21206657588481903,0.2661750614643097,0.0,0.0,0.0,0.0,0.0,0.0,0.0,0.0,0.0
1700026236.833983,26736,1700026236,815515648,gx5_link,0.6460206508636475,0.2120991349220276,0.26557615399360657,0.0,0.0,0.0,0.0,0.0,0.0,0.0,0.0,0.0
1700026236.8434114,26737,1700026236,825529088,gx5_link,0.6465316414833069,0.21210579574108124,0.26499810814857483,0.0,0.0,0.0,0.0,0.0,0.0,0.0,0.0,0.0
1700026236.8602655,26738,1700026236,835545856,gx5_link,0.6464235186576843,0.21225208044052124,0.2651081085205078,0.0,0.0,0.0,0.0,0.0,0.0,0.0,0.0,0.0
1700026236.863524,26739,1700026236,845562880,gx5_link,0.6453736424446106,0.21272528171539307,0.266255259513855,0.0,0.0,0.0,0.0,0.0,0.0,0.0,0.0,0.0
1700026236.874107,26740,1700026236,855576320,gx5_link,0.644867479801178,0.21295343339443207,0.26680833101272583,0.0,0.0,0.0,0.0,0.0,0.0,0.0,0.0,0.0
1700026236.88395,26741,1700026236,865592320,gx5_link,0.6434078812599182,0.21346399188041687,0.26544955372810364,0.0,0.0,0.0,0.0,0.0,0.0,0.0,0.0,0.0
1700026236.8941522,26742,1700026236,875609344,gx5_link,0.6427041292190552,0.21371017396450043,0.2647944390773773,0.0,0.0,0.0,0.0,0.0,0.0,0.0,0.0,0.0
1700026236.9039507,26743,1700026236,885624064,gx5_link,0.6427690982818604,0.2136591076850891,0.2649010717868805,0.0,0.0,0.0,0.0,0.0,0.0,0.0,0.0,0.0
1700026236.919329,26744,1700026236,895646208,gx5_link,0.6428695917129517,0.21360540390014648,0.265024870634079,0.0,0.0,0.0,0.0,0.0,0.0,0.0,0.0,0.0
1700026236.924242,26745,1700026236,905662208,gx5_link,0.6431034803390503,0.2134939730167389,0.26624542474746704,0.0,0.0,0.0,0.0,0.0,0.0,0.0,0.0,0.0
1700026236.9341207,26746,1700026236,915675392,gx5_link,0.6433016657829285,0.21340082585811615,0.26736894249916077,0.0,0.0,0.0,0.0,0.0,0.0,0.0,0.0,0.0
1700026236.944659,26747,1700026236,925690624,gx5_link,0.6427417993545532,0.21330352127552032,0.2669101357460022,0.0,0.0,0.0,0.0,0.0,0.0,0.0,0.0,0.0
1700026236.9550173,26748,1700026236,935708672,gx5_link,0.6417862176895142,0.21320180594921112,0.2656422555446625,0.0,0.0,0.0,0.0,0.0,0.0,0.0,0.0,0.0
1700026236.9776754,26749,1700026236,945722368,gx5_link,0.6415714025497437,0.21318133175373077,0.26517876982688904,0.0,0.0,0.0,0.0,0.0,0.0,0.0,0.0,0.0
1700026236.9777179,26750,1700026236,955737856,gx5_link,0.6421599984169006,0.21325187385082245,0.2653713524341583,0.0,0.0,0.0,0.0,0.0,0.0,0.0,0.0,0.0
1700026236.9840627,26751,1700026236,965754880,gx5_link,0.6424437761306763,0.213285893201828,0.2654642164707184,0.0,0.0,0.0,0.0,0.0,0.0,0.0,0.0,0.0
1700026236.9910269,26752,1700026236,975767040,gx5_link,0.6427754759788513,0.2136882096529007,0.267344206571579,0.0,0.0,0.0,0.0,0.0,0.0,0.0,0.0,0.0
1700026237.009326,26753,1700026236,985787648,gx5_link,0.6429353356361389,0.213882178068161,0.26825061440467834,0.0,0.0,0.0,0.0,0.0,0.0,0.0,0.0,0.0
1700026237.0152664,26754,1700026236,995803648,gx5_link,0.6430181860923767,0.21364298462867737,0.26724132895469666,0.0,0.0,0.0,0.0,0.0,0.0,0.0,0.0,0.0
1700026237.0225754,26755,1700026237,5817856,gx5_link,0.6430590152740479,0.2134706825017929,0.26650694012641907,0.0,0.0,0.0,0.0,0.0,0.0,0.0,0.0,0.0
1700026237.0343668,26756,1700026237,15833856,gx5_link,0.6434902548789978,0.2135096788406372,0.26629704236984253,0.0,0.0,0.0,0.0,0.0,0.0,0.0,0.0,0.0
1700026237.0440738,26757,1700026237,25850368,gx5_link,0.6438878774642944,0.2135847508907318,0.2662622928619385,0.0,0.0,0.0,0.0,0.0,0.0,0.0,0.0,0.0
1700026237.054146,26758,1700026237,35863808,gx5_link,0.6437847018241882,0.2135990858078003,0.26679837703704834,0.0,0.0,0.0,0.0,0.0,0.0,0.0,0.0,0.0
1700026237.0641246,26759,1700026237,45879296,gx5_link,0.6434264183044434,0.21358314156532288,0.2676352262496948,0.0,0.0,0.0,0.0,0.0,0.0,0.0,0.0,0.0
1700026237.074198,26760,1700026237,55895808,gx5_link,0.6432545781135559,0.21352483332157135,0.2679092586040497,0.0,0.0,0.0,0.0,0.0,0.0,0.0,0.0,0.0
1700026237.0884168,26761,1700026237,65910272,gx5_link,0.6431741714477539,0.2133542001247406,0.26767703890800476,0.0,0.0,0.0,0.0,0.0,0.0,0.0,0.0,0.0
1700026237.0992625,26762,1700026237,75930624,gx5_link,0.6431354284286499,0.21327194571495056,0.2675650715827942,0.0,0.0,0.0,0.0,0.0,0.0,0.0,0.0,0.0
1700026237.1054525,26763,1700026237,85947904,gx5_link,0.6432565450668335,0.212910994887352,0.26744160056114197,0.0,0.0,0.0,0.0,0.0,0.0,0.0,0.0,0.0
1700026237.1140125,26764,1700026237,95961856,gx5_link,0.6433149576187134,0.21273696422576904,0.26738205552101135,0.0,0.0,0.0,0.0,0.0,0.0,0.0,0.0,0.0
1700026237.1235402,26765,1700026237,105976064,gx5_link,0.6433910131454468,0.21319496631622314,0.267411470413208,0.0,0.0,0.0,0.0,0.0,0.0,0.0,0.0,0.0
1700026237.1342502,26766,1700026237,115992320,gx5_link,0.6434358358383179,0.21350862085819244,0.26743558049201965,0.0,0.0,0.0,0.0,0.0,0.0,0.0,0.0,0.0
1700026237.149894,26767,1700026237,126007296,gx5_link,0.6430436968803406,0.2136695235967636,0.26754429936408997,0.0,0.0,0.0,0.0,0.0,0.0,0.0,0.0,0.0
1700026237.1534836,26768,1700026237,136022784,gx5_link,0.6426638960838318,0.21375155448913574,0.26764148473739624,0.0,0.0,0.0,0.0,0.0,0.0,0.0,0.0,0.0
1700026237.1641862,26769,1700026237,146040320,gx5_link,0.6431378126144409,0.21374459564685822,0.2675152122974396,0.0,0.0,0.0,0.0,0.0,0.0,0.0,0.0,0.0
1700026237.173998,26770,1700026237,156053504,gx5_link,0.6440536379814148,0.2136925905942917,0.26727327704429626,0.0,0.0,0.0,0.0,0.0,0.0,0.0,0.0,0.0
1700026237.1903532,26771,1700026237,166073856,gx5_link,0.6442481875419617,0.21370668709278107,0.2672308087348938,0.0,0.0,0.0,0.0,0.0,0.0,0.0,0.0,0.0
1700026237.1940296,26772,1700026237,176090368,gx5_link,0.6436465978622437,0.21382373571395874,0.26741907000541687,0.0,0.0,0.0,0.0,0.0,0.0,0.0,0.0,0.0
1700026237.2090387,26773,1700026237,186104576,gx5_link,0.643356442451477,0.21388018131256104,0.2675098180770874,0.0,0.0,0.0,0.0,0.0,0.0,0.0,0.0,0.0
1700026237.2139332,26774,1700026237,196120320,gx5_link,0.6437528133392334,0.21395768225193024,0.2672702670097351,0.0,0.0,0.0,0.0,0.0,0.0,0.0,0.0,0.0
1700026237.223832,26775,1700026237,206136320,gx5_link,0.6439439058303833,0.2139950543642044,0.2671547532081604,0.0,0.0,0.0,0.0,0.0,0.0,0.0,0.0,0.0
1700026237.2338314,26776,1700026237,216150272,gx5_link,0.644036054611206,0.21401365101337433,0.2672196924686432,0.0,0.0,0.0,0.0,0.0,0.0,0.0,0.0,0.0
1700026237.2442217,26777,1700026237,226166016,gx5_link,0.6440804600715637,0.21402272582054138,0.26727166771888733,0.0,0.0,0.0,0.0,0.0,0.0,0.0,0.0,0.0
1700026237.2549877,26778,1700026237,236183552,gx5_link,0.6436383128166199,0.21425612270832062,0.26753807067871094,0.0,0.0,0.0,0.0,0.0,0.0,0.0,0.0,0.0
1700026237.265292,26779,1700026237,246196992,gx5_link,0.6432115435600281,0.21447421610355377,0.2677777409553528,0.0,0.0,0.0,0.0,0.0,0.0,0.0,0.0,0.0
1700026237.2773864,26780,1700026237,256216832,gx5_link,0.6426474452018738,0.21443235874176025,0.2679632902145386,0.0,0.0,0.0,0.0,0.0,0.0,0.0,0.0,0.0
1700026237.283989,26781,1700026237,266233344,gx5_link,0.6420005559921265,0.2142583429813385,0.268125981092453,0.0,0.0,0.0,0.0,0.0,0.0,0.0,0.0,0.0
1700026237.2938817,26782,1700026237,276245760,gx5_link,0.6418458819389343,0.21423715353012085,0.26811137795448303,0.0,0.0,0.0,0.0,0.0,0.0,0.0,0.0,0.0
1700026237.3060117,26783,1700026237,286261504,gx5_link,0.6422140598297119,0.2144034206867218,0.2678426206111908,0.0,0.0,0.0,0.0,0.0,0.0,0.0,0.0,0.0
1700026237.3139575,26784,1700026237,296276992,gx5_link,0.6423916220664978,0.2144836187362671,0.2677130103111267,0.0,0.0,0.0,0.0,0.0,0.0,0.0,0.0,0.0
1700026237.3238811,26785,1700026237,306290688,gx5_link,0.6403984427452087,0.21437951922416687,0.268006294965744,0.0,0.0,0.0,0.0,0.0,0.0,0.0,0.0,0.0
1700026237.3346815,26786,1700026237,318304512,gx5_link,0.6393159627914429,0.21432296931743622,0.26816558837890625,0.0,0.0,0.0,0.0,0.0,0.0,0.0,0.0,0.0
1700026237.3447385,26787,1700026237,328318976,gx5_link,0.636972188949585,0.21408966183662415,0.2679446041584015,0.0,0.0,0.0,0.0,0.0,0.0,0.0,0.0,0.0
1700026237.3575404,26788,1700026237,338334720,gx5_link,0.6358421444892883,0.21397718787193298,0.2678380608558655,0.0,0.0,0.0,0.0,0.0,0.0,0.0,0.0,0.0
1700026237.3690255,26789,1700026237,348352512,gx5_link,0.639320433139801,0.21421381831169128,0.26756975054740906,0.0,0.0,0.0,0.0,0.0,0.0,0.0,0.0,0.0
1700026237.3765557,26790,1700026237,358368256,gx5_link,0.6409974694252014,0.21432791650295258,0.26744040846824646,0.0,0.0,0.0,0.0,0.0,0.0,0.0,0.0,0.0
1700026237.3857367,26791,1700026237,368384256,gx5_link,0.6380196809768677,0.2145783007144928,0.2679237127304077,0.0,0.0,0.0,0.0,0.0,0.0,0.0,0.0,0.0
1700026237.3936946,26792,1700026237,378397696,gx5_link,0.635935366153717,0.21473246812820435,0.2682502269744873,0.0,0.0,0.0,0.0,0.0,0.0,0.0,0.0,0.0
1700026237.4053829,26793,1700026237,388412672,gx5_link,0.6341970562934875,0.21469305455684662,0.2685055434703827,0.0,0.0,0.0,0.0,0.0,0.0,0.0,0.0,0.0
1700026237.4201002,26794,1700026237,398429184,gx5_link,0.6330208778381348,0.2146216332912445,0.26867377758026123,0.0,0.0,0.0,0.0,0.0,0.0,0.0,0.0,0.0
1700026237.4246142,26795,1700026237,408442624,gx5_link,0.6349806785583496,0.21456138789653778,0.2686144709587097,0.0,0.0,0.0,0.0,0.0,0.0,0.0,0.0,0.0
1700026237.4347074,26796,1700026237,418456576,gx5_link,0.6385692358016968,0.2145053595304489,0.2684389650821686,0.0,0.0,0.0,0.0,0.0,0.0,0.0,0.0,0.0
1700026237.4453585,26797,1700026237,428471808,gx5_link,0.638767659664154,0.21451213955879211,0.2683001160621643,0.0,0.0,0.0,0.0,0.0,0.0,0.0,0.0,0.0
1700026237.4594054,26798,1700026237,436492800,gx5_link,0.6345518827438354,0.21461054682731628,0.268080472946167,0.0,0.0,0.0,0.0,0.0,0.0,0.0,0.0,0.0
1700026237.4716396,26799,1700026237,446510336,gx5_link,0.6325191259384155,0.2146579921245575,0.2679745852947235,0.0,0.0,0.0,0.0,0.0,0.0,0.0,0.0,0.0
1700026237.4813886,26800,1700026237,456528384,gx5_link,0.631942093372345,0.21467292308807373,0.2681351602077484,0.0,0.0,0.0,0.0,0.0,0.0,0.0,0.0,0.0
1700026237.4862068,26801,1700026237,466543104,gx5_link,0.6316637992858887,0.21468013525009155,0.26821255683898926,0.0,0.0,0.0,0.0,0.0,0.0,0.0,0.0,0.0
1700026237.495878,26802,1700026237,476559616,gx5_link,0.6363463997840881,0.2145756036043167,0.2680647373199463,0.0,0.0,0.0,0.0,0.0,0.0,0.0,0.0,0.0
1700026237.506222,26803,1700026237,486577920,gx5_link,0.6394292116165161,0.21450671553611755,0.2679617702960968,0.0,0.0,0.0,0.0,0.0,0.0,0.0,0.0,0.0
1700026237.5147765,26804,1700026237,496592128,gx5_link,0.636775553226471,0.21469701826572418,0.26810863614082336,0.0,0.0,0.0,0.0,0.0,0.0,0.0,0.0,0.0
1700026237.526183,26805,1700026237,506609152,gx5_link,0.6335880756378174,0.21489180624485016,0.26826998591423035,0.0,0.0,0.0,0.0,0.0,0.0,0.0,0.0,0.0
1700026237.5395472,26806,1700026237,516627456,gx5_link,0.6318224668502808,0.21492783725261688,0.2681756019592285,0.0,0.0,0.0,0.0,0.0,0.0,0.0,0.0,0.0
1700026237.549759,26807,1700026237,526648320,gx5_link,0.630731999874115,0.2148846834897995,0.2679499685764313,0.0,0.0,0.0,0.0,0.0,0.0,0.0,0.0,0.0
1700026237.5551708,26808,1700026237,536664320,gx5_link,0.6317721009254456,0.21489660441875458,0.2680247724056244,0.0,0.0,0.0,0.0,0.0,0.0,0.0,0.0,0.0
1700026237.5669847,26809,1700026237,546683136,gx5_link,0.6366809606552124,0.2149944305419922,0.26857757568359375,0.0,0.0,0.0,0.0,0.0,0.0,0.0,0.0,0.0
1700026237.5747235,26810,1700026237,556698112,gx5_link,0.6390477418899536,0.2150416076183319,0.2688440978527069,0.0,0.0,0.0,0.0,0.0,0.0,0.0,0.0,0.0
1700026237.5853343,26811,1700026237,566714368,gx5_link,0.634811282157898,0.2154371589422226,0.26876428723335266,0.0,0.0,0.0,0.0,0.0,0.0,0.0,0.0,0.0
1700026237.596207,26812,1700026237,576732160,gx5_link,0.6327686905860901,0.21562787890434265,0.26872578263282776,0.0,0.0,0.0,0.0,0.0,0.0,0.0,0.0,0.0
1700026237.6051111,26813,1700026237,586745856,gx5_link,0.6329936385154724,0.21536733210086823,0.2687075138092041,0.0,0.0,0.0,0.0,0.0,0.0,0.0,0.0,0.0
1700026237.6158926,26814,1700026237,596762624,gx5_link,0.6333093643188477,0.21518132090568542,0.26869872212409973,0.0,0.0,0.0,0.0,0.0,0.0,0.0,0.0,0.0
1700026237.6257682,26815,1700026237,606779648,gx5_link,0.6363558173179626,0.21515849232673645,0.2688365876674652,0.0,0.0,0.0,0.0,0.0,0.0,0.0,0.0,0.0
1700026237.6383224,26816,1700026237,616799744,gx5_link,0.6391584873199463,0.21517831087112427,0.26896849274635315,0.0,0.0,0.0,0.0,0.0,0.0,0.0,0.0,0.0
1700026237.645711,26817,1700026237,626815488,gx5_link,0.6390983462333679,0.21521924436092377,0.2690333127975464,0.0,0.0,0.0,0.0,0.0,0.0,0.0,0.0,0.0
1700026237.6601431,26818,1700026237,636834048,gx5_link,0.6375927329063416,0.21527183055877686,0.26906585693359375,0.0,0.0,0.0,0.0,0.0,0.0,0.0,0.0,0.0
1700026237.6658144,26819,1700026237,646848768,gx5_link,0.6371837258338928,0.2152901440858841,0.2690812647342682,0.0,0.0,0.0,0.0,0.0,0.0,0.0,0.0,0.0
1700026237.6760435,26820,1700026237,656865280,gx5_link,0.6378785967826843,0.21527913212776184,0.26908794045448303,0.0,0.0,0.0,0.0,0.0,0.0,0.0,0.0,0.0
1700026237.6861365,26821,1700026237,666883072,gx5_link,0.6382136344909668,0.21527382731437683,0.2690911293029785,0.0,0.0,0.0,0.0,0.0,0.0,0.0,0.0,0.0
1700026237.6958811,26822,1700026237,676896768,gx5_link,0.6402568817138672,0.2151651680469513,0.2689500153064728,0.0,0.0,0.0,0.0,0.0,0.0,0.0,0.0,0.0
1700026237.7059095,26823,1700026237,686913536,gx5_link,0.6412420272827148,0.21511277556419373,0.26888197660446167,0.0,0.0,0.0,0.0,0.0,0.0,0.0,0.0,0.0
1700026237.719748,26824,1700026237,696930304,gx5_link,0.6410824060440063,0.21531666815280914,0.2684266269207001,0.0,0.0,0.0,0.0,0.0,0.0,0.0,0.0,0.0
1700026237.7342134,26825,1700026237,706955264,gx5_link,0.6408967971801758,0.21545422077178955,0.2681346833705902,0.0,0.0,0.0,0.0,0.0,0.0,0.0,0.0,0.0
1700026237.735902,26826,1700026237,716971008,gx5_link,0.6409912109375,0.2155185490846634,0.2684290111064911,0.0,0.0,0.0,0.0,0.0,0.0,0.0,0.0,0.0
1700026237.7469223,26827,1700026237,726989312,gx5_link,0.6410977244377136,0.21555978059768677,0.26876193284988403,0.0,0.0,0.0,0.0,0.0,0.0,0.0,0.0,0.0
1700026237.7557836,26828,1700026237,737003776,gx5_link,0.6411386728286743,0.21555303037166595,0.2687801122665405,0.0,0.0,0.0,0.0,0.0,0.0,0.0,0.0,0.0
1700026237.7657826,26829,1700026237,747020032,gx5_link,0.6411589980125427,0.2155165821313858,0.2686445116996765,0.0,0.0,0.0,0.0,0.0,0.0,0.0,0.0,0.0
1700026237.7792861,26830,1700026237,757037824,gx5_link,0.64102703332901,0.21555233001708984,0.26861611008644104,0.0,0.0,0.0,0.0,0.0,0.0,0.0,0.0,0.0
1700026237.7852426,26831,1700026237,767051264,gx5_link,0.6405645608901978,0.21571965515613556,0.26870647072792053,0.0,0.0,0.0,0.0,0.0,0.0,0.0,0.0,0.0
1700026237.7952013,26832,1700026237,777067264,gx5_link,0.640341579914093,0.21580033004283905,0.26875001192092896,0.0,0.0,0.0,0.0,0.0,0.0,0.0,0.0,0.0
1700026237.8058302,26833,1700026237,787084032,gx5_link,0.6406325697898865,0.21608397364616394,0.2686283588409424,0.0,0.0,0.0,0.0,0.0,0.0,0.0,0.0,0.0
1700026237.8181942,26834,1700026237,797103872,gx5_link,0.640772819519043,0.21622072160243988,0.2685697078704834,0.0,0.0,0.0,0.0,0.0,0.0,0.0,0.0,0.0
1700026237.8260438,26835,1700026237,807120896,gx5_link,0.6412522792816162,0.2156822234392166,0.268905371427536,0.0,0.0,0.0,0.0,0.0,0.0,0.0,0.0,0.0
1700026237.8390028,26836,1700026237,817137920,gx5_link,0.6415539979934692,0.21531905233860016,0.26912954449653625,0.0,0.0,0.0,0.0,0.0,0.0,0.0,0.0,0.0
1700026237.8468342,26837,1700026237,827151872,gx5_link,0.6413279175758362,0.21536651253700256,0.2685600519180298,0.0,0.0,0.0,0.0,0.0,0.0,0.0,0.0,0.0
1700026237.8593214,26838,1700026237,843166464,gx5_link,0.6410475969314575,0.21549198031425476,0.2679732143878937,0.0,0.0,0.0,0.0,0.0,0.0,0.0,0.0,0.0
1700026237.871453,26839,1700026237,853183232,gx5_link,0.6403964757919312,0.21556279063224792,0.2674494683742523,0.0,0.0,0.0,0.0,0.0,0.0,0.0,0.0,0.0
1700026237.8779464,26840,1700026237,863196672,gx5_link,0.6399941444396973,0.2155987024307251,0.2671557068824768,0.0,0.0,0.0,0.0,0.0,0.0,0.0,0.0,0.0
1700026237.8937485,26841,1700026237,873213184,gx5_link,0.6400346159934998,0.21535366773605347,0.26783695816993713,0.0,0.0,0.0,0.0,0.0,0.0,0.0,0.0,0.0
1700026237.9030097,26842,1700026237,883231744,gx5_link,0.6401621699333191,0.21511460840702057,0.26854467391967773,0.0,0.0,0.0,0.0,0.0,0.0,0.0,0.0,0.0
1700026237.913013,26843,1700026237,893250560,gx5_link,0.6402521133422852,0.21524427831172943,0.26826345920562744,0.0,0.0,0.0,0.0,0.0,0.0,0.0,0.0,0.0
1700026237.920182,26844,1700026237,903266048,gx5_link,0.6403252482414246,0.21556301414966583,0.2674766778945923,0.0,0.0,0.0,0.0,0.0,0.0,0.0,0.0,0.0
1700026237.9322348,26845,1700026237,913283584,gx5_link,0.6403784155845642,0.21569955348968506,0.26707887649536133,0.0,0.0,0.0,0.0,0.0,0.0,0.0,0.0,0.0
1700026237.939182,26846,1700026237,923297536,gx5_link,0.6404544115066528,0.2157171070575714,0.2668350636959076,0.0,0.0,0.0,0.0,0.0,0.0,0.0,0.0,0.0
1700026237.9524744,26847,1700026237,933313280,gx5_link,0.6404910087585449,0.21572557091712952,0.26671749353408813,0.0,0.0,0.0,0.0,0.0,0.0,0.0,0.0,0.0
1700026237.960718,26848,1700026237,943330048,gx5_link,0.6399714350700378,0.21574705839157104,0.26779159903526306,0.0,0.0,0.0,0.0,0.0,0.0,0.0,0.0,0.0
1700026237.9674904,26849,1700026237,953343488,gx5_link,0.6397209167480469,0.21575741469860077,0.26830947399139404,0.0,0.0,0.0,0.0,0.0,0.0,0.0,0.0,0.0
1700026237.98002,26850,1700026237,963358720,gx5_link,0.6391996741294861,0.21571208536624908,0.26753443479537964,0.0,0.0,0.0,0.0,0.0,0.0,0.0,0.0,0.0
1700026237.9920084,26851,1700026237,973376000,gx5_link,0.6388797760009766,0.21568162739276886,0.2669851779937744,0.0,0.0,0.0,0.0,0.0,0.0,0.0,0.0,0.0
1700026237.998878,26852,1700026237,983388928,gx5_link,0.6389524340629578,0.21583642065525055,0.2668161988258362,0.0,0.0,0.0,0.0,0.0,0.0,0.0,0.0,0.0
1700026238.0191958,26853,1700026237,993403392,gx5_link,0.6390919089317322,0.2159891575574875,0.2667788863182068,0.0,0.0,0.0,0.0,0.0,0.0,0.0,0.0,0.0
1700026238.0212965,26854,1700026238,3419648,gx5_link,0.6389951109886169,0.21607129275798798,0.2677622437477112,0.0,0.0,0.0,0.0,0.0,0.0,0.0,0.0,0.0
1700026238.0271525,26855,1700026238,13432576,gx5_link,0.6387767791748047,0.21611976623535156,0.2692839801311493,0.0,0.0,0.0,0.0,0.0,0.0,0.0,0.0,0.0
1700026238.0398784,26856,1700026238,23447808,gx5_link,0.6386541724205017,0.21612443029880524,0.269517719745636,0.0,0.0,0.0,0.0,0.0,0.0,0.0,0.0,0.0
1700026238.0533047,26857,1700026238,33466112,gx5_link,0.638546347618103,0.21607406437397003,0.2682233154773712,0.0,0.0,0.0,0.0,0.0,0.0,0.0,0.0,0.0
1700026238.0571592,26858,1700026238,43478528,gx5_link,0.6384942531585693,0.21604979038238525,0.2675991952419281,0.0,0.0,0.0,0.0,0.0,0.0,0.0,0.0,0.0
1700026238.0729525,26859,1700026238,53496320,gx5_link,0.6383315920829773,0.21623219549655914,0.2673683166503906,0.0,0.0,0.0,0.0,0.0,0.0,0.0,0.0,0.0
1700026238.0815547,26860,1700026238,63513344,gx5_link,0.6382530927658081,0.21632014214992523,0.2672569751739502,0.0,0.0,0.0,0.0,0.0,0.0,0.0,0.0,0.0
1700026238.0937076,26861,1700026238,73532416,gx5_link,0.6381626725196838,0.21609815955162048,0.26841068267822266,0.0,0.0,0.0,0.0,0.0,0.0,0.0,0.0,0.0
1700026238.0997512,26862,1700026238,83546880,gx5_link,0.6381101012229919,0.21594583988189697,0.2691737711429596,0.0,0.0,0.0,0.0,0.0,0.0,0.0,0.0,0.0
1700026238.1115642,26863,1700026238,93563392,gx5_link,0.6378564238548279,0.21578764915466309,0.26896193623542786,0.0,0.0,0.0,0.0,0.0,0.0,0.0,0.0,0.0
1700026238.1181772,26864,1700026238,103576576,gx5_link,0.6376288533210754,0.2156723141670227,0.26859262585639954,0.0,0.0,0.0,0.0,0.0,0.0,0.0,0.0,0.0
1700026238.1390293,26865,1700026238,113591552,gx5_link,0.6379770040512085,0.2157008945941925,0.2686554491519928,0.0,0.0,0.0,0.0,0.0,0.0,0.0,0.0,0.0
1700026238.1413338,26866,1700026238,123608576,gx5_link,0.638623833656311,0.21580275893211365,0.26893776655197144,0.0,0.0,0.0,0.0,0.0,0.0,0.0,0.0,0.0
1700026238.1467218,26867,1700026238,133620736,gx5_link,0.6387248039245605,0.21584150195121765,0.2694074809551239,0.0,0.0,0.0,0.0,0.0,0.0,0.0,0.0,0.0
1700026238.1594288,26868,1700026238,143634688,gx5_link,0.6381796002388,0.215830996632576,0.2705729007720947,0.0,0.0,0.0,0.0,0.0,0.0,0.0,0.0,0.0
1700026238.1712325,26869,1700026238,153650944,gx5_link,0.6379168033599854,0.21582594513893127,0.2711348235607147,0.0,0.0,0.0,0.0,0.0,0.0,0.0,0.0,0.0
1700026238.1843908,26870,1700026238,163670272,gx5_link,0.6376523375511169,0.2160162627696991,0.27119314670562744,0.0,0.0,0.0,0.0,0.0,0.0,0.0,0.0,0.0
1700026238.1942096,26871,1700026238,173685248,gx5_link,0.6375248432159424,0.2161080241203308,0.2712212800979614,0.0,0.0,0.0,0.0,0.0,0.0,0.0,0.0,0.0
1700026238.2023354,26872,1700026238,183702784,gx5_link,0.6380386352539062,0.2160329520702362,0.27165696024894714,0.0,0.0,0.0,0.0,0.0,0.0,0.0,0.0,0.0
1700026238.2076797,26873,1700026238,193716224,gx5_link,0.6383849382400513,0.21597632765769958,0.27193933725357056,0.0,0.0,0.0,0.0,0.0,0.0,0.0,0.0,0.0
1700026238.220249,26874,1700026238,203731456,gx5_link,0.6385043859481812,0.21603688597679138,0.27202683687210083,0.0,0.0,0.0,0.0,0.0,0.0,0.0,0.0,0.0
1700026238.2322872,26875,1700026238,213748480,gx5_link,0.6385400891304016,0.2161065638065338,0.27204659581184387,0.0,0.0,0.0,0.0,0.0,0.0,0.0,0.0,0.0
1700026238.2389755,26876,1700026238,223762176,gx5_link,0.6385288834571838,0.21589256823062897,0.2721261978149414,0.0,0.0,0.0,0.0,0.0,0.0,0.0,0.0,0.0
1700026238.2562208,26877,1700026238,233776896,gx5_link,0.6384936571121216,0.2155303806066513,0.2722378671169281,0.0,0.0,0.0,0.0,0.0,0.0,0.0,0.0,0.0
1700026238.2607353,26878,1700026238,243793152,gx5_link,0.6386004686355591,0.21531930565834045,0.27221766114234924,0.0,0.0,0.0,0.0,0.0,0.0,0.0,0.0,0.0
1700026238.2728686,26879,1700026238,253811200,gx5_link,0.6390005350112915,0.21511496603488922,0.2719994783401489,0.0,0.0,0.0,0.0,0.0,0.0,0.0,0.0,0.0
1700026238.2799408,26880,1700026238,263825920,gx5_link,0.6391934156417847,0.2150164395570755,0.27189430594444275,0.0,0.0,0.0,0.0,0.0,0.0,0.0,0.0,0.0
1700026238.292006,26881,1700026238,273842432,gx5_link,0.6389439702033997,0.21535731852054596,0.27170106768608093,0.0,0.0,0.0,0.0,0.0,0.0,0.0,0.0,0.0
1700026238.297238,26882,1700026238,283854592,gx5_link,0.6388236880302429,0.2155216634273529,0.271607905626297,0.0,0.0,0.0,0.0,0.0,0.0,0.0,0.0,0.0
1700026238.3170044,26883,1700026238,293869056,gx5_link,0.6387694478034973,0.21538344025611877,0.2715035080909729,0.0,0.0,0.0,0.0,0.0,0.0,0.0,0.0,0.0
1700026238.321695,26884,1700026238,303886080,gx5_link,0.6387439966201782,0.21527953445911407,0.2714430093765259,0.0,0.0,0.0,0.0,0.0,0.0,0.0,0.0,0.0
1700026238.3271105,26885,1700026238,313898496,gx5_link,0.639100968837738,0.21513652801513672,0.27189743518829346,0.0,0.0,0.0,0.0,0.0,0.0,0.0,0.0,0.0
1700026238.3409164,26886,1700026238,323913984,gx5_link,0.6394432783126831,0.21502473950386047,0.27233943343162537,0.0,0.0,0.0,0.0,0.0,0.0,0.0,0.0,0.0
1700026238.351722,26887,1700026238,333930496,gx5_link,0.6396077871322632,0.2150019407272339,0.2725524306297302,0.0,0.0,0.0,0.0,0.0,0.0,0.0,0.0,0.0
1700026238.372326,26888,1700026238,343948800,gx5_link,0.6396865248680115,0.2150234580039978,0.2726549804210663,0.0,0.0,0.0,0.0,0.0,0.0,0.0,0.0,0.0
1700026238.3744512,26889,1700026238,354962688,gx5_link,0.6392655968666077,0.21501298248767853,0.27270495891571045,0.0,0.0,0.0,0.0,0.0,0.0,0.0,0.0,0.0
1700026238.3832428,26890,1700026238,364978432,gx5_link,0.6385824680328369,0.21498610079288483,0.2727296054363251,0.0,0.0,0.0,0.0,0.0,0.0,0.0,0.0,0.0
1700026238.3939574,26891,1700026238,374996224,gx5_link,0.638642430305481,0.2148480862379074,0.2727971374988556,0.0,0.0,0.0,0.0,0.0,0.0,0.0,0.0,0.0
1700026238.4036703,26892,1700026238,385009408,gx5_link,0.6397672295570374,0.2144295871257782,0.27298644185066223,0.0,0.0,0.0,0.0,0.0,0.0,0.0,0.0,0.0
1700026238.4136665,26893,1700026238,395024384,gx5_link,0.6403095722198486,0.2142278105020523,0.27307772636413574,0.0,0.0,0.0,0.0,0.0,0.0,0.0,0.0,0.0
1700026238.4237297,26894,1700026238,405040896,gx5_link,0.6386179327964783,0.2144918143749237,0.2731221616268158,0.0,0.0,0.0,0.0,0.0,0.0,0.0,0.0,0.0
1700026238.4395876,26895,1700026238,415054848,gx5_link,0.6378023028373718,0.21461910009384155,0.27314361929893494,0.0,0.0,0.0,0.0,0.0,0.0,0.0,0.0,0.0
1700026238.4432106,26896,1700026238,425070080,gx5_link,0.6363252997398376,0.21437834203243256,0.27303552627563477,0.0,0.0,0.0,0.0,0.0,0.0,0.0,0.0,0.0
1700026238.460049,26897,1700026238,435093504,gx5_link,0.6354275345802307,0.21421051025390625,0.27296313643455505,0.0,0.0,0.0,0.0,0.0,0.0,0.0,0.0,0.0
1700026238.4636967,26898,1700026238,441111808,gx5_link,0.637386679649353,0.21399052441120148,0.27316829562187195,0.0,0.0,0.0,0.0,0.0,0.0,0.0,0.0,0.0
1700026238.4738474,26899,1700026238,451131648,gx5_link,0.639433741569519,0.21382036805152893,0.27337783575057983,0.0,0.0,0.0,0.0,0.0,0.0,0.0,0.0,0.0
1700026238.4842236,26900,1700026238,461153280,gx5_link,0.6380553841590881,0.21391387283802032,0.2732042372226715,0.0,0.0,0.0,0.0,0.0,0.0,0.0,0.0,0.0
1700026238.4953964,26901,1700026238,471171584,gx5_link,0.634916365146637,0.21414262056350708,0.2728331685066223,0.0,0.0,0.0,0.0,0.0,0.0,0.0,0.0,0.0
1700026238.5032113,26902,1700026238,481190400,gx5_link,0.633209764957428,0.21422448754310608,0.2727842330932617,0.0,0.0,0.0,0.0,0.0,0.0,0.0,0.0,0.0
1700026238.5137985,26903,1700026238,491211264,gx5_link,0.6318435668945312,0.2141840010881424,0.27312636375427246,0.0,0.0,0.0,0.0,0.0,0.0,0.0,0.0,0.0
1700026238.523691,26904,1700026238,501228800,gx5_link,0.6311848163604736,0.21416445076465607,0.27329128980636597,0.0,0.0,0.0,0.0,0.0,0.0,0.0,0.0,0.0
1700026238.5337446,26905,1700026238,511248384,gx5_link,0.6365084052085876,0.2140292376279831,0.2732953131198883,0.0,0.0,0.0,0.0,0.0,0.0,0.0,0.0,0.0
1700026238.5602984,26906,1700026238,521275904,gx5_link,0.6390751600265503,0.21396404504776,0.2732972800731659,0.0,0.0,0.0,0.0,0.0,0.0,0.0,0.0,0.0
1700026238.5603302,26907,1700026238,531294208,gx5_link,0.6354994177818298,0.21387596428394318,0.27312207221984863,0.0,0.0,0.0,0.0,0.0,0.0,0.0,0.0,0.0
1700026238.5613084,26908,1700026238,541312768,gx5_link,0.6329507827758789,0.2138238102197647,0.27300742268562317,0.0,0.0,0.0,0.0,0.0,0.0,0.0,0.0,0.0
1700026238.5733125,26909,1700026238,551333376,gx5_link,0.6315395832061768,0.21371638774871826,0.2730977535247803,0.0,0.0,0.0,0.0,0.0,0.0,0.0,0.0,0.0
1700026238.5798576,26910,1700026238,561350400,gx5_link,0.6307751536369324,0.2136266678571701,0.2732083797454834,0.0,0.0,0.0,0.0,0.0,0.0,0.0,0.0,0.0
1700026238.5917208,26911,1700026238,571369728,gx5_link,0.6333932876586914,0.21351781487464905,0.2734317481517792,0.0,0.0,0.0,0.0,0.0,0.0,0.0,0.0,0.0
1700026238.6054764,26912,1700026238,581392128,gx5_link,0.6377802491188049,0.21339671313762665,0.27371731400489807,0.0,0.0,0.0,0.0,0.0,0.0,0.0,0.0,0.0
1700026238.6148334,26913,1700026238,591409152,gx5_link,0.6383461356163025,0.21337197721004486,0.2736896872520447,0.0,0.0,0.0,0.0,0.0,0.0,0.0,0.0,0.0
1700026238.6215053,26914,1700026238,601428224,gx5_link,0.6342583298683167,0.21345476806163788,0.2732110321521759,0.0,0.0,0.0,0.0,0.0,0.0,0.0,0.0,0.0
1700026238.6403732,26915,1700026238,611454720,gx5_link,0.6322873830795288,0.2134946882724762,0.2729802429676056,0.0,0.0,0.0,0.0,0.0,0.0,0.0,0.0,0.0
1700026238.645171,26916,1700026238,621473024,gx5_link,0.6309969425201416,0.21377646923065186,0.2730095386505127,0.0,0.0,0.0,0.0,0.0,0.0,0.0,0.0,0.0
1700026238.6550934,26917,1700026238,631492096,gx5_link,0.6303747296333313,0.21391232311725616,0.2730236351490021,0.0,0.0,0.0,0.0,0.0,0.0,0.0,0.0,0.0
1700026238.6651866,26918,1700026238,641512704,gx5_link,0.6351842284202576,0.21348515152931213,0.27320846915245056,0.0,0.0,0.0,0.0,0.0,0.0,0.0,0.0,0.0
1700026238.672386,26919,1700026238,651529984,gx5_link,0.6383785009384155,0.21319478750228882,0.2733280658721924,0.0,0.0,0.0,0.0,0.0,0.0,0.0,0.0,0.0
