Time,header.seq,header.stamp.secs,header.stamp.nsecs,header.frame_id,child_frame_id,pose.pose.position.x,pose.pose.position.y,pose.pose.position.z,pose.pose.orientation.x,pose.pose.orientation.y,pose.pose.orientation.z,pose.pose.orientation.w,pose.covariance,twist.twist.linear.x,twist.twist.linear.y,twist.twist.linear.z,twist.twist.angular.x,twist.twist.angular.y,twist.twist.angular.z,twist.covariance
1700026234.5974467,26580,1700026234,520496384,sensor_wgs84,,0.0,0.0,0.0,0.6467652916908264,0.23613356053829193,0.2882847487926483,0.6654528379440308,"(0.0, 0.0, 0.0, 0.0, 0.0, 0.0, 0.0, 0.0, 0.0, 0.0, 0.0, 0.0, 0.0, 0.0, 0.0, 0.0, 0.0, 0.0, 0.0, 0.0, 0.0, 2.191447609268152e-06, 0.0, 0.0, 0.0, 0.0, 0.0, 0.0, 2.3303763521023143e-06, 0.0, 0.0, 0.0, 0.0, 0.0, 0.0, 6.121306645649836e-05)",0.0,0.0,0.0,-0.015074493363499641,-0.017024148255586624,0.01890512742102146,"(0.0, 0.0, 0.0, 0.0, 0.0, 0.0, 0.0, 0.0, 0.0, 0.0, 0.0, 0.0, 0.0, 0.0, 0.0, 0.0, 0.0, 0.0, 0.0, 0.0, 0.0, 0.0, 0.0, 0.0, 0.0, 0.0, 0.0, 0.0, 0.0, 0.0, 0.0, 0.0, 0.0, 0.0, 0.0, 0.0)"
1700026234.597557,26581,1700026234,530512384,sensor_wgs84,,0.0,0.0,0.0,0.6467471122741699,0.23597076535224915,0.28829047083854675,0.6655259132385254,"(0.0, 0.0, 0.0, 0.0, 0.0, 0.0, 0.0, 0.0, 0.0, 0.0, 0.0, 0.0, 0.0, 0.0, 0.0, 0.0, 0.0, 0.0, 0.0, 0.0, 0.0, 2.1819253892296797e-06, 0.0, 0.0, 0.0, 0.0, 0.0, 0.0, 2.3181574698348203e-06, 0.0, 0.0, 0.0, 0.0, 0.0, 0.0, 6.114415505942359e-05)",0.0,0.0,0.0,-0.022659825161099434,-0.02128683775663376,0.008487747050821781,"(0.0, 0.0, 0.0, 0.0, 0.0, 0.0, 0.0, 0.0, 0.0, 0.0, 0.0, 0.0, 0.0, 0.0, 0.0, 0.0, 0.0, 0.0, 0.0, 0.0, 0.0, 0.0, 0.0, 0.0, 0.0, 0.0, 0.0, 0.0, 0.0, 0.0, 0.0, 0.0, 0.0, 0.0, 0.0, 0.0)"
1700026234.5976243,26582,1700026234,540524800,sensor_wgs84,,0.0,0.0,0.0,0.6467118263244629,0.2358115315437317,0.28825509548187256,0.665631890296936,"(0.0, 0.0, 0.0, 0.0, 0.0, 0.0, 0.0, 0.0, 0.0, 0.0, 0.0, 0.0, 0.0, 0.0, 0.0, 0.0, 0.0, 0.0, 0.0, 0.0, 0.0, 2.1819253892296797e-06, 0.0, 0.0, 0.0, 0.0, 0.0, 0.0, 2.3181574698348203e-06, 0.0, 0.0, 0.0, 0.0, 0.0, 0.0, 6.114415505942359e-05)",0.0,0.0,0.0,-0.027341607958078384,-0.03348057344555855,0.0066219051368534565,"(0.0, 0.0, 0.0, 0.0, 0.0, 0.0, 0.0, 0.0, 0.0, 0.0, 0.0, 0.0, 0.0, 0.0, 0.0, 0.0, 0.0, 0.0, 0.0, 0.0, 0.0, 0.0, 0.0, 0.0, 0.0, 0.0, 0.0, 0.0, 0.0, 0.0, 0.0, 0.0, 0.0, 0.0, 0.0, 0.0)"
1700026234.5977154,26583,1700026234,550539520,sensor_wgs84,,0.0,0.0,0.0,0.6466650366783142,0.23563243448734283,0.28819480538368225,0.6657668948173523,"(0.0, 0.0, 0.0, 0.0, 0.0, 0.0, 0.0, 0.0, 0.0, 0.0, 0.0, 0.0, 0.0, 0.0, 0.0, 0.0, 0.0, 0.0, 0.0, 0.0, 0.0, 2.1819253892296797e-06, 0.0, 0.0, 0.0, 0.0, 0.0, 0.0, 2.3181574698348203e-06, 0.0, 0.0, 0.0, 0.0, 0.0, 0.0, 6.114415505942359e-05)",0.0,0.0,0.0,-0.0313844196498394,-0.0382697731256485,0.005891457665711641,"(0.0, 0.0, 0.0, 0.0, 0.0, 0.0, 0.0, 0.0, 0.0, 0.0, 0.0, 0.0, 0.0, 0.0, 0.0, 0.0, 0.0, 0.0, 0.0, 0.0, 0.0, 0.0, 0.0, 0.0, 0.0, 0.0, 0.0, 0.0, 0.0, 0.0, 0.0, 0.0, 0.0, 0.0, 0.0, 0.0)"
1700026234.5978575,26584,1700026234,560555776,sensor_wgs84,,0.0,0.0,0.0,0.6466132402420044,0.2354564219713211,0.28812795877456665,0.6659083962440491,"(0.0, 0.0, 0.0, 0.0, 0.0, 0.0, 0.0, 0.0, 0.0, 0.0, 0.0, 0.0, 0.0, 0.0, 0.0, 0.0, 0.0, 0.0, 0.0, 0.0, 0.0, 2.1819253892296797e-06, 0.0, 0.0, 0.0, 0.0, 0.0, 0.0, 2.3181574698348203e-06, 0.0, 0.0, 0.0, 0.0, 0.0, 0.0, 6.114415505942359e-05)",0.0,0.0,0.0,-0.03198546543717384,-0.035022929310798645,0.004541883245110512,"(0.0, 0.0, 0.0, 0.0, 0.0, 0.0, 0.0, 0.0, 0.0, 0.0, 0.0, 0.0, 0.0, 0.0, 0.0, 0.0, 0.0, 0.0, 0.0, 0.0, 0.0, 0.0, 0.0, 0.0, 0.0, 0.0, 0.0, 0.0, 0.0, 0.0, 0.0, 0.0, 0.0, 0.0, 0.0, 0.0)"
1700026234.597922,26585,1700026234,570567680,sensor_wgs84,,0.0,0.0,0.0,0.6465614438056946,0.23529116809368134,0.2880755364894867,0.666039764881134,"(0.0, 0.0, 0.0, 0.0, 0.0, 0.0, 0.0, 0.0, 0.0, 0.0, 0.0, 0.0, 0.0, 0.0, 0.0, 0.0, 0.0, 0.0, 0.0, 0.0, 0.0, 2.1819253892296797e-06, 0.0, 0.0, 0.0, 0.0, 0.0, 0.0, 2.3181574698348203e-06, 0.0, 0.0, 0.0, 0.0, 0.0, 0.0, 6.114415505942359e-05)",0.0,0.0,0.0,-0.028600702062249184,-0.02598448470234871,0.00225160107947886,"(0.0, 0.0, 0.0, 0.0, 0.0, 0.0, 0.0, 0.0, 0.0, 0.0, 0.0, 0.0, 0.0, 0.0, 0.0, 0.0, 0.0, 0.0, 0.0, 0.0, 0.0, 0.0, 0.0, 0.0, 0.0, 0.0, 0.0, 0.0, 0.0, 0.0, 0.0, 0.0, 0.0, 0.0, 0.0, 0.0)"
1700026234.5980089,26586,1700026234,580581120,sensor_wgs84,,0.0,0.0,0.0,0.6465182900428772,0.2351328730583191,0.288064569234848,0.6661422848701477,"(0.0, 0.0, 0.0, 0.0, 0.0, 0.0, 0.0, 0.0, 0.0, 0.0, 0.0, 0.0, 0.0, 0.0, 0.0, 0.0, 0.0, 0.0, 0.0, 0.0, 0.0, 2.1819253892296797e-06, 0.0, 0.0, 0.0, 0.0, 0.0, 0.0, 2.3181574698348203e-06, 0.0, 0.0, 0.0, 0.0, 0.0, 0.0, 6.114415505942359e-05)",0.0,0.0,0.0,-0.02734377048909664,-0.021404484286904335,0.01338837668299675,"(0.0, 0.0, 0.0, 0.0, 0.0, 0.0, 0.0, 0.0, 0.0, 0.0, 0.0, 0.0, 0.0, 0.0, 0.0, 0.0, 0.0, 0.0, 0.0, 0.0, 0.0, 0.0, 0.0, 0.0, 0.0, 0.0, 0.0, 0.0, 0.0, 0.0, 0.0, 0.0, 0.0, 0.0, 0.0, 0.0)"
1700026234.6087666,26587,1700026234,590597888,sensor_wgs84,,0.0,0.0,0.0,0.646571159362793,0.23467116057872772,0.28774863481521606,0.6663902401924133,"(0.0, 0.0, 0.0, 0.0, 0.0, 0.0, 0.0, 0.0, 0.0, 0.0, 0.0, 0.0, 0.0, 0.0, 0.0, 0.0, 0.0, 0.0, 0.0, 0.0, 0.0, 2.1819253892296797e-06, 0.0, 0.0, 0.0, 0.0, 0.0, 0.0, 2.3181574698348203e-06, 0.0, 0.0, 0.0, 0.0, 0.0, 0.0, 6.114415505942359e-05)",0.0,0.0,0.0,-0.02784455008804798,-0.016781412065029144,0.017086684703826904,"(0.0, 0.0, 0.0, 0.0, 0.0, 0.0, 0.0, 0.0, 0.0, 0.0, 0.0, 0.0, 0.0, 0.0, 0.0, 0.0, 0.0, 0.0, 0.0, 0.0, 0.0, 0.0, 0.0, 0.0, 0.0, 0.0, 0.0, 0.0, 0.0, 0.0, 0.0, 0.0, 0.0, 0.0, 0.0, 0.0)"
1700026234.6153805,26588,1700026234,600611072,sensor_wgs84,,0.0,0.0,0.0,0.646508514881134,0.2345227301120758,0.2878178358078003,0.666473388671875,"(0.0, 0.0, 0.0, 0.0, 0.0, 0.0, 0.0, 0.0, 0.0, 0.0, 0.0, 0.0, 0.0, 0.0, 0.0, 0.0, 0.0, 0.0, 0.0, 0.0, 0.0, 2.1819253892296797e-06, 0.0, 0.0, 0.0, 0.0, 0.0, 0.0, 2.3181574698348203e-06, 0.0, 0.0, 0.0, 0.0, 0.0, 0.0, 6.114415505942359e-05)",0.0,0.0,0.0,-0.030103642493486404,-0.005277993157505989,0.022811535745859146,"(0.0, 0.0, 0.0, 0.0, 0.0, 0.0, 0.0, 0.0, 0.0, 0.0, 0.0, 0.0, 0.0, 0.0, 0.0, 0.0, 0.0, 0.0, 0.0, 0.0, 0.0, 0.0, 0.0, 0.0, 0.0, 0.0, 0.0, 0.0, 0.0, 0.0, 0.0, 0.0, 0.0, 0.0, 0.0, 0.0)"
1700026234.6259642,26589,1700026234,610625024,sensor_wgs84,,0.0,0.0,0.0,0.6464529633522034,0.23439522087574005,0.2879360318183899,0.6665211319923401,"(0.0, 0.0, 0.0, 0.0, 0.0, 0.0, 0.0, 0.0, 0.0, 0.0, 0.0, 0.0, 0.0, 0.0, 0.0, 0.0, 0.0, 0.0, 0.0, 0.0, 0.0, 2.1819253892296797e-06, 0.0, 0.0, 0.0, 0.0, 0.0, 0.0, 2.3181574698348203e-06, 0.0, 0.0, 0.0, 0.0, 0.0, 0.0, 6.114415505942359e-05)",0.0,0.0,0.0,-0.022391224279999733,0.0030940664000809193,0.03206626698374748,"(0.0, 0.0, 0.0, 0.0, 0.0, 0.0, 0.0, 0.0, 0.0, 0.0, 0.0, 0.0, 0.0, 0.0, 0.0, 0.0, 0.0, 0.0, 0.0, 0.0, 0.0, 0.0, 0.0, 0.0, 0.0, 0.0, 0.0, 0.0, 0.0, 0.0, 0.0, 0.0, 0.0, 0.0, 0.0, 0.0)"
1700026234.6377587,26590,1700026234,620640512,sensor_wgs84,,0.0,0.0,0.0,0.6464293003082275,0.23424115777015686,0.28810152411460876,0.666526734828949,"(0.0, 0.0, 0.0, 0.0, 0.0, 0.0, 0.0, 0.0, 0.0, 0.0, 0.0, 0.0, 0.0, 0.0, 0.0, 0.0, 0.0, 0.0, 0.0, 0.0, 0.0, 2.1819253892296797e-06, 0.0, 0.0, 0.0, 0.0, 0.0, 0.0, 2.3181574698348203e-06, 0.0, 0.0, 0.0, 0.0, 0.0, 0.0, 6.114415505942359e-05)",0.0,0.0,0.0,-0.013311443850398064,0.003158604260534048,0.05061613395810127,"(0.0, 0.0, 0.0, 0.0, 0.0, 0.0, 0.0, 0.0, 0.0, 0.0, 0.0, 0.0, 0.0, 0.0, 0.0, 0.0, 0.0, 0.0, 0.0, 0.0, 0.0, 0.0, 0.0, 0.0, 0.0, 0.0, 0.0, 0.0, 0.0, 0.0, 0.0, 0.0, 0.0, 0.0, 0.0, 0.0)"
1700026234.6456761,26591,1700026234,630652928,sensor_wgs84,,0.0,0.0,0.0,0.6464629769325256,0.23406201601028442,0.28830966353416443,0.6664669513702393,"(0.0, 0.0, 0.0, 0.0, 0.0, 0.0, 0.0, 0.0, 0.0, 0.0, 0.0, 0.0, 0.0, 0.0, 0.0, 0.0, 0.0, 0.0, 0.0, 0.0, 0.0, 2.1819253892296797e-06, 0.0, 0.0, 0.0, 0.0, 0.0, 0.0, 2.3181574698348203e-06, 0.0, 0.0, 0.0, 0.0, 0.0, 0.0, 6.114415505942359e-05)",0.0,0.0,0.0,0.0020376895554363728,0.0077961767092347145,0.06455297023057938,"(0.0, 0.0, 0.0, 0.0, 0.0, 0.0, 0.0, 0.0, 0.0, 0.0, 0.0, 0.0, 0.0, 0.0, 0.0, 0.0, 0.0, 0.0, 0.0, 0.0, 0.0, 0.0, 0.0, 0.0, 0.0, 0.0, 0.0, 0.0, 0.0, 0.0, 0.0, 0.0, 0.0, 0.0, 0.0, 0.0)"
1700026234.6563818,26592,1700026234,640667136,sensor_wgs84,,0.0,0.0,0.0,0.6465638279914856,0.23384541273117065,0.28853750228881836,0.6663466095924377,"(0.0, 0.0, 0.0, 0.0, 0.0, 0.0, 0.0, 0.0, 0.0, 0.0, 0.0, 0.0, 0.0, 0.0, 0.0, 0.0, 0.0, 0.0, 0.0, 0.0, 0.0, 2.1819253892296797e-06, 0.0, 0.0, 0.0, 0.0, 0.0, 0.0, 2.3181574698348203e-06, 0.0, 0.0, 0.0, 0.0, 0.0, 0.0, 6.114415505942359e-05)",0.0,0.0,0.0,0.008949129842221737,0.0007147624855861068,0.06966786086559296,"(0.0, 0.0, 0.0, 0.0, 0.0, 0.0, 0.0, 0.0, 0.0, 0.0, 0.0, 0.0, 0.0, 0.0, 0.0, 0.0, 0.0, 0.0, 0.0, 0.0, 0.0, 0.0, 0.0, 0.0, 0.0, 0.0, 0.0, 0.0, 0.0, 0.0, 0.0, 0.0, 0.0, 0.0, 0.0, 0.0)"
1700026234.6695218,26593,1700026234,650684160,sensor_wgs84,,0.0,0.0,0.0,0.6466739177703857,0.23365925252437592,0.28873348236083984,0.6662200689315796,"(0.0, 0.0, 0.0, 0.0, 0.0, 0.0, 0.0, 0.0, 0.0, 0.0, 0.0, 0.0, 0.0, 0.0, 0.0, 0.0, 0.0, 0.0, 0.0, 0.0, 0.0, 2.1819253892296797e-06, 0.0, 0.0, 0.0, 0.0, 0.0, 0.0, 2.3181574698348203e-06, 0.0, 0.0, 0.0, 0.0, 0.0, 0.0, 6.114415505942359e-05)",0.0,0.0,0.0,0.014100175350904465,-0.001835489645600319,0.05426877364516258,"(0.0, 0.0, 0.0, 0.0, 0.0, 0.0, 0.0, 0.0, 0.0, 0.0, 0.0, 0.0, 0.0, 0.0, 0.0, 0.0, 0.0, 0.0, 0.0, 0.0, 0.0, 0.0, 0.0, 0.0, 0.0, 0.0, 0.0, 0.0, 0.0, 0.0, 0.0, 0.0, 0.0, 0.0, 0.0, 0.0)"
1700026234.6803544,26594,1700026234,660701952,sensor_wgs84,,0.0,0.0,0.0,0.6467799544334412,0.23350708186626434,0.2888713777065277,0.6661106944084167,"(0.0, 0.0, 0.0, 0.0, 0.0, 0.0, 0.0, 0.0, 0.0, 0.0, 0.0, 0.0, 0.0, 0.0, 0.0, 0.0, 0.0, 0.0, 0.0, 0.0, 0.0, 2.1819253892296797e-06, 0.0, 0.0, 0.0, 0.0, 0.0, 0.0, 2.3181574698348203e-06, 0.0, 0.0, 0.0, 0.0, 0.0, 0.0, 6.114415505942359e-05)",0.0,0.0,0.0,0.011368438601493835,-0.003932880237698555,0.04386153444647789,"(0.0, 0.0, 0.0, 0.0, 0.0, 0.0, 0.0, 0.0, 0.0, 0.0, 0.0, 0.0, 0.0, 0.0, 0.0, 0.0, 0.0, 0.0, 0.0, 0.0, 0.0, 0.0, 0.0, 0.0, 0.0, 0.0, 0.0, 0.0, 0.0, 0.0, 0.0, 0.0, 0.0, 0.0, 0.0, 0.0)"
1700026234.6900504,26595,1700026234,670716416,sensor_wgs84,,0.0,0.0,0.0,0.6468729376792908,0.23338279128074646,0.28898125886917114,0.6660163998603821,"(0.0, 0.0, 0.0, 0.0, 0.0, 0.0, 0.0, 0.0, 0.0, 0.0, 0.0, 0.0, 0.0, 0.0, 0.0, 0.0, 0.0, 0.0, 0.0, 0.0, 0.0, 2.1819253892296797e-06, 0.0, 0.0, 0.0, 0.0, 0.0, 0.0, 2.3181574698348203e-06, 0.0, 0.0, 0.0, 0.0, 0.0, 0.0, 6.114415505942359e-05)",0.0,0.0,0.0,0.01525126863270998,-0.004072170704603195,0.0401017889380455,"(0.0, 0.0, 0.0, 0.0, 0.0, 0.0, 0.0, 0.0, 0.0, 0.0, 0.0, 0.0, 0.0, 0.0, 0.0, 0.0, 0.0, 0.0, 0.0, 0.0, 0.0, 0.0, 0.0, 0.0, 0.0, 0.0, 0.0, 0.0, 0.0, 0.0, 0.0, 0.0, 0.0, 0.0, 0.0, 0.0)"
1700026234.7000196,26596,1700026234,680732416,sensor_wgs84,,0.0,0.0,0.0,0.6469708681106567,0.2332569807767868,0.28906330466270447,0.6659297347068787,"(0.0, 0.0, 0.0, 0.0, 0.0, 0.0, 0.0, 0.0, 0.0, 0.0, 0.0, 0.0, 0.0, 0.0, 0.0, 0.0, 0.0, 0.0, 0.0, 0.0, 0.0, 2.1819253892296797e-06, 0.0, 0.0, 0.0, 0.0, 0.0, 0.0, 2.3181574698348203e-06, 0.0, 0.0, 0.0, 0.0, 0.0, 0.0, 6.114415505942359e-05)",0.0,0.0,0.0,0.012861443683505058,-0.01451264601200819,0.032013922929763794,"(0.0, 0.0, 0.0, 0.0, 0.0, 0.0, 0.0, 0.0, 0.0, 0.0, 0.0, 0.0, 0.0, 0.0, 0.0, 0.0, 0.0, 0.0, 0.0, 0.0, 0.0, 0.0, 0.0, 0.0, 0.0, 0.0, 0.0, 0.0, 0.0, 0.0, 0.0, 0.0, 0.0, 0.0, 0.0, 0.0)"
1700026234.7102947,26597,1700026234,690750464,sensor_wgs84,,0.0,0.0,0.0,0.6470966339111328,0.23314334452152252,0.289092093706131,0.6658347845077515,"(0.0, 0.0, 0.0, 0.0, 0.0, 0.0, 0.0, 0.0, 0.0, 0.0, 0.0, 0.0, 0.0, 0.0, 0.0, 0.0, 0.0, 0.0, 0.0, 0.0, 0.0, 2.1819253892296797e-06, 0.0, 0.0, 0.0, 0.0, 0.0, 0.0, 2.3181574698348203e-06, 0.0, 0.0, 0.0, 0.0, 0.0, 0.0, 6.114415505942359e-05)",0.0,0.0,0.0,0.025104587897658348,-0.01993216760456562,0.03500382602214813,"(0.0, 0.0, 0.0, 0.0, 0.0, 0.0, 0.0, 0.0, 0.0, 0.0, 0.0, 0.0, 0.0, 0.0, 0.0, 0.0, 0.0, 0.0, 0.0, 0.0, 0.0, 0.0, 0.0, 0.0, 0.0, 0.0, 0.0, 0.0, 0.0, 0.0, 0.0, 0.0, 0.0, 0.0, 0.0, 0.0)"
1700026234.715727,26598,1700026234,700763648,sensor_wgs84,,0.0,0.0,0.0,0.6472769975662231,0.23302222788333893,0.28909388184547424,0.6657010912895203,"(0.0, 0.0, 0.0, 0.0, 0.0, 0.0, 0.0, 0.0, 0.0, 0.0, 0.0, 0.0, 0.0, 0.0, 0.0, 0.0, 0.0, 0.0, 0.0, 0.0, 0.0, 2.1819253892296797e-06, 0.0, 0.0, 0.0, 0.0, 0.0, 0.0, 2.3181574698348203e-06, 0.0, 0.0, 0.0, 0.0, 0.0, 0.0, 6.114415505942359e-05)",0.0,0.0,0.0,0.038709405809640884,-0.022244853898882866,0.031041258946061134,"(0.0, 0.0, 0.0, 0.0, 0.0, 0.0, 0.0, 0.0, 0.0, 0.0, 0.0, 0.0, 0.0, 0.0, 0.0, 0.0, 0.0, 0.0, 0.0, 0.0, 0.0, 0.0, 0.0, 0.0, 0.0, 0.0, 0.0, 0.0, 0.0, 0.0, 0.0, 0.0, 0.0, 0.0, 0.0, 0.0)"
1700026234.7276251,26599,1700026234,710778880,sensor_wgs84,,0.0,0.0,0.0,0.64750075340271,0.23289822041988373,0.2890603542327881,0.6655413508415222,"(0.0, 0.0, 0.0, 0.0, 0.0, 0.0, 0.0, 0.0, 0.0, 0.0, 0.0, 0.0, 0.0, 0.0, 0.0, 0.0, 0.0, 0.0, 0.0, 0.0, 0.0, 2.1819253892296797e-06, 0.0, 0.0, 0.0, 0.0, 0.0, 0.0, 2.3181574698348203e-06, 0.0, 0.0, 0.0, 0.0, 0.0, 0.0, 6.114415505942359e-05)",0.0,0.0,0.0,0.049445588141679764,-0.030199190601706505,0.0308710765093565,"(0.0, 0.0, 0.0, 0.0, 0.0, 0.0, 0.0, 0.0, 0.0, 0.0, 0.0, 0.0, 0.0, 0.0, 0.0, 0.0, 0.0, 0.0, 0.0, 0.0, 0.0, 0.0, 0.0, 0.0, 0.0, 0.0, 0.0, 0.0, 0.0, 0.0, 0.0, 0.0, 0.0, 0.0, 0.0, 0.0)"
1700026234.7406285,26600,1700026234,720796928,sensor_wgs84,,0.0,0.0,0.0,0.647742509841919,0.2327926903963089,0.28900307416915894,0.6653679609298706,"(0.0, 0.0, 0.0, 0.0, 0.0, 0.0, 0.0, 0.0, 0.0, 0.0, 0.0, 0.0, 0.0, 0.0, 0.0, 0.0, 0.0, 0.0, 0.0, 0.0, 0.0, 2.1819253892296797e-06, 0.0, 0.0, 0.0, 0.0, 0.0, 0.0, 2.3181574698348203e-06, 0.0, 0.0, 0.0, 0.0, 0.0, 0.0, 6.114415505942359e-05)",0.0,0.0,0.0,0.04930664226412773,-0.023466406390070915,0.028960658237338066,"(0.0, 0.0, 0.0, 0.0, 0.0, 0.0, 0.0, 0.0, 0.0, 0.0, 0.0, 0.0, 0.0, 0.0, 0.0, 0.0, 0.0, 0.0, 0.0, 0.0, 0.0, 0.0, 0.0, 0.0, 0.0, 0.0, 0.0, 0.0, 0.0, 0.0, 0.0, 0.0, 0.0, 0.0, 0.0, 0.0)"
1700026234.7474957,26601,1700026234,730812160,sensor_wgs84,,0.0,0.0,0.0,0.6479781270027161,0.23271238803863525,0.288943886756897,0.6651923656463623,"(0.0, 0.0, 0.0, 0.0, 0.0, 0.0, 0.0, 0.0, 0.0, 0.0, 0.0, 0.0, 0.0, 0.0, 0.0, 0.0, 0.0, 0.0, 0.0, 0.0, 0.0, 2.174193316273332e-06, 0.0, 0.0, 0.0, 0.0, 0.0, 0.0, 2.3061075364902797e-06, 0.0, 0.0, 0.0, 0.0, 0.0, 0.0, 6.106761133426244e-05)",0.0,0.0,0.0,0.05127182602882385,-0.020863113924860954,0.02140621468424797,"(0.0, 0.0, 0.0, 0.0, 0.0, 0.0, 0.0, 0.0, 0.0, 0.0, 0.0, 0.0, 0.0, 0.0, 0.0, 0.0, 0.0, 0.0, 0.0, 0.0, 0.0, 0.0, 0.0, 0.0, 0.0, 0.0, 0.0, 0.0, 0.0, 0.0, 0.0, 0.0, 0.0, 0.0, 0.0, 0.0)"
1700026234.7580168,26602,1700026234,740827904,sensor_wgs84,,0.0,0.0,0.0,0.6481935977935791,0.23268245160579681,0.2888910174369812,0.6650158166885376,"(0.0, 0.0, 0.0, 0.0, 0.0, 0.0, 0.0, 0.0, 0.0, 0.0, 0.0, 0.0, 0.0, 0.0, 0.0, 0.0, 0.0, 0.0, 0.0, 0.0, 0.0, 2.174193316273332e-06, 0.0, 0.0, 0.0, 0.0, 0.0, 0.0, 2.3061075364902797e-06, 0.0, 0.0, 0.0, 0.0, 0.0, 0.0, 6.106761133426244e-05)",0.0,0.0,0.0,0.0527670755982399,-0.008397288620471954,0.01032281294465065,"(0.0, 0.0, 0.0, 0.0, 0.0, 0.0, 0.0, 0.0, 0.0, 0.0, 0.0, 0.0, 0.0, 0.0, 0.0, 0.0, 0.0, 0.0, 0.0, 0.0, 0.0, 0.0, 0.0, 0.0, 0.0, 0.0, 0.0, 0.0, 0.0, 0.0, 0.0, 0.0, 0.0, 0.0, 0.0, 0.0)"
1700026234.7788897,26603,1700026234,750846208,sensor_wgs84,,0.0,0.0,0.0,0.6484013199806213,0.2326911836862564,0.2888432741165161,0.6648309230804443,"(0.0, 0.0, 0.0, 0.0, 0.0, 0.0, 0.0, 0.0, 0.0, 0.0, 0.0, 0.0, 0.0, 0.0, 0.0, 0.0, 0.0, 0.0, 0.0, 0.0, 0.0, 2.174193316273332e-06, 0.0, 0.0, 0.0, 0.0, 0.0, 0.0, 2.3061075364902797e-06, 0.0, 0.0, 0.0, 0.0, 0.0, 0.0, 6.106761133426244e-05)",0.0,0.0,0.0,0.055736467242240906,-0.006884243339300156,0.014277953654527664,"(0.0, 0.0, 0.0, 0.0, 0.0, 0.0, 0.0, 0.0, 0.0, 0.0, 0.0, 0.0, 0.0, 0.0, 0.0, 0.0, 0.0, 0.0, 0.0, 0.0, 0.0, 0.0, 0.0, 0.0, 0.0, 0.0, 0.0, 0.0, 0.0, 0.0, 0.0, 0.0, 0.0, 0.0, 0.0, 0.0)"
1700026234.7789488,26604,1700026234,760860160,sensor_wgs84,,0.0,0.0,0.0,0.6485990285873413,0.2327132374048233,0.2887836694717407,0.6646561622619629,"(0.0, 0.0, 0.0, 0.0, 0.0, 0.0, 0.0, 0.0, 0.0, 0.0, 0.0, 0.0, 0.0, 0.0, 0.0, 0.0, 0.0, 0.0, 0.0, 0.0, 0.0, 2.174193316273332e-06, 0.0, 0.0, 0.0, 0.0, 0.0, 0.0, 2.3061075364902797e-06, 0.0, 0.0, 0.0, 0.0, 0.0, 0.0, 6.106761133426244e-05)",0.0,0.0,0.0,0.05298786610364914,-0.00959943886846304,0.007400618400424719,"(0.0, 0.0, 0.0, 0.0, 0.0, 0.0, 0.0, 0.0, 0.0, 0.0, 0.0, 0.0, 0.0, 0.0, 0.0, 0.0, 0.0, 0.0, 0.0, 0.0, 0.0, 0.0, 0.0, 0.0, 0.0, 0.0, 0.0, 0.0, 0.0, 0.0, 0.0, 0.0, 0.0, 0.0, 0.0, 0.0)"
1700026234.7885373,26605,1700026234,770875904,sensor_wgs84,,0.0,0.0,0.0,0.6487702131271362,0.2327686846256256,0.28871452808380127,0.6644997596740723,"(0.0, 0.0, 0.0, 0.0, 0.0, 0.0, 0.0, 0.0, 0.0, 0.0, 0.0, 0.0, 0.0, 0.0, 0.0, 0.0, 0.0, 0.0, 0.0, 0.0, 0.0, 2.174193316273332e-06, 0.0, 0.0, 0.0, 0.0, 0.0, 0.0, 2.3061075364902797e-06, 0.0, 0.0, 0.0, 0.0, 0.0, 0.0, 6.106761133426244e-05)",0.0,0.0,0.0,0.05192245543003082,-0.004394806455820799,-0.00699989590793848,"(0.0, 0.0, 0.0, 0.0, 0.0, 0.0, 0.0, 0.0, 0.0, 0.0, 0.0, 0.0, 0.0, 0.0, 0.0, 0.0, 0.0, 0.0, 0.0, 0.0, 0.0, 0.0, 0.0, 0.0, 0.0, 0.0, 0.0, 0.0, 0.0, 0.0, 0.0, 0.0, 0.0, 0.0, 0.0, 0.0)"
1700026234.8014526,26606,1700026234,780894720,sensor_wgs84,,0.0,0.0,0.0,0.6489027142524719,0.23288241028785706,0.28861290216445923,0.6643746495246887,"(0.0, 0.0, 0.0, 0.0, 0.0, 0.0, 0.0, 0.0, 0.0, 0.0, 0.0, 0.0, 0.0, 0.0, 0.0, 0.0, 0.0, 0.0, 0.0, 0.0, 0.0, 2.174193316273332e-06, 0.0, 0.0, 0.0, 0.0, 0.0, 0.0, 2.3061075364902797e-06, 0.0, 0.0, 0.0, 0.0, 0.0, 0.0, 6.106761133426244e-05)",0.0,0.0,0.0,0.037431277334690094,0.005693424958735704,-0.025974128395318985,"(0.0, 0.0, 0.0, 0.0, 0.0, 0.0, 0.0, 0.0, 0.0, 0.0, 0.0, 0.0, 0.0, 0.0, 0.0, 0.0, 0.0, 0.0, 0.0, 0.0, 0.0, 0.0, 0.0, 0.0, 0.0, 0.0, 0.0, 0.0, 0.0, 0.0, 0.0, 0.0, 0.0, 0.0, 0.0, 0.0)"
1700026234.805557,26607,1700026234,790907648,sensor_wgs84,,0.0,0.0,0.0,0.6489626169204712,0.23304586112499237,0.2884715795516968,0.664320170879364,"(0.0, 0.0, 0.0, 0.0, 0.0, 0.0, 0.0, 0.0, 0.0, 0.0, 0.0, 0.0, 0.0, 0.0, 0.0, 0.0, 0.0, 0.0, 0.0, 0.0, 0.0, 2.174193316273332e-06, 0.0, 0.0, 0.0, 0.0, 0.0, 0.0, 2.3061075364902797e-06, 0.0, 0.0, 0.0, 0.0, 0.0, 0.0, 6.106761133426244e-05)",0.0,0.0,0.0,0.02185547538101673,-0.0012128310045227408,-0.04595005512237549,"(0.0, 0.0, 0.0, 0.0, 0.0, 0.0, 0.0, 0.0, 0.0, 0.0, 0.0, 0.0, 0.0, 0.0, 0.0, 0.0, 0.0, 0.0, 0.0, 0.0, 0.0, 0.0, 0.0, 0.0, 0.0, 0.0, 0.0, 0.0, 0.0, 0.0, 0.0, 0.0, 0.0, 0.0, 0.0, 0.0)"
1700026234.823888,26608,1700026234,800924416,sensor_wgs84,,0.0,0.0,0.0,0.6489761471748352,0.23320281505584717,0.28829264640808105,0.6643295884132385,"(0.0, 0.0, 0.0, 0.0, 0.0, 0.0, 0.0, 0.0, 0.0, 0.0, 0.0, 0.0, 0.0, 0.0, 0.0, 0.0, 0.0, 0.0, 0.0, 0.0, 0.0, 2.174193316273332e-06, 0.0, 0.0, 0.0, 0.0, 0.0, 0.0, 2.3061075364902797e-06, 0.0, 0.0, 0.0, 0.0, 0.0, 0.0, 6.106761133426244e-05)",0.0,0.0,0.0,0.010675923898816109,-0.008673352189362049,-0.04313605651259422,"(0.0, 0.0, 0.0, 0.0, 0.0, 0.0, 0.0, 0.0, 0.0, 0.0, 0.0, 0.0, 0.0, 0.0, 0.0, 0.0, 0.0, 0.0, 0.0, 0.0, 0.0, 0.0, 0.0, 0.0, 0.0, 0.0, 0.0, 0.0, 0.0, 0.0, 0.0, 0.0, 0.0, 0.0, 0.0, 0.0)"
1700026234.8306334,26609,1700026234,810942464,sensor_wgs84,,0.0,0.0,0.0,0.648963987827301,0.23330354690551758,0.2880968451499939,0.664391040802002,"(0.0, 0.0, 0.0, 0.0, 0.0, 0.0, 0.0, 0.0, 0.0, 0.0, 0.0, 0.0, 0.0, 0.0, 0.0, 0.0, 0.0, 0.0, 0.0, 0.0, 0.0, 2.174193316273332e-06, 0.0, 0.0, 0.0, 0.0, 0.0, 0.0, 2.3061075364902797e-06, 0.0, 0.0, 0.0, 0.0, 0.0, 0.0, 6.106761133426244e-05)",0.0,0.0,0.0,0.006970949005335569,-0.02487678825855255,-0.03972494229674339,"(0.0, 0.0, 0.0, 0.0, 0.0, 0.0, 0.0, 0.0, 0.0, 0.0, 0.0, 0.0, 0.0, 0.0, 0.0, 0.0, 0.0, 0.0, 0.0, 0.0, 0.0, 0.0, 0.0, 0.0, 0.0, 0.0, 0.0, 0.0, 0.0, 0.0, 0.0, 0.0, 0.0, 0.0, 0.0, 0.0)"
1700026234.837141,26610,1700026234,820957184,sensor_wgs84,,0.0,0.0,0.0,0.6489354372024536,0.23332732915878296,0.2878846228122711,0.6645025610923767,"(0.0, 0.0, 0.0, 0.0, 0.0, 0.0, 0.0, 0.0, 0.0, 0.0, 0.0, 0.0, 0.0, 0.0, 0.0, 0.0, 0.0, 0.0, 0.0, 0.0, 0.0, 2.174193316273332e-06, 0.0, 0.0, 0.0, 0.0, 0.0, 0.0, 2.3061075364902797e-06, 0.0, 0.0, 0.0, 0.0, 0.0, 0.0, 6.106761133426244e-05)",0.0,0.0,0.0,-0.011808112263679504,-0.03166108578443527,-0.046231769025325775,"(0.0, 0.0, 0.0, 0.0, 0.0, 0.0, 0.0, 0.0, 0.0, 0.0, 0.0, 0.0, 0.0, 0.0, 0.0, 0.0, 0.0, 0.0, 0.0, 0.0, 0.0, 0.0, 0.0, 0.0, 0.0, 0.0, 0.0, 0.0, 0.0, 0.0, 0.0, 0.0, 0.0, 0.0, 0.0, 0.0)"
1700026234.8478203,26611,1700026234,830972416,sensor_wgs84,,0.0,0.0,0.0,0.648879885673523,0.23335762321949005,0.2876336872577667,0.6646548509597778,"(0.0, 0.0, 0.0, 0.0, 0.0, 0.0, 0.0, 0.0, 0.0, 0.0, 0.0, 0.0, 0.0, 0.0, 0.0, 0.0, 0.0, 0.0, 0.0, 0.0, 0.0, 2.174193316273332e-06, 0.0, 0.0, 0.0, 0.0, 0.0, 0.0, 2.3061075364902797e-06, 0.0, 0.0, 0.0, 0.0, 0.0, 0.0, 6.106761133426244e-05)",0.0,0.0,0.0,-0.019756777212023735,-0.02831326238811016,-0.05430269613862038,"(0.0, 0.0, 0.0, 0.0, 0.0, 0.0, 0.0, 0.0, 0.0, 0.0, 0.0, 0.0, 0.0, 0.0, 0.0, 0.0, 0.0, 0.0, 0.0, 0.0, 0.0, 0.0, 0.0, 0.0, 0.0, 0.0, 0.0, 0.0, 0.0, 0.0, 0.0, 0.0, 0.0, 0.0, 0.0, 0.0)"
1700026234.8596604,26612,1700026234,840989184,sensor_wgs84,,0.0,0.0,0.0,0.6488754749298096,0.23307260870933533,0.28705909848213196,0.6650074124336243,"(0.0, 0.0, 0.0, 0.0, 0.0, 0.0, 0.0, 0.0, 0.0, 0.0, 0.0, 0.0, 0.0, 0.0, 0.0, 0.0, 0.0, 0.0, 0.0, 0.0, 0.0, 2.174193316273332e-06, 0.0, 0.0, 0.0, 0.0, 0.0, 0.0, 2.3061075364902797e-06, 0.0, 0.0, 0.0, 0.0, 0.0, 0.0, 6.106761133426244e-05)",0.0,0.0,0.0,-0.026711255311965942,-0.020820865407586098,-0.0642748475074768,"(0.0, 0.0, 0.0, 0.0, 0.0, 0.0, 0.0, 0.0, 0.0, 0.0, 0.0, 0.0, 0.0, 0.0, 0.0, 0.0, 0.0, 0.0, 0.0, 0.0, 0.0, 0.0, 0.0, 0.0, 0.0, 0.0, 0.0, 0.0, 0.0, 0.0, 0.0, 0.0, 0.0, 0.0, 0.0, 0.0)"
1700026234.872544,26613,1700026234,851002880,sensor_wgs84,,0.0,0.0,0.0,0.6487405896186829,0.2332039326429367,0.2868030369281769,0.6652034521102905,"(0.0, 0.0, 0.0, 0.0, 0.0, 0.0, 0.0, 0.0, 0.0, 0.0, 0.0, 0.0, 0.0, 0.0, 0.0, 0.0, 0.0, 0.0, 0.0, 0.0, 0.0, 2.174193316273332e-06, 0.0, 0.0, 0.0, 0.0, 0.0, 0.0, 2.3061075364902797e-06, 0.0, 0.0, 0.0, 0.0, 0.0, 0.0, 6.106761133426244e-05)",0.0,0.0,0.0,-0.027703050523996353,-0.003360735485330224,-0.07297651469707489,"(0.0, 0.0, 0.0, 0.0, 0.0, 0.0, 0.0, 0.0, 0.0, 0.0, 0.0, 0.0, 0.0, 0.0, 0.0, 0.0, 0.0, 0.0, 0.0, 0.0, 0.0, 0.0, 0.0, 0.0, 0.0, 0.0, 0.0, 0.0, 0.0, 0.0, 0.0, 0.0, 0.0, 0.0, 0.0, 0.0)"
1700026234.8783028,26614,1700026234,861018368,sensor_wgs84,,0.0,0.0,0.0,0.6485748291015625,0.23339137434959412,0.28661784529685974,0.6653792262077332,"(0.0, 0.0, 0.0, 0.0, 0.0, 0.0, 0.0, 0.0, 0.0, 0.0, 0.0, 0.0, 0.0, 0.0, 0.0, 0.0, 0.0, 0.0, 0.0, 0.0, 0.0, 2.174193316273332e-06, 0.0, 0.0, 0.0, 0.0, 0.0, 0.0, 2.3061075364902797e-06, 0.0, 0.0, 0.0, 0.0, 0.0, 0.0, 6.106761133426244e-05)",0.0,0.0,0.0,-0.03106965310871601,0.013570678420364857,-0.06222293898463249,"(0.0, 0.0, 0.0, 0.0, 0.0, 0.0, 0.0, 0.0, 0.0, 0.0, 0.0, 0.0, 0.0, 0.0, 0.0, 0.0, 0.0, 0.0, 0.0, 0.0, 0.0, 0.0, 0.0, 0.0, 0.0, 0.0, 0.0, 0.0, 0.0, 0.0, 0.0, 0.0, 0.0, 0.0, 0.0, 0.0)"
1700026234.8899589,26615,1700026234,871035904,sensor_wgs84,,0.0,0.0,0.0,0.6483716368675232,0.2336009442806244,0.28653115034103394,0.6655409336090088,"(0.0, 0.0, 0.0, 0.0, 0.0, 0.0, 0.0, 0.0, 0.0, 0.0, 0.0, 0.0, 0.0, 0.0, 0.0, 0.0, 0.0, 0.0, 0.0, 0.0, 0.0, 2.174193316273332e-06, 0.0, 0.0, 0.0, 0.0, 0.0, 0.0, 2.3061075364902797e-06, 0.0, 0.0, 0.0, 0.0, 0.0, 0.0, 6.106761133426244e-05)",0.0,0.0,0.0,-0.025678548961877823,0.030067013576626778,-0.04601952061057091,"(0.0, 0.0, 0.0, 0.0, 0.0, 0.0, 0.0, 0.0, 0.0, 0.0, 0.0, 0.0, 0.0, 0.0, 0.0, 0.0, 0.0, 0.0, 0.0, 0.0, 0.0, 0.0, 0.0, 0.0, 0.0, 0.0, 0.0, 0.0, 0.0, 0.0, 0.0, 0.0, 0.0, 0.0, 0.0, 0.0)"
1700026234.8966897,26616,1700026234,881049856,sensor_wgs84,,0.0,0.0,0.0,0.6481795907020569,0.23381392657756805,0.2865714430809021,0.6656359434127808,"(0.0, 0.0, 0.0, 0.0, 0.0, 0.0, 0.0, 0.0, 0.0, 0.0, 0.0, 0.0, 0.0, 0.0, 0.0, 0.0, 0.0, 0.0, 0.0, 0.0, 0.0, 2.174193316273332e-06, 0.0, 0.0, 0.0, 0.0, 0.0, 0.0, 2.3061075364902797e-06, 0.0, 0.0, 0.0, 0.0, 0.0, 0.0, 6.106761133426244e-05)",0.0,0.0,0.0,-0.02836388163268566,0.04402259364724159,-0.02480253204703331,"(0.0, 0.0, 0.0, 0.0, 0.0, 0.0, 0.0, 0.0, 0.0, 0.0, 0.0, 0.0, 0.0, 0.0, 0.0, 0.0, 0.0, 0.0, 0.0, 0.0, 0.0, 0.0, 0.0, 0.0, 0.0, 0.0, 0.0, 0.0, 0.0, 0.0, 0.0, 0.0, 0.0, 0.0, 0.0, 0.0)"
1700026234.9085581,26617,1700026234,891066112,sensor_wgs84,,0.0,0.0,0.0,0.6480236649513245,0.233964741230011,0.28671008348464966,0.6656750440597534,"(0.0, 0.0, 0.0, 0.0, 0.0, 0.0, 0.0, 0.0, 0.0, 0.0, 0.0, 0.0, 0.0, 0.0, 0.0, 0.0, 0.0, 0.0, 0.0, 0.0, 0.0, 2.174193316273332e-06, 0.0, 0.0, 0.0, 0.0, 0.0, 0.0, 2.3061075364902797e-06, 0.0, 0.0, 0.0, 0.0, 0.0, 0.0, 6.106761133426244e-05)",0.0,0.0,0.0,-0.025365816429257393,0.045607682317495346,-0.0025504599325358868,"(0.0, 0.0, 0.0, 0.0, 0.0, 0.0, 0.0, 0.0, 0.0, 0.0, 0.0, 0.0, 0.0, 0.0, 0.0, 0.0, 0.0, 0.0, 0.0, 0.0, 0.0, 0.0, 0.0, 0.0, 0.0, 0.0, 0.0, 0.0, 0.0, 0.0, 0.0, 0.0, 0.0, 0.0, 0.0, 0.0)"
1700026234.921109,26618,1700026234,901083904,sensor_wgs84,,0.0,0.0,0.0,0.6478846669197083,0.2340390980243683,0.2868858277797699,0.6657084822654724,"(0.0, 0.0, 0.0, 0.0, 0.0, 0.0, 0.0, 0.0, 0.0, 0.0, 0.0, 0.0, 0.0, 0.0, 0.0, 0.0, 0.0, 0.0, 0.0, 0.0, 0.0, 2.174193316273332e-06, 0.0, 0.0, 0.0, 0.0, 0.0, 0.0, 2.3061075364902797e-06, 0.0, 0.0, 0.0, 0.0, 0.0, 0.0, 6.106761133426244e-05)",0.0,0.0,0.0,-0.026547502726316452,0.03245764225721359,0.012127420864999294,"(0.0, 0.0, 0.0, 0.0, 0.0, 0.0, 0.0, 0.0, 0.0, 0.0, 0.0, 0.0, 0.0, 0.0, 0.0, 0.0, 0.0, 0.0, 0.0, 0.0, 0.0, 0.0, 0.0, 0.0, 0.0, 0.0, 0.0, 0.0, 0.0, 0.0, 0.0, 0.0, 0.0, 0.0, 0.0, 0.0)"
1700026234.9267411,26619,1700026234,911097600,sensor_wgs84,,0.0,0.0,0.0,0.647767186164856,0.2340160459280014,0.2870519161224365,0.665759265422821,"(0.0, 0.0, 0.0, 0.0, 0.0, 0.0, 0.0, 0.0, 0.0, 0.0, 0.0, 0.0, 0.0, 0.0, 0.0, 0.0, 0.0, 0.0, 0.0, 0.0, 0.0, 2.174193316273332e-06, 0.0, 0.0, 0.0, 0.0, 0.0, 0.0, 2.3061075364902797e-06, 0.0, 0.0, 0.0, 0.0, 0.0, 0.0, 6.106761133426244e-05)",0.0,0.0,0.0,-0.026360170915722847,0.014251305721700191,0.022505994886159897,"(0.0, 0.0, 0.0, 0.0, 0.0, 0.0, 0.0, 0.0, 0.0, 0.0, 0.0, 0.0, 0.0, 0.0, 0.0, 0.0, 0.0, 0.0, 0.0, 0.0, 0.0, 0.0, 0.0, 0.0, 0.0, 0.0, 0.0, 0.0, 0.0, 0.0, 0.0, 0.0, 0.0, 0.0, 0.0, 0.0)"
1700026234.9375038,26620,1700026234,921112576,sensor_wgs84,,0.0,0.0,0.0,0.6476860642433167,0.23392538726329803,0.2871679961681366,0.6658200025558472,"(0.0, 0.0, 0.0, 0.0, 0.0, 0.0, 0.0, 0.0, 0.0, 0.0, 0.0, 0.0, 0.0, 0.0, 0.0, 0.0, 0.0, 0.0, 0.0, 0.0, 0.0, 2.174193316273332e-06, 0.0, 0.0, 0.0, 0.0, 0.0, 0.0, 2.3061075364902797e-06, 0.0, 0.0, 0.0, 0.0, 0.0, 0.0, 6.106761133426244e-05)",0.0,0.0,0.0,-0.02531926892697811,-0.0006672037998214364,0.02167174220085144,"(0.0, 0.0, 0.0, 0.0, 0.0, 0.0, 0.0, 0.0, 0.0, 0.0, 0.0, 0.0, 0.0, 0.0, 0.0, 0.0, 0.0, 0.0, 0.0, 0.0, 0.0, 0.0, 0.0, 0.0, 0.0, 0.0, 0.0, 0.0, 0.0, 0.0, 0.0, 0.0, 0.0, 0.0, 0.0, 0.0)"
1700026234.9507647,26621,1700026234,931130368,sensor_wgs84,,0.0,0.0,0.0,0.6476474404335022,0.23374973237514496,0.2872416079044342,0.6658875346183777,"(0.0, 0.0, 0.0, 0.0, 0.0, 0.0, 0.0, 0.0, 0.0, 0.0, 0.0, 0.0, 0.0, 0.0, 0.0, 0.0, 0.0, 0.0, 0.0, 0.0, 0.0, 2.1636794196004e-06, 0.0, 0.0, 0.0, 0.0, 0.0, 0.0, 2.2943178792635225e-06, 0.0, 0.0, 0.0, 0.0, 0.0, 0.0, 6.100728523885193e-05)",0.0,0.0,0.0,-0.03011809103190899,-0.024636955931782722,0.033664606511592865,"(0.0, 0.0, 0.0, 0.0, 0.0, 0.0, 0.0, 0.0, 0.0, 0.0, 0.0, 0.0, 0.0, 0.0, 0.0, 0.0, 0.0, 0.0, 0.0, 0.0, 0.0, 0.0, 0.0, 0.0, 0.0, 0.0, 0.0, 0.0, 0.0, 0.0, 0.0, 0.0, 0.0, 0.0, 0.0, 0.0)"
1700026234.9583054,26622,1700026234,941144832,sensor_wgs84,,0.0,0.0,0.0,0.6476395726203918,0.23348671197891235,0.28727883100509644,0.6659713983535767,"(0.0, 0.0, 0.0, 0.0, 0.0, 0.0, 0.0, 0.0, 0.0, 0.0, 0.0, 0.0, 0.0, 0.0, 0.0, 0.0, 0.0, 0.0, 0.0, 0.0, 0.0, 2.1636794196004e-06, 0.0, 0.0, 0.0, 0.0, 0.0, 0.0, 2.2943178792635225e-06, 0.0, 0.0, 0.0, 0.0, 0.0, 0.0, 6.100728523885193e-05)",0.0,0.0,0.0,-0.02922401763498783,-0.03866313025355339,0.035221703350543976,"(0.0, 0.0, 0.0, 0.0, 0.0, 0.0, 0.0, 0.0, 0.0, 0.0, 0.0, 0.0, 0.0, 0.0, 0.0, 0.0, 0.0, 0.0, 0.0, 0.0, 0.0, 0.0, 0.0, 0.0, 0.0, 0.0, 0.0, 0.0, 0.0, 0.0, 0.0, 0.0, 0.0, 0.0, 0.0, 0.0)"
1700026234.9678957,26623,1700026234,951160064,sensor_wgs84,,0.0,0.0,0.0,0.6476494073867798,0.23314914107322693,0.2872921824455261,0.6660743355751038,"(0.0, 0.0, 0.0, 0.0, 0.0, 0.0, 0.0, 0.0, 0.0, 0.0, 0.0, 0.0, 0.0, 0.0, 0.0, 0.0, 0.0, 0.0, 0.0, 0.0, 0.0, 2.1636794196004e-06, 0.0, 0.0, 0.0, 0.0, 0.0, 0.0, 2.2943178792635225e-06, 0.0, 0.0, 0.0, 0.0, 0.0, 0.0, 6.100728523885193e-05)",0.0,0.0,0.0,-0.033331792801618576,-0.05210592597723007,0.03774959594011307,"(0.0, 0.0, 0.0, 0.0, 0.0, 0.0, 0.0, 0.0, 0.0, 0.0, 0.0, 0.0, 0.0, 0.0, 0.0, 0.0, 0.0, 0.0, 0.0, 0.0, 0.0, 0.0, 0.0, 0.0, 0.0, 0.0, 0.0, 0.0, 0.0, 0.0, 0.0, 0.0, 0.0, 0.0, 0.0, 0.0)"
1700026234.9798853,26624,1700026234,961177344,sensor_wgs84,,0.0,0.0,0.0,0.6476719379425049,0.23276804387569427,0.2872691750526428,0.6661956310272217,"(0.0, 0.0, 0.0, 0.0, 0.0, 0.0, 0.0, 0.0, 0.0, 0.0, 0.0, 0.0, 0.0, 0.0, 0.0, 0.0, 0.0, 0.0, 0.0, 0.0, 0.0, 2.1636794196004e-06, 0.0, 0.0, 0.0, 0.0, 0.0, 0.0, 2.2943178792635225e-06, 0.0, 0.0, 0.0, 0.0, 0.0, 0.0, 6.100728523885193e-05)",0.0,0.0,0.0,-0.03156106546521187,-0.05712074786424637,0.04482375457882881,"(0.0, 0.0, 0.0, 0.0, 0.0, 0.0, 0.0, 0.0, 0.0, 0.0, 0.0, 0.0, 0.0, 0.0, 0.0, 0.0, 0.0, 0.0, 0.0, 0.0, 0.0, 0.0, 0.0, 0.0, 0.0, 0.0, 0.0, 0.0, 0.0, 0.0, 0.0, 0.0, 0.0, 0.0, 0.0, 0.0)"
1700026234.9868646,26625,1700026234,971191296,sensor_wgs84,,0.0,0.0,0.0,0.6477129459381104,0.23238354921340942,0.28724172711372375,0.6663018465042114,"(0.0, 0.0, 0.0, 0.0, 0.0, 0.0, 0.0, 0.0, 0.0, 0.0, 0.0, 0.0, 0.0, 0.0, 0.0, 0.0, 0.0, 0.0, 0.0, 0.0, 0.0, 2.1636794196004e-06, 0.0, 0.0, 0.0, 0.0, 0.0, 0.0, 2.2943178792635225e-06, 0.0, 0.0, 0.0, 0.0, 0.0, 0.0, 6.100728523885193e-05)",0.0,0.0,0.0,-0.021234659478068352,-0.06550712883472443,0.03461143746972084,"(0.0, 0.0, 0.0, 0.0, 0.0, 0.0, 0.0, 0.0, 0.0, 0.0, 0.0, 0.0, 0.0, 0.0, 0.0, 0.0, 0.0, 0.0, 0.0, 0.0, 0.0, 0.0, 0.0, 0.0, 0.0, 0.0, 0.0, 0.0, 0.0, 0.0, 0.0, 0.0, 0.0, 0.0, 0.0, 0.0)"
1700026234.99836,26626,1700026234,981206784,sensor_wgs84,,0.0,0.0,0.0,0.64778071641922,0.2320486456155777,0.2871847450733185,0.6663771867752075,"(0.0, 0.0, 0.0, 0.0, 0.0, 0.0, 0.0, 0.0, 0.0, 0.0, 0.0, 0.0, 0.0, 0.0, 0.0, 0.0, 0.0, 0.0, 0.0, 0.0, 0.0, 2.1636794196004e-06, 0.0, 0.0, 0.0, 0.0, 0.0, 0.0, 2.2943178792635225e-06, 0.0, 0.0, 0.0, 0.0, 0.0, 0.0, 6.100728523885193e-05)",0.0,0.0,0.0,-0.014886504970490932,-0.05462411046028137,0.025627121329307556,"(0.0, 0.0, 0.0, 0.0, 0.0, 0.0, 0.0, 0.0, 0.0, 0.0, 0.0, 0.0, 0.0, 0.0, 0.0, 0.0, 0.0, 0.0, 0.0, 0.0, 0.0, 0.0, 0.0, 0.0, 0.0, 0.0, 0.0, 0.0, 0.0, 0.0, 0.0, 0.0, 0.0, 0.0, 0.0, 0.0)"
1700026235.0115232,26627,1700026234,991225600,sensor_wgs84,,0.0,0.0,0.0,0.647843062877655,0.23181790113449097,0.2871086299419403,0.6664296388626099,"(0.0, 0.0, 0.0, 0.0, 0.0, 0.0, 0.0, 0.0, 0.0, 0.0, 0.0, 0.0, 0.0, 0.0, 0.0, 0.0, 0.0, 0.0, 0.0, 0.0, 0.0, 2.1636794196004e-06, 0.0, 0.0, 0.0, 0.0, 0.0, 0.0, 2.2943178792635225e-06, 0.0, 0.0, 0.0, 0.0, 0.0, 0.0, 6.100728523885193e-05)",0.0,0.0,0.0,-0.0049971649423241615,-0.04275599867105484,0.012945093214511871,"(0.0, 0.0, 0.0, 0.0, 0.0, 0.0, 0.0, 0.0, 0.0, 0.0, 0.0, 0.0, 0.0, 0.0, 0.0, 0.0, 0.0, 0.0, 0.0, 0.0, 0.0, 0.0, 0.0, 0.0, 0.0, 0.0, 0.0, 0.0, 0.0, 0.0, 0.0, 0.0, 0.0, 0.0, 0.0, 0.0)"
1700026235.0166526,26628,1700026235,1238784,sensor_wgs84,,0.0,0.0,0.0,0.6478747725486755,0.23168215155601501,0.28704801201820374,0.6664722561836243,"(0.0, 0.0, 0.0, 0.0, 0.0, 0.0, 0.0, 0.0, 0.0, 0.0, 0.0, 0.0, 0.0, 0.0, 0.0, 0.0, 0.0, 0.0, 0.0, 0.0, 0.0, 2.1636794196004e-06, 0.0, 0.0, 0.0, 0.0, 0.0, 0.0, 2.2943178792635225e-06, 0.0, 0.0, 0.0, 0.0, 0.0, 0.0, 6.100728523885193e-05)",0.0,0.0,0.0,-0.005069082602858543,-0.020883863791823387,0.0039369226433336735,"(0.0, 0.0, 0.0, 0.0, 0.0, 0.0, 0.0, 0.0, 0.0, 0.0, 0.0, 0.0, 0.0, 0.0, 0.0, 0.0, 0.0, 0.0, 0.0, 0.0, 0.0, 0.0, 0.0, 0.0, 0.0, 0.0, 0.0, 0.0, 0.0, 0.0, 0.0, 0.0, 0.0, 0.0, 0.0, 0.0)"
1700026235.0286238,26629,1700026235,11254784,sensor_wgs84,,0.0,0.0,0.0,0.6478685736656189,0.23163367807865143,0.2870115339756012,0.666510820388794,"(0.0, 0.0, 0.0, 0.0, 0.0, 0.0, 0.0, 0.0, 0.0, 0.0, 0.0, 0.0, 0.0, 0.0, 0.0, 0.0, 0.0, 0.0, 0.0, 0.0, 0.0, 2.1636794196004e-06, 0.0, 0.0, 0.0, 0.0, 0.0, 0.0, 2.2943178792635225e-06, 0.0, 0.0, 0.0, 0.0, 0.0, 0.0, 6.100728523885193e-05)",0.0,0.0,0.0,-0.002602119231596589,-0.006460041739046574,-0.003109833924099803,"(0.0, 0.0, 0.0, 0.0, 0.0, 0.0, 0.0, 0.0, 0.0, 0.0, 0.0, 0.0, 0.0, 0.0, 0.0, 0.0, 0.0, 0.0, 0.0, 0.0, 0.0, 0.0, 0.0, 0.0, 0.0, 0.0, 0.0, 0.0, 0.0, 0.0, 0.0, 0.0, 0.0, 0.0, 0.0, 0.0)"
1700026235.0413227,26630,1700026235,21272320,sensor_wgs84,,0.0,0.0,0.0,0.6478428840637207,0.23166075348854065,0.28701114654541016,0.6665264368057251,"(0.0, 0.0, 0.0, 0.0, 0.0, 0.0, 0.0, 0.0, 0.0, 0.0, 0.0, 0.0, 0.0, 0.0, 0.0, 0.0, 0.0, 0.0, 0.0, 0.0, 0.0, 2.1636794196004e-06, 0.0, 0.0, 0.0, 0.0, 0.0, 0.0, 2.2943178792635225e-06, 0.0, 0.0, 0.0, 0.0, 0.0, 0.0, 6.100728523885193e-05)",0.0,0.0,0.0,-0.0012793508358299732,0.006856888998299837,-0.007807548623532057,"(0.0, 0.0, 0.0, 0.0, 0.0, 0.0, 0.0, 0.0, 0.0, 0.0, 0.0, 0.0, 0.0, 0.0, 0.0, 0.0, 0.0, 0.0, 0.0, 0.0, 0.0, 0.0, 0.0, 0.0, 0.0, 0.0, 0.0, 0.0, 0.0, 0.0, 0.0, 0.0, 0.0, 0.0, 0.0, 0.0)"
1700026235.054253,26631,1700026235,31286784,sensor_wgs84,,0.0,0.0,0.0,0.6478080749511719,0.23174655437469482,0.2870410978794098,0.6665176153182983,"(0.0, 0.0, 0.0, 0.0, 0.0, 0.0, 0.0, 0.0, 0.0, 0.0, 0.0, 0.0, 0.0, 0.0, 0.0, 0.0, 0.0, 0.0, 0.0, 0.0, 0.0, 2.1636794196004e-06, 0.0, 0.0, 0.0, 0.0, 0.0, 0.0, 2.2943178792635225e-06, 0.0, 0.0, 0.0, 0.0, 0.0, 0.0, 6.100728523885193e-05)",0.0,0.0,0.0,0.004541226662695408,0.020046938210725784,-0.007288126274943352,"(0.0, 0.0, 0.0, 0.0, 0.0, 0.0, 0.0, 0.0, 0.0, 0.0, 0.0, 0.0, 0.0, 0.0, 0.0, 0.0, 0.0, 0.0, 0.0, 0.0, 0.0, 0.0, 0.0, 0.0, 0.0, 0.0, 0.0, 0.0, 0.0, 0.0, 0.0, 0.0, 0.0, 0.0, 0.0, 0.0)"
1700026235.05799,26632,1700026235,41301760,sensor_wgs84,,0.0,0.0,0.0,0.6477940082550049,0.2318713366985321,0.2870420515537262,0.666487455368042,"(0.0, 0.0, 0.0, 0.0, 0.0, 0.0, 0.0, 0.0, 0.0, 0.0, 0.0, 0.0, 0.0, 0.0, 0.0, 0.0, 0.0, 0.0, 0.0, 0.0, 0.0, 2.1636794196004e-06, 0.0, 0.0, 0.0, 0.0, 0.0, 0.0, 2.2943178792635225e-06, 0.0, 0.0, 0.0, 0.0, 0.0, 0.0, 6.100728523885193e-05)",0.0,0.0,0.0,0.015334795229136944,0.02271145209670067,-0.022241342812776566,"(0.0, 0.0, 0.0, 0.0, 0.0, 0.0, 0.0, 0.0, 0.0, 0.0, 0.0, 0.0, 0.0, 0.0, 0.0, 0.0, 0.0, 0.0, 0.0, 0.0, 0.0, 0.0, 0.0, 0.0, 0.0, 0.0, 0.0, 0.0, 0.0, 0.0, 0.0, 0.0, 0.0, 0.0, 0.0, 0.0)"
1700026235.0695856,26633,1700026235,51318528,sensor_wgs84,,0.0,0.0,0.0,0.647783100605011,0.2320602536201477,0.28698697686195374,0.6664560437202454,"(0.0, 0.0, 0.0, 0.0, 0.0, 0.0, 0.0, 0.0, 0.0, 0.0, 0.0, 0.0, 0.0, 0.0, 0.0, 0.0, 0.0, 0.0, 0.0, 0.0, 0.0, 2.1636794196004e-06, 0.0, 0.0, 0.0, 0.0, 0.0, 0.0, 2.2943178792635225e-06, 0.0, 0.0, 0.0, 0.0, 0.0, 0.0, 6.100728523885193e-05)",0.0,0.0,0.0,0.019055182114243507,0.025598786771297455,-0.034472156316041946,"(0.0, 0.0, 0.0, 0.0, 0.0, 0.0, 0.0, 0.0, 0.0, 0.0, 0.0, 0.0, 0.0, 0.0, 0.0, 0.0, 0.0, 0.0, 0.0, 0.0, 0.0, 0.0, 0.0, 0.0, 0.0, 0.0, 0.0, 0.0, 0.0, 0.0, 0.0, 0.0, 0.0, 0.0, 0.0, 0.0)"
1700026235.0768566,26634,1700026235,61332224,sensor_wgs84,,0.0,0.0,0.0,0.6477540135383606,0.23232252895832062,0.2868915796279907,0.6664340496063232,"(0.0, 0.0, 0.0, 0.0, 0.0, 0.0, 0.0, 0.0, 0.0, 0.0, 0.0, 0.0, 0.0, 0.0, 0.0, 0.0, 0.0, 0.0, 0.0, 0.0, 0.0, 2.1636794196004e-06, 0.0, 0.0, 0.0, 0.0, 0.0, 0.0, 2.2943178792635225e-06, 0.0, 0.0, 0.0, 0.0, 0.0, 0.0, 6.100728523885193e-05)",0.0,0.0,0.0,0.019914032891392708,0.024277763441205025,-0.055961910635232925,"(0.0, 0.0, 0.0, 0.0, 0.0, 0.0, 0.0, 0.0, 0.0, 0.0, 0.0, 0.0, 0.0, 0.0, 0.0, 0.0, 0.0, 0.0, 0.0, 0.0, 0.0, 0.0, 0.0, 0.0, 0.0, 0.0, 0.0, 0.0, 0.0, 0.0, 0.0, 0.0, 0.0, 0.0, 0.0, 0.0)"
1700026235.088115,26635,1700026235,71347712,sensor_wgs84,,0.0,0.0,0.0,0.6476796865463257,0.23263928294181824,0.28677013516426086,0.6664479374885559,"(0.0, 0.0, 0.0, 0.0, 0.0, 0.0, 0.0, 0.0, 0.0, 0.0, 0.0, 0.0, 0.0, 0.0, 0.0, 0.0, 0.0, 0.0, 0.0, 0.0, 0.0, 2.1636794196004e-06, 0.0, 0.0, 0.0, 0.0, 0.0, 0.0, 2.2943178792635225e-06, 0.0, 0.0, 0.0, 0.0, 0.0, 0.0, 6.100728523885193e-05)",0.0,0.0,0.0,0.011833496391773224,0.032119717448949814,-0.06646044552326202,"(0.0, 0.0, 0.0, 0.0, 0.0, 0.0, 0.0, 0.0, 0.0, 0.0, 0.0, 0.0, 0.0, 0.0, 0.0, 0.0, 0.0, 0.0, 0.0, 0.0, 0.0, 0.0, 0.0, 0.0, 0.0, 0.0, 0.0, 0.0, 0.0, 0.0, 0.0, 0.0, 0.0, 0.0, 0.0, 0.0)"
1700026235.1141555,26636,1700026235,81365248,sensor_wgs84,,0.0,0.0,0.0,0.6475768089294434,0.2329777181148529,0.28666597604751587,0.6664746403694153,"(0.0, 0.0, 0.0, 0.0, 0.0, 0.0, 0.0, 0.0, 0.0, 0.0, 0.0, 0.0, 0.0, 0.0, 0.0, 0.0, 0.0, 0.0, 0.0, 0.0, 0.0, 2.1636794196004e-06, 0.0, 0.0, 0.0, 0.0, 0.0, 0.0, 2.2943178792635225e-06, 0.0, 0.0, 0.0, 0.0, 0.0, 0.0, 6.100728523885193e-05)",0.0,0.0,0.0,0.0028281083796173334,0.03941851481795311,-0.06623533368110657,"(0.0, 0.0, 0.0, 0.0, 0.0, 0.0, 0.0, 0.0, 0.0, 0.0, 0.0, 0.0, 0.0, 0.0, 0.0, 0.0, 0.0, 0.0, 0.0, 0.0, 0.0, 0.0, 0.0, 0.0, 0.0, 0.0, 0.0, 0.0, 0.0, 0.0, 0.0, 0.0, 0.0, 0.0, 0.0, 0.0)"
1700026235.114295,26637,1700026235,91381248,sensor_wgs84,,0.0,0.0,0.0,0.6475707292556763,0.2329547107219696,0.286285400390625,0.6666520833969116,"(0.0, 0.0, 0.0, 0.0, 0.0, 0.0, 0.0, 0.0, 0.0, 0.0, 0.0, 0.0, 0.0, 0.0, 0.0, 0.0, 0.0, 0.0, 0.0, 0.0, 0.0, 2.1636794196004e-06, 0.0, 0.0, 0.0, 0.0, 0.0, 0.0, 2.2943178792635225e-06, 0.0, 0.0, 0.0, 0.0, 0.0, 0.0, 6.100728523885193e-05)",0.0,0.0,0.0,-0.0035486265551298857,0.034203726798295975,-0.05449511855840683,"(0.0, 0.0, 0.0, 0.0, 0.0, 0.0, 0.0, 0.0, 0.0, 0.0, 0.0, 0.0, 0.0, 0.0, 0.0, 0.0, 0.0, 0.0, 0.0, 0.0, 0.0, 0.0, 0.0, 0.0, 0.0, 0.0, 0.0, 0.0, 0.0, 0.0, 0.0, 0.0, 0.0, 0.0, 0.0, 0.0)"
1700026235.1190414,26638,1700026235,101396736,sensor_wgs84,,0.0,0.0,0.0,0.6474428176879883,0.23322327435016632,0.28624629974365234,0.6666991710662842,"(0.0, 0.0, 0.0, 0.0, 0.0, 0.0, 0.0, 0.0, 0.0, 0.0, 0.0, 0.0, 0.0, 0.0, 0.0, 0.0, 0.0, 0.0, 0.0, 0.0, 0.0, 2.1636794196004e-06, 0.0, 0.0, 0.0, 0.0, 0.0, 0.0, 2.2943178792635225e-06, 0.0, 0.0, 0.0, 0.0, 0.0, 0.0, 6.100728523885193e-05)",0.0,0.0,0.0,-0.009046880528330803,0.03722261264920235,-0.048479463905096054,"(0.0, 0.0, 0.0, 0.0, 0.0, 0.0, 0.0, 0.0, 0.0, 0.0, 0.0, 0.0, 0.0, 0.0, 0.0, 0.0, 0.0, 0.0, 0.0, 0.0, 0.0, 0.0, 0.0, 0.0, 0.0, 0.0, 0.0, 0.0, 0.0, 0.0, 0.0, 0.0, 0.0, 0.0, 0.0, 0.0)"
1700026235.130535,26639,1700026235,111414272,sensor_wgs84,,0.0,0.0,0.0,0.6472886204719543,0.2334665060043335,0.28622859716415405,0.6667713522911072,"(0.0, 0.0, 0.0, 0.0, 0.0, 0.0, 0.0, 0.0, 0.0, 0.0, 0.0, 0.0, 0.0, 0.0, 0.0, 0.0, 0.0, 0.0, 0.0, 0.0, 0.0, 2.1636794196004e-06, 0.0, 0.0, 0.0, 0.0, 0.0, 0.0, 2.2943178792635225e-06, 0.0, 0.0, 0.0, 0.0, 0.0, 0.0, 6.100728523885193e-05)",0.0,0.0,0.0,-0.0201418437063694,0.032071374356746674,-0.049808405339717865,"(0.0, 0.0, 0.0, 0.0, 0.0, 0.0, 0.0, 0.0, 0.0, 0.0, 0.0, 0.0, 0.0, 0.0, 0.0, 0.0, 0.0, 0.0, 0.0, 0.0, 0.0, 0.0, 0.0, 0.0, 0.0, 0.0, 0.0, 0.0, 0.0, 0.0, 0.0, 0.0, 0.0, 0.0, 0.0, 0.0)"
1700026235.1368387,26640,1700026235,121426944,sensor_wgs84,,0.0,0.0,0.0,0.6471222043037415,0.23370149731636047,0.2862219214439392,0.6668534278869629,"(0.0, 0.0, 0.0, 0.0, 0.0, 0.0, 0.0, 0.0, 0.0, 0.0, 0.0, 0.0, 0.0, 0.0, 0.0, 0.0, 0.0, 0.0, 0.0, 0.0, 0.0, 2.15404829111665e-06, 0.0, 0.0, 0.0, 0.0, 0.0, 0.0, 2.2827139180459804e-06, 0.0, 0.0, 0.0, 0.0, 0.0, 0.0, 6.09434845276792e-05)",0.0,0.0,0.0,-0.02174525335431099,0.03657077997922897,-0.03884689137339592,"(0.0, 0.0, 0.0, 0.0, 0.0, 0.0, 0.0, 0.0, 0.0, 0.0, 0.0, 0.0, 0.0, 0.0, 0.0, 0.0, 0.0, 0.0, 0.0, 0.0, 0.0, 0.0, 0.0, 0.0, 0.0, 0.0, 0.0, 0.0, 0.0, 0.0, 0.0, 0.0, 0.0, 0.0, 0.0, 0.0)"
1700026235.14782,26641,1700026235,131441664,sensor_wgs84,,0.0,0.0,0.0,0.6469675302505493,0.23390667140483856,0.2862425744533539,0.6669226884841919,"(0.0, 0.0, 0.0, 0.0, 0.0, 0.0, 0.0, 0.0, 0.0, 0.0, 0.0, 0.0, 0.0, 0.0, 0.0, 0.0, 0.0, 0.0, 0.0, 0.0, 0.0, 2.15404829111665e-06, 0.0, 0.0, 0.0, 0.0, 0.0, 0.0, 2.2827139180459804e-06, 0.0, 0.0, 0.0, 0.0, 0.0, 0.0, 6.09434845276792e-05)",0.0,0.0,0.0,-0.017129994928836823,0.03734734654426575,-0.03137492761015892,"(0.0, 0.0, 0.0, 0.0, 0.0, 0.0, 0.0, 0.0, 0.0, 0.0, 0.0, 0.0, 0.0, 0.0, 0.0, 0.0, 0.0, 0.0, 0.0, 0.0, 0.0, 0.0, 0.0, 0.0, 0.0, 0.0, 0.0, 0.0, 0.0, 0.0, 0.0, 0.0, 0.0, 0.0, 0.0, 0.0)"
1700026235.1657925,26642,1700026235,141460224,sensor_wgs84,,0.0,0.0,0.0,0.6468513011932373,0.23406894505023956,0.28631871938705444,0.6669458150863647,"(0.0, 0.0, 0.0, 0.0, 0.0, 0.0, 0.0, 0.0, 0.0, 0.0, 0.0, 0.0, 0.0, 0.0, 0.0, 0.0, 0.0, 0.0, 0.0, 0.0, 0.0, 2.15404829111665e-06, 0.0, 0.0, 0.0, 0.0, 0.0, 0.0, 2.2827139180459804e-06, 0.0, 0.0, 0.0, 0.0, 0.0, 0.0, 6.09434845276792e-05)",0.0,0.0,0.0,-0.007018064148724079,0.03684692829847336,-0.007305968087166548,"(0.0, 0.0, 0.0, 0.0, 0.0, 0.0, 0.0, 0.0, 0.0, 0.0, 0.0, 0.0, 0.0, 0.0, 0.0, 0.0, 0.0, 0.0, 0.0, 0.0, 0.0, 0.0, 0.0, 0.0, 0.0, 0.0, 0.0, 0.0, 0.0, 0.0, 0.0, 0.0, 0.0, 0.0, 0.0, 0.0)"
1700026235.1682978,26643,1700026235,151473664,sensor_wgs84,,0.0,0.0,0.0,0.6467909812927246,0.23417909443378448,0.28642603754997253,0.6669195890426636,"(0.0, 0.0, 0.0, 0.0, 0.0, 0.0, 0.0, 0.0, 0.0, 0.0, 0.0, 0.0, 0.0, 0.0, 0.0, 0.0, 0.0, 0.0, 0.0, 0.0, 0.0, 2.15404829111665e-06, 0.0, 0.0, 0.0, 0.0, 0.0, 0.0, 2.2827139180459804e-06, 0.0, 0.0, 0.0, 0.0, 0.0, 0.0, 6.09434845276792e-05)",0.0,0.0,0.0,0.005327011924237013,0.03402657434344292,0.0001906118413899094,"(0.0, 0.0, 0.0, 0.0, 0.0, 0.0, 0.0, 0.0, 0.0, 0.0, 0.0, 0.0, 0.0, 0.0, 0.0, 0.0, 0.0, 0.0, 0.0, 0.0, 0.0, 0.0, 0.0, 0.0, 0.0, 0.0, 0.0, 0.0, 0.0, 0.0, 0.0, 0.0, 0.0, 0.0, 0.0, 0.0)"
1700026235.1788807,26644,1700026235,161489664,sensor_wgs84,,0.0,0.0,0.0,0.6467695832252502,0.23426368832588196,0.28652268648147583,0.6668691635131836,"(0.0, 0.0, 0.0, 0.0, 0.0, 0.0, 0.0, 0.0, 0.0, 0.0, 0.0, 0.0, 0.0, 0.0, 0.0, 0.0, 0.0, 0.0, 0.0, 0.0, 0.0, 2.15404829111665e-06, 0.0, 0.0, 0.0, 0.0, 0.0, 0.0, 2.2827139180459804e-06, 0.0, 0.0, 0.0, 0.0, 0.0, 0.0, 6.09434845276792e-05)",0.0,0.0,0.0,0.0038960669189691544,0.02253912203013897,-0.0005139494314789772,"(0.0, 0.0, 0.0, 0.0, 0.0, 0.0, 0.0, 0.0, 0.0, 0.0, 0.0, 0.0, 0.0, 0.0, 0.0, 0.0, 0.0, 0.0, 0.0, 0.0, 0.0, 0.0, 0.0, 0.0, 0.0, 0.0, 0.0, 0.0, 0.0, 0.0, 0.0, 0.0, 0.0, 0.0, 0.0, 0.0)"
1700026235.1899645,26645,1700026235,171506432,sensor_wgs84,,0.0,0.0,0.0,0.6467735171318054,0.23432491719722748,0.28655877709388733,0.6668282747268677,"(0.0, 0.0, 0.0, 0.0, 0.0, 0.0, 0.0, 0.0, 0.0, 0.0, 0.0, 0.0, 0.0, 0.0, 0.0, 0.0, 0.0, 0.0, 0.0, 0.0, 0.0, 2.15404829111665e-06, 0.0, 0.0, 0.0, 0.0, 0.0, 0.0, 2.2827139180459804e-06, 0.0, 0.0, 0.0, 0.0, 0.0, 0.0, 6.09434845276792e-05)",0.0,0.0,0.0,0.00815911591053009,0.008073938079178333,-0.006567302159965038,"(0.0, 0.0, 0.0, 0.0, 0.0, 0.0, 0.0, 0.0, 0.0, 0.0, 0.0, 0.0, 0.0, 0.0, 0.0, 0.0, 0.0, 0.0, 0.0, 0.0, 0.0, 0.0, 0.0, 0.0, 0.0, 0.0, 0.0, 0.0, 0.0, 0.0, 0.0, 0.0, 0.0, 0.0, 0.0, 0.0)"
1700026235.2111015,26646,1700026235,181525248,sensor_wgs84,,0.0,0.0,0.0,0.6468177437782288,0.23435290157794952,0.2865146994590759,0.66679447889328,"(0.0, 0.0, 0.0, 0.0, 0.0, 0.0, 0.0, 0.0, 0.0, 0.0, 0.0, 0.0, 0.0, 0.0, 0.0, 0.0, 0.0, 0.0, 0.0, 0.0, 0.0, 2.15404829111665e-06, 0.0, 0.0, 0.0, 0.0, 0.0, 0.0, 2.2827139180459804e-06, 0.0, 0.0, 0.0, 0.0, 0.0, 0.0, 6.09434845276792e-05)",0.0,0.0,0.0,0.01576300710439682,-0.01074153371155262,-0.012954119592905045,"(0.0, 0.0, 0.0, 0.0, 0.0, 0.0, 0.0, 0.0, 0.0, 0.0, 0.0, 0.0, 0.0, 0.0, 0.0, 0.0, 0.0, 0.0, 0.0, 0.0, 0.0, 0.0, 0.0, 0.0, 0.0, 0.0, 0.0, 0.0, 0.0, 0.0, 0.0, 0.0, 0.0, 0.0, 0.0, 0.0)"
1700026235.211582,26647,1700026235,191540736,sensor_wgs84,,0.0,0.0,0.0,0.646886944770813,0.23436352610588074,0.28641510009765625,0.6667664647102356,"(0.0, 0.0, 0.0, 0.0, 0.0, 0.0, 0.0, 0.0, 0.0, 0.0, 0.0, 0.0, 0.0, 0.0, 0.0, 0.0, 0.0, 0.0, 0.0, 0.0, 0.0, 2.15404829111665e-06, 0.0, 0.0, 0.0, 0.0, 0.0, 0.0, 2.2827139180459804e-06, 0.0, 0.0, 0.0, 0.0, 0.0, 0.0, 6.09434845276792e-05)",0.0,0.0,0.0,0.018698401749134064,-0.016042713075876236,-0.011345317587256432,"(0.0, 0.0, 0.0, 0.0, 0.0, 0.0, 0.0, 0.0, 0.0, 0.0, 0.0, 0.0, 0.0, 0.0, 0.0, 0.0, 0.0, 0.0, 0.0, 0.0, 0.0, 0.0, 0.0, 0.0, 0.0, 0.0, 0.0, 0.0, 0.0, 0.0, 0.0, 0.0, 0.0, 0.0, 0.0, 0.0)"
1700026235.2219064,26648,1700026235,201557760,sensor_wgs84,,0.0,0.0,0.0,0.6469700336456299,0.23434793949127197,0.28629815578460693,0.6667414903640747,"(0.0, 0.0, 0.0, 0.0, 0.0, 0.0, 0.0, 0.0, 0.0, 0.0, 0.0, 0.0, 0.0, 0.0, 0.0, 0.0, 0.0, 0.0, 0.0, 0.0, 0.0, 2.15404829111665e-06, 0.0, 0.0, 0.0, 0.0, 0.0, 0.0, 2.2827139180459804e-06, 0.0, 0.0, 0.0, 0.0, 0.0, 0.0, 6.09434845276792e-05)",0.0,0.0,0.0,0.015082369558513165,-0.019557850435376167,-0.00609758123755455,"(0.0, 0.0, 0.0, 0.0, 0.0, 0.0, 0.0, 0.0, 0.0, 0.0, 0.0, 0.0, 0.0, 0.0, 0.0, 0.0, 0.0, 0.0, 0.0, 0.0, 0.0, 0.0, 0.0, 0.0, 0.0, 0.0, 0.0, 0.0, 0.0, 0.0, 0.0, 0.0, 0.0, 0.0, 0.0, 0.0)"
1700026235.2322266,26649,1700026235,211577088,sensor_wgs84,,0.0,0.0,0.0,0.6470505595207214,0.23431527614593506,0.28618529438972473,0.6667232513427734,"(0.0, 0.0, 0.0, 0.0, 0.0, 0.0, 0.0, 0.0, 0.0, 0.0, 0.0, 0.0, 0.0, 0.0, 0.0, 0.0, 0.0, 0.0, 0.0, 0.0, 0.0, 2.15404829111665e-06, 0.0, 0.0, 0.0, 0.0, 0.0, 0.0, 2.2827139180459804e-06, 0.0, 0.0, 0.0, 0.0, 0.0, 0.0, 6.09434845276792e-05)",0.0,0.0,0.0,0.01844477280974388,-0.026461752131581306,-0.008806179277598858,"(0.0, 0.0, 0.0, 0.0, 0.0, 0.0, 0.0, 0.0, 0.0, 0.0, 0.0, 0.0, 0.0, 0.0, 0.0, 0.0, 0.0, 0.0, 0.0, 0.0, 0.0, 0.0, 0.0, 0.0, 0.0, 0.0, 0.0, 0.0, 0.0, 0.0, 0.0, 0.0, 0.0, 0.0, 0.0, 0.0)"
1700026235.2376685,26650,1700026235,221591808,sensor_wgs84,,0.0,0.0,0.0,0.6471352577209473,0.23425890505313873,0.28605687618255615,0.6667160391807556,"(0.0, 0.0, 0.0, 0.0, 0.0, 0.0, 0.0, 0.0, 0.0, 0.0, 0.0, 0.0, 0.0, 0.0, 0.0, 0.0, 0.0, 0.0, 0.0, 0.0, 0.0, 2.15404829111665e-06, 0.0, 0.0, 0.0, 0.0, 0.0, 0.0, 2.2827139180459804e-06, 0.0, 0.0, 0.0, 0.0, 0.0, 0.0, 6.09434845276792e-05)",0.0,0.0,0.0,0.015422559343278408,-0.029938243329524994,-0.002832712372764945,"(0.0, 0.0, 0.0, 0.0, 0.0, 0.0, 0.0, 0.0, 0.0, 0.0, 0.0, 0.0, 0.0, 0.0, 0.0, 0.0, 0.0, 0.0, 0.0, 0.0, 0.0, 0.0, 0.0, 0.0, 0.0, 0.0, 0.0, 0.0, 0.0, 0.0, 0.0, 0.0, 0.0, 0.0, 0.0, 0.0)"
1700026235.253099,26651,1700026235,231608576,sensor_wgs84,,0.0,0.0,0.0,0.6472346186637878,0.2341948300600052,0.2859194576740265,0.666701078414917,"(0.0, 0.0, 0.0, 0.0, 0.0, 0.0, 0.0, 0.0, 0.0, 0.0, 0.0, 0.0, 0.0, 0.0, 0.0, 0.0, 0.0, 0.0, 0.0, 0.0, 0.0, 2.15404829111665e-06, 0.0, 0.0, 0.0, 0.0, 0.0, 0.0, 2.2827139180459804e-06, 0.0, 0.0, 0.0, 0.0, 0.0, 0.0, 6.09434845276792e-05)",0.0,0.0,0.0,0.01729479804635048,-0.03155700862407684,-0.0035018306225538254,"(0.0, 0.0, 0.0, 0.0, 0.0, 0.0, 0.0, 0.0, 0.0, 0.0, 0.0, 0.0, 0.0, 0.0, 0.0, 0.0, 0.0, 0.0, 0.0, 0.0, 0.0, 0.0, 0.0, 0.0, 0.0, 0.0, 0.0, 0.0, 0.0, 0.0, 0.0, 0.0, 0.0, 0.0, 0.0, 0.0)"
1700026235.2621949,26652,1700026235,241627904,sensor_wgs84,,0.0,0.0,0.0,0.6473293900489807,0.23413681983947754,0.285780131816864,0.6666890978813171,"(0.0, 0.0, 0.0, 0.0, 0.0, 0.0, 0.0, 0.0, 0.0, 0.0, 0.0, 0.0, 0.0, 0.0, 0.0, 0.0, 0.0, 0.0, 0.0, 0.0, 0.0, 2.15404829111665e-06, 0.0, 0.0, 0.0, 0.0, 0.0, 0.0, 2.2827139180459804e-06, 0.0, 0.0, 0.0, 0.0, 0.0, 0.0, 6.09434845276792e-05)",0.0,0.0,0.0,0.017360996454954147,-0.03061426430940628,-0.0037757980171591043,"(0.0, 0.0, 0.0, 0.0, 0.0, 0.0, 0.0, 0.0, 0.0, 0.0, 0.0, 0.0, 0.0, 0.0, 0.0, 0.0, 0.0, 0.0, 0.0, 0.0, 0.0, 0.0, 0.0, 0.0, 0.0, 0.0, 0.0, 0.0, 0.0, 0.0, 0.0, 0.0, 0.0, 0.0, 0.0, 0.0)"
1700026235.268044,26653,1700026235,251642880,sensor_wgs84,,0.0,0.0,0.0,0.6474205851554871,0.23411738872528076,0.28561723232269287,0.6666771769523621,"(0.0, 0.0, 0.0, 0.0, 0.0, 0.0, 0.0, 0.0, 0.0, 0.0, 0.0, 0.0, 0.0, 0.0, 0.0, 0.0, 0.0, 0.0, 0.0, 0.0, 0.0, 2.15404829111665e-06, 0.0, 0.0, 0.0, 0.0, 0.0, 0.0, 2.2827139180459804e-06, 0.0, 0.0, 0.0, 0.0, 0.0, 0.0, 6.09434845276792e-05)",0.0,0.0,0.0,0.015703409910202026,-0.02158200927078724,-0.020662110298871994,"(0.0, 0.0, 0.0, 0.0, 0.0, 0.0, 0.0, 0.0, 0.0, 0.0, 0.0, 0.0, 0.0, 0.0, 0.0, 0.0, 0.0, 0.0, 0.0, 0.0, 0.0, 0.0, 0.0, 0.0, 0.0, 0.0, 0.0, 0.0, 0.0, 0.0, 0.0, 0.0, 0.0, 0.0, 0.0, 0.0)"
1700026235.279912,26654,1700026235,261659392,sensor_wgs84,,0.0,0.0,0.0,0.6474652290344238,0.2341783344745636,0.28542065620422363,0.6666966676712036,"(0.0, 0.0, 0.0, 0.0, 0.0, 0.0, 0.0, 0.0, 0.0, 0.0, 0.0, 0.0, 0.0, 0.0, 0.0, 0.0, 0.0, 0.0, 0.0, 0.0, 0.0, 2.15404829111665e-06, 0.0, 0.0, 0.0, 0.0, 0.0, 0.0, 2.2827139180459804e-06, 0.0, 0.0, 0.0, 0.0, 0.0, 0.0, 6.09434845276792e-05)",0.0,0.0,0.0,0.013120624236762524,-0.01740504801273346,-0.048349376767873764,"(0.0, 0.0, 0.0, 0.0, 0.0, 0.0, 0.0, 0.0, 0.0, 0.0, 0.0, 0.0, 0.0, 0.0, 0.0, 0.0, 0.0, 0.0, 0.0, 0.0, 0.0, 0.0, 0.0, 0.0, 0.0, 0.0, 0.0, 0.0, 0.0, 0.0, 0.0, 0.0, 0.0, 0.0, 0.0, 0.0)"
1700026235.291808,26655,1700026235,271677952,sensor_wgs84,,0.0,0.0,0.0,0.6474671363830566,0.23432514071464539,0.2851639688014984,0.6667531132698059,"(0.0, 0.0, 0.0, 0.0, 0.0, 0.0, 0.0, 0.0, 0.0, 0.0, 0.0, 0.0, 0.0, 0.0, 0.0, 0.0, 0.0, 0.0, 0.0, 0.0, 0.0, 2.15404829111665e-06, 0.0, 0.0, 0.0, 0.0, 0.0, 0.0, 2.2827139180459804e-06, 0.0, 0.0, 0.0, 0.0, 0.0, 0.0, 6.09434845276792e-05)",0.0,0.0,0.0,0.015479900874197483,-0.011206633411347866,-0.06817734241485596,"(0.0, 0.0, 0.0, 0.0, 0.0, 0.0, 0.0, 0.0, 0.0, 0.0, 0.0, 0.0, 0.0, 0.0, 0.0, 0.0, 0.0, 0.0, 0.0, 0.0, 0.0, 0.0, 0.0, 0.0, 0.0, 0.0, 0.0, 0.0, 0.0, 0.0, 0.0, 0.0, 0.0, 0.0, 0.0, 0.0)"
1700026235.307674,26656,1700026235,281693184,sensor_wgs84,,0.0,0.0,0.0,0.6474412679672241,0.23456630110740662,0.2848578691482544,0.666824221611023,"(0.0, 0.0, 0.0, 0.0, 0.0, 0.0, 0.0, 0.0, 0.0, 0.0, 0.0, 0.0, 0.0, 0.0, 0.0, 0.0, 0.0, 0.0, 0.0, 0.0, 0.0, 2.15404829111665e-06, 0.0, 0.0, 0.0, 0.0, 0.0, 0.0, 2.2827139180459804e-06, 0.0, 0.0, 0.0, 0.0, 0.0, 0.0, 6.09434845276792e-05)",0.0,0.0,0.0,0.019258644431829453,-0.0009465913171879947,-0.08165917545557022,"(0.0, 0.0, 0.0, 0.0, 0.0, 0.0, 0.0, 0.0, 0.0, 0.0, 0.0, 0.0, 0.0, 0.0, 0.0, 0.0, 0.0, 0.0, 0.0, 0.0, 0.0, 0.0, 0.0, 0.0, 0.0, 0.0, 0.0, 0.0, 0.0, 0.0, 0.0, 0.0, 0.0, 0.0, 0.0, 0.0)"
1700026235.309643,26657,1700026235,291710208,sensor_wgs84,,0.0,0.0,0.0,0.6474160552024841,0.2348741888999939,0.2845504879951477,0.6668716073036194,"(0.0, 0.0, 0.0, 0.0, 0.0, 0.0, 0.0, 0.0, 0.0, 0.0, 0.0, 0.0, 0.0, 0.0, 0.0, 0.0, 0.0, 0.0, 0.0, 0.0, 0.0, 2.15404829111665e-06, 0.0, 0.0, 0.0, 0.0, 0.0, 0.0, 2.2827139180459804e-06, 0.0, 0.0, 0.0, 0.0, 0.0, 0.0, 6.09434845276792e-05)",0.0,0.0,0.0,0.02604912966489792,0.008158659562468529,-0.08644195646047592,"(0.0, 0.0, 0.0, 0.0, 0.0, 0.0, 0.0, 0.0, 0.0, 0.0, 0.0, 0.0, 0.0, 0.0, 0.0, 0.0, 0.0, 0.0, 0.0, 0.0, 0.0, 0.0, 0.0, 0.0, 0.0, 0.0, 0.0, 0.0, 0.0, 0.0, 0.0, 0.0, 0.0, 0.0, 0.0, 0.0)"
1700026235.323426,26658,1700026235,301730560,sensor_wgs84,,0.0,0.0,0.0,0.6473956108093262,0.2352265864610672,0.2842848598957062,0.6668805480003357,"(0.0, 0.0, 0.0, 0.0, 0.0, 0.0, 0.0, 0.0, 0.0, 0.0, 0.0, 0.0, 0.0, 0.0, 0.0, 0.0, 0.0, 0.0, 0.0, 0.0, 0.0, 2.15404829111665e-06, 0.0, 0.0, 0.0, 0.0, 0.0, 0.0, 2.2827139180459804e-06, 0.0, 0.0, 0.0, 0.0, 0.0, 0.0, 6.09434845276792e-05)",0.0,0.0,0.0,0.028564702719449997,0.01968846656382084,-0.07736357301473618,"(0.0, 0.0, 0.0, 0.0, 0.0, 0.0, 0.0, 0.0, 0.0, 0.0, 0.0, 0.0, 0.0, 0.0, 0.0, 0.0, 0.0, 0.0, 0.0, 0.0, 0.0, 0.0, 0.0, 0.0, 0.0, 0.0, 0.0, 0.0, 0.0, 0.0, 0.0, 0.0, 0.0, 0.0, 0.0, 0.0)"
1700026235.327597,26659,1700026235,311745024,sensor_wgs84,,0.0,0.0,0.0,0.6473509669303894,0.2355930656194687,0.28409305214881897,0.6668761968612671,"(0.0, 0.0, 0.0, 0.0, 0.0, 0.0, 0.0, 0.0, 0.0, 0.0, 0.0, 0.0, 0.0, 0.0, 0.0, 0.0, 0.0, 0.0, 0.0, 0.0, 0.0, 2.15404829111665e-06, 0.0, 0.0, 0.0, 0.0, 0.0, 0.0, 2.2827139180459804e-06, 0.0, 0.0, 0.0, 0.0, 0.0, 0.0, 6.09434845276792e-05)",0.0,0.0,0.0,0.019855286926031113,0.028190622106194496,-0.0710284560918808,"(0.0, 0.0, 0.0, 0.0, 0.0, 0.0, 0.0, 0.0, 0.0, 0.0, 0.0, 0.0, 0.0, 0.0, 0.0, 0.0, 0.0, 0.0, 0.0, 0.0, 0.0, 0.0, 0.0, 0.0, 0.0, 0.0, 0.0, 0.0, 0.0, 0.0, 0.0, 0.0, 0.0, 0.0, 0.0, 0.0)"
1700026235.3407393,26660,1700026235,321762304,sensor_wgs84,,0.0,0.0,0.0,0.6472645401954651,0.23595818877220154,0.28395259380340576,0.6668907403945923,"(0.0, 0.0, 0.0, 0.0, 0.0, 0.0, 0.0, 0.0, 0.0, 0.0, 0.0, 0.0, 0.0, 0.0, 0.0, 0.0, 0.0, 0.0, 0.0, 0.0, 0.0, 2.1658564342540853e-06, 0.0, 0.0, 0.0, 0.0, 0.0, 0.0, 2.296315829633774e-06, 0.0, 0.0, 0.0, 0.0, 0.0, 0.0, 6.098295514435359e-05)",0.0,0.0,0.0,0.010785425081849098,0.03564593195915222,-0.07133405655622482,"(0.0, 0.0, 0.0, 0.0, 0.0, 0.0, 0.0, 0.0, 0.0, 0.0, 0.0, 0.0, 0.0, 0.0, 0.0, 0.0, 0.0, 0.0, 0.0, 0.0, 0.0, 0.0, 0.0, 0.0, 0.0, 0.0, 0.0, 0.0, 0.0, 0.0, 0.0, 0.0, 0.0, 0.0, 0.0, 0.0)"
1700026235.3553197,26661,1700026235,331781120,sensor_wgs84,,0.0,0.0,0.0,0.6471344828605652,0.23633615672588348,0.2838532626628876,0.6669254302978516,"(0.0, 0.0, 0.0, 0.0, 0.0, 0.0, 0.0, 0.0, 0.0, 0.0, 0.0, 0.0, 0.0, 0.0, 0.0, 0.0, 0.0, 0.0, 0.0, 0.0, 0.0, 2.1658564342540853e-06, 0.0, 0.0, 0.0, 0.0, 0.0, 0.0, 2.296315829633774e-06, 0.0, 0.0, 0.0, 0.0, 0.0, 0.0, 6.098295514435359e-05)",0.0,0.0,0.0,-0.0030754092149436474,0.04739012196660042,-0.07322473078966141,"(0.0, 0.0, 0.0, 0.0, 0.0, 0.0, 0.0, 0.0, 0.0, 0.0, 0.0, 0.0, 0.0, 0.0, 0.0, 0.0, 0.0, 0.0, 0.0, 0.0, 0.0, 0.0, 0.0, 0.0, 0.0, 0.0, 0.0, 0.0, 0.0, 0.0, 0.0, 0.0, 0.0, 0.0, 0.0, 0.0)"
1700026235.3581932,26662,1700026235,341795584,sensor_wgs84,,0.0,0.0,0.0,0.6470726132392883,0.23642459511756897,0.28341051936149597,0.6671424508094788,"(0.0, 0.0, 0.0, 0.0, 0.0, 0.0, 0.0, 0.0, 0.0, 0.0, 0.0, 0.0, 0.0, 0.0, 0.0, 0.0, 0.0, 0.0, 0.0, 0.0, 0.0, 2.1658564342540853e-06, 0.0, 0.0, 0.0, 0.0, 0.0, 0.0, 2.296315829633774e-06, 0.0, 0.0, 0.0, 0.0, 0.0, 0.0, 6.098295514435359e-05)",0.0,0.0,0.0,-0.003999515436589718,0.03556745499372482,-0.0814499631524086,"(0.0, 0.0, 0.0, 0.0, 0.0, 0.0, 0.0, 0.0, 0.0, 0.0, 0.0, 0.0, 0.0, 0.0, 0.0, 0.0, 0.0, 0.0, 0.0, 0.0, 0.0, 0.0, 0.0, 0.0, 0.0, 0.0, 0.0, 0.0, 0.0, 0.0, 0.0, 0.0, 0.0, 0.0, 0.0, 0.0)"
1700026235.3705106,26663,1700026235,351813376,sensor_wgs84,,0.0,0.0,0.0,0.6469050049781799,0.2367582619190216,0.28328391909599304,0.6672404408454895,"(0.0, 0.0, 0.0, 0.0, 0.0, 0.0, 0.0, 0.0, 0.0, 0.0, 0.0, 0.0, 0.0, 0.0, 0.0, 0.0, 0.0, 0.0, 0.0, 0.0, 0.0, 2.1658564342540853e-06, 0.0, 0.0, 0.0, 0.0, 0.0, 0.0, 2.296315829633774e-06, 0.0, 0.0, 0.0, 0.0, 0.0, 0.0, 6.098295514435359e-05)",0.0,0.0,0.0,-0.014116611331701279,0.027967268601059914,-0.06600256264209747,"(0.0, 0.0, 0.0, 0.0, 0.0, 0.0, 0.0, 0.0, 0.0, 0.0, 0.0, 0.0, 0.0, 0.0, 0.0, 0.0, 0.0, 0.0, 0.0, 0.0, 0.0, 0.0, 0.0, 0.0, 0.0, 0.0, 0.0, 0.0, 0.0, 0.0, 0.0, 0.0, 0.0, 0.0, 0.0, 0.0)"
1700026235.381753,26664,1700026235,361831936,sensor_wgs84,,0.0,0.0,0.0,0.6467708945274353,0.2369878888130188,0.28316035866737366,0.6673412919044495,"(0.0, 0.0, 0.0, 0.0, 0.0, 0.0, 0.0, 0.0, 0.0, 0.0, 0.0, 0.0, 0.0, 0.0, 0.0, 0.0, 0.0, 0.0, 0.0, 0.0, 0.0, 2.1658564342540853e-06, 0.0, 0.0, 0.0, 0.0, 0.0, 0.0, 2.296315829633774e-06, 0.0, 0.0, 0.0, 0.0, 0.0, 0.0, 6.098295514435359e-05)",0.0,0.0,0.0,-0.011120381765067577,0.012016985565423965,-0.04734918475151062,"(0.0, 0.0, 0.0, 0.0, 0.0, 0.0, 0.0, 0.0, 0.0, 0.0, 0.0, 0.0, 0.0, 0.0, 0.0, 0.0, 0.0, 0.0, 0.0, 0.0, 0.0, 0.0, 0.0, 0.0, 0.0, 0.0, 0.0, 0.0, 0.0, 0.0, 0.0, 0.0, 0.0, 0.0, 0.0, 0.0)"
1700026235.3883893,26665,1700026235,371846912,sensor_wgs84,,0.0,0.0,0.0,0.6466772556304932,0.23710410296916962,0.28307124972343445,0.6674285531044006,"(0.0, 0.0, 0.0, 0.0, 0.0, 0.0, 0.0, 0.0, 0.0, 0.0, 0.0, 0.0, 0.0, 0.0, 0.0, 0.0, 0.0, 0.0, 0.0, 0.0, 0.0, 2.1658564342540853e-06, 0.0, 0.0, 0.0, 0.0, 0.0, 0.0, 2.296315829633774e-06, 0.0, 0.0, 0.0, 0.0, 0.0, 0.0, 6.098295514435359e-05)",0.0,0.0,0.0,-0.011983574368059635,0.005023263394832611,-0.021206246688961983,"(0.0, 0.0, 0.0, 0.0, 0.0, 0.0, 0.0, 0.0, 0.0, 0.0, 0.0, 0.0, 0.0, 0.0, 0.0, 0.0, 0.0, 0.0, 0.0, 0.0, 0.0, 0.0, 0.0, 0.0, 0.0, 0.0, 0.0, 0.0, 0.0, 0.0, 0.0, 0.0, 0.0, 0.0, 0.0, 0.0)"
1700026235.4004104,26666,1700026235,381863936,sensor_wgs84,,0.0,0.0,0.0,0.6466182470321655,0.23711974918842316,0.28306788206100464,0.6674816608428955,"(0.0, 0.0, 0.0, 0.0, 0.0, 0.0, 0.0, 0.0, 0.0, 0.0, 0.0, 0.0, 0.0, 0.0, 0.0, 0.0, 0.0, 0.0, 0.0, 0.0, 0.0, 2.1658564342540853e-06, 0.0, 0.0, 0.0, 0.0, 0.0, 0.0, 2.296315829633774e-06, 0.0, 0.0, 0.0, 0.0, 0.0, 0.0, 6.098295514435359e-05)",0.0,0.0,0.0,-0.014267736114561558,0.0017528384923934937,0.0077157276682555676,"(0.0, 0.0, 0.0, 0.0, 0.0, 0.0, 0.0, 0.0, 0.0, 0.0, 0.0, 0.0, 0.0, 0.0, 0.0, 0.0, 0.0, 0.0, 0.0, 0.0, 0.0, 0.0, 0.0, 0.0, 0.0, 0.0, 0.0, 0.0, 0.0, 0.0, 0.0, 0.0, 0.0, 0.0, 0.0, 0.0)"
1700026235.4176927,26667,1700026235,391884032,sensor_wgs84,,0.0,0.0,0.0,0.6466039419174194,0.23705227673053741,0.28316742181777954,0.6674772500991821,"(0.0, 0.0, 0.0, 0.0, 0.0, 0.0, 0.0, 0.0, 0.0, 0.0, 0.0, 0.0, 0.0, 0.0, 0.0, 0.0, 0.0, 0.0, 0.0, 0.0, 0.0, 2.1658564342540853e-06, 0.0, 0.0, 0.0, 0.0, 0.0, 0.0, 2.296315829633774e-06, 0.0, 0.0, 0.0, 0.0, 0.0, 0.0, 6.098295514435359e-05)",0.0,0.0,0.0,-0.008257200941443443,0.01166484970599413,0.0348074696958065,"(0.0, 0.0, 0.0, 0.0, 0.0, 0.0, 0.0, 0.0, 0.0, 0.0, 0.0, 0.0, 0.0, 0.0, 0.0, 0.0, 0.0, 0.0, 0.0, 0.0, 0.0, 0.0, 0.0, 0.0, 0.0, 0.0, 0.0, 0.0, 0.0, 0.0, 0.0, 0.0, 0.0, 0.0, 0.0, 0.0)"
1700026235.41777,26668,1700026235,401897984,sensor_wgs84,,0.0,0.0,0.0,0.6466023921966553,0.2369735687971115,0.2833693027496338,0.6674209833145142,"(0.0, 0.0, 0.0, 0.0, 0.0, 0.0, 0.0, 0.0, 0.0, 0.0, 0.0, 0.0, 0.0, 0.0, 0.0, 0.0, 0.0, 0.0, 0.0, 0.0, 0.0, 2.1658564342540853e-06, 0.0, 0.0, 0.0, 0.0, 0.0, 0.0, 2.296315829633774e-06, 0.0, 0.0, 0.0, 0.0, 0.0, 0.0, 6.098295514435359e-05)",0.0,0.0,0.0,-0.0073631564155220985,0.02618962898850441,0.04660560563206673,"(0.0, 0.0, 0.0, 0.0, 0.0, 0.0, 0.0, 0.0, 0.0, 0.0, 0.0, 0.0, 0.0, 0.0, 0.0, 0.0, 0.0, 0.0, 0.0, 0.0, 0.0, 0.0, 0.0, 0.0, 0.0, 0.0, 0.0, 0.0, 0.0, 0.0, 0.0, 0.0, 0.0, 0.0, 0.0, 0.0)"
1700026235.4298959,26669,1700026235,411915008,sensor_wgs84,,0.0,0.0,0.0,0.6465957164764404,0.2369137555360794,0.28360724449157715,0.6673475503921509,"(0.0, 0.0, 0.0, 0.0, 0.0, 0.0, 0.0, 0.0, 0.0, 0.0, 0.0, 0.0, 0.0, 0.0, 0.0, 0.0, 0.0, 0.0, 0.0, 0.0, 0.0, 2.1658564342540853e-06, 0.0, 0.0, 0.0, 0.0, 0.0, 0.0, 2.296315829633774e-06, 0.0, 0.0, 0.0, 0.0, 0.0, 0.0, 6.098295514435359e-05)",0.0,0.0,0.0,-0.007653474807739258,0.027068473398685455,0.038551826030015945,"(0.0, 0.0, 0.0, 0.0, 0.0, 0.0, 0.0, 0.0, 0.0, 0.0, 0.0, 0.0, 0.0, 0.0, 0.0, 0.0, 0.0, 0.0, 0.0, 0.0, 0.0, 0.0, 0.0, 0.0, 0.0, 0.0, 0.0, 0.0, 0.0, 0.0, 0.0, 0.0, 0.0, 0.0, 0.0, 0.0)"
1700026235.4425077,26670,1700026235,421934080,sensor_wgs84,,0.0,0.0,0.0,0.6465691328048706,0.23688052594661713,0.2838052809238434,0.6673009395599365,"(0.0, 0.0, 0.0, 0.0, 0.0, 0.0, 0.0, 0.0, 0.0, 0.0, 0.0, 0.0, 0.0, 0.0, 0.0, 0.0, 0.0, 0.0, 0.0, 0.0, 0.0, 2.1658564342540853e-06, 0.0, 0.0, 0.0, 0.0, 0.0, 0.0, 2.296315829633774e-06, 0.0, 0.0, 0.0, 0.0, 0.0, 0.0, 6.098295514435359e-05)",0.0,0.0,0.0,-0.010282761417329311,0.025169631466269493,0.022084852680563927,"(0.0, 0.0, 0.0, 0.0, 0.0, 0.0, 0.0, 0.0, 0.0, 0.0, 0.0, 0.0, 0.0, 0.0, 0.0, 0.0, 0.0, 0.0, 0.0, 0.0, 0.0, 0.0, 0.0, 0.0, 0.0, 0.0, 0.0, 0.0, 0.0, 0.0, 0.0, 0.0, 0.0, 0.0, 0.0, 0.0)"
1700026235.4479077,26671,1700026235,431948288,sensor_wgs84,,0.0,0.0,0.0,0.6465234160423279,0.23687206208705902,0.28392094373703003,0.6672990322113037,"(0.0, 0.0, 0.0, 0.0, 0.0, 0.0, 0.0, 0.0, 0.0, 0.0, 0.0, 0.0, 0.0, 0.0, 0.0, 0.0, 0.0, 0.0, 0.0, 0.0, 0.0, 2.1658564342540853e-06, 0.0, 0.0, 0.0, 0.0, 0.0, 0.0, 2.296315829633774e-06, 0.0, 0.0, 0.0, 0.0, 0.0, 0.0, 6.098295514435359e-05)",0.0,0.0,0.0,-0.006942464970052242,0.007890424691140652,0.004013710655272007,"(0.0, 0.0, 0.0, 0.0, 0.0, 0.0, 0.0, 0.0, 0.0, 0.0, 0.0, 0.0, 0.0, 0.0, 0.0, 0.0, 0.0, 0.0, 0.0, 0.0, 0.0, 0.0, 0.0, 0.0, 0.0, 0.0, 0.0, 0.0, 0.0, 0.0, 0.0, 0.0, 0.0, 0.0, 0.0, 0.0)"
