Time,header.seq,header.stamp.secs,header.stamp.nsecs,header.frame_id,orientation.x,orientation.y,orientation.z,orientation.w,orientation_covariance_0,orientation_covariance_1,orientation_covariance_2,orientation_covariance_3,orientation_covariance_4,orientation_covariance_5,orientation_covariance_6,orientation_covariance_7,orientation_covariance_8,angular_velocity.x,angular_velocity.y,angular_velocity.z,angular_velocity_covariance_0,angular_velocity_covariance_1,angular_velocity_covariance_2,angular_velocity_covariance_3,angular_velocity_covariance_4,angular_velocity_covariance_5,angular_velocity_covariance_6,angular_velocity_covariance_7,angular_velocity_covariance_8,linear_acceleration.x,linear_acceleration.y,linear_acceleration.z,linear_acceleration_covariance_0,linear_acceleration_covariance_1,linear_acceleration_covariance_2,linear_acceleration_covariance_3,linear_acceleration_covariance_4,linear_acceleration_covariance_5,linear_acceleration_covariance_6,linear_acceleration_covariance_7,linear_acceleration_covariance_8
1700026355.8983693,38693,1700026355,814740224,sensor_wgs84,0.6673460006713867,0.16690845787525177,0.25167569518089294,0.6807718873023987,1.6800969517824423e-06,0.0,0.0,0.0,1.9525944722348365e-06,0.0,0.0,0.0,5.6068898801617814e-05,0.024418905377388,-0.1489890217781067,0.05837365984916687,0.01,0.0,0.0,0.0,0.01,0.0,0.0,0.0,0.01,-0.25422465801239014,0.15988445281982422,0.3437160849571228,0.01,0.0,0.0,0.0,0.01,0.0,0.0,0.0,0.01
1700026355.8984563,38694,1700026355,824756480,sensor_wgs84,0.6676011085510254,0.16637536883354187,0.25133827328681946,0.6807768940925598,1.6800969517824423e-06,0.0,0.0,0.0,1.9525944722348365e-06,0.0,0.0,0.0,5.6068898801617814e-05,0.017889300361275673,-0.11104477941989899,0.00732076819986105,0.01,0.0,0.0,0.0,0.01,0.0,0.0,0.0,0.01,-0.22657525539398193,0.07821083068847656,0.39676034450531006,0.01,0.0,0.0,0.0,0.01,0.0,0.0,0.0,0.01
1700026355.8984776,38695,1700026355,834772992,sensor_wgs84,0.6677568554878235,0.16611459851264954,0.250953733921051,0.680829644203186,1.6800969517824423e-06,0.0,0.0,0.0,1.9525944722348365e-06,0.0,0.0,0.0,5.6068898801617814e-05,0.008636577054858208,-0.071342334151268,-0.021896647289395332,0.01,0.0,0.0,0.0,0.01,0.0,0.0,0.0,0.01,-0.2516336441040039,-0.14158344268798828,0.31001541018486023,0.01,0.0,0.0,0.0,0.01,0.0,0.0,0.0,0.01
1700026355.898497,38696,1700026355,844785920,sensor_wgs84,0.6678835153579712,0.1657549887895584,0.25046801567077637,0.6809719204902649,1.6800969517824423e-06,0.0,0.0,0.0,1.9525944722348365e-06,0.0,0.0,0.0,5.6068898801617814e-05,-0.008734467439353466,-0.05393184348940849,-0.006432856898754835,0.01,0.0,0.0,0.0,0.01,0.0,0.0,0.0,0.01,-0.2799798250198364,-0.36168670654296875,0.05453488230705261,0.01,0.0,0.0,0.0,0.01,0.0,0.0,0.0,0.01
1700026355.8985517,38697,1700026355,854801152,sensor_wgs84,0.6679162979125977,0.16555429995059967,0.2503392696380615,0.6810358166694641,1.6800969517824423e-06,0.0,0.0,0.0,1.9525944722348365e-06,0.0,0.0,0.0,5.6068898801617814e-05,-0.01734050363302231,-0.04480944201350212,0.028446897864341736,0.01,0.0,0.0,0.0,0.01,0.0,0.0,0.0,0.01,-0.2754775285720825,-0.4821643829345703,-0.020665109157562256,0.01,0.0,0.0,0.0,0.01,0.0,0.0,0.0,0.01
1700026355.8985722,38698,1700026355,864819456,sensor_wgs84,0.6679484844207764,0.1652214080095291,0.2503882646560669,0.6810671091079712,1.6800969517824423e-06,0.0,0.0,0.0,1.9525944722348365e-06,0.0,0.0,0.0,5.6068898801617814e-05,-0.019484562799334526,-0.03911200538277626,0.06382431834936142,0.01,0.0,0.0,0.0,0.01,0.0,0.0,0.0,0.01,-0.24357497692108154,-0.2396106719970703,-0.008043289184570312,0.01,0.0,0.0,0.0,0.01,0.0,0.0,0.0,0.01
1700026355.8985913,38699,1700026355,874832896,sensor_wgs84,0.6679990887641907,0.16479402780532837,0.25051334500312805,0.6810751557350159,1.6768569705317982e-06,0.0,0.0,0.0,1.9439900977877376e-06,0.0,0.0,0.0,5.6072852939952934e-05,-0.01591305434703827,-0.045541223138570786,0.0823386013507843,0.01,0.0,0.0,0.0,0.01,0.0,0.0,0.0,0.01,-0.2132406234741211,-0.02847766876220703,0.06162247061729431,0.01,0.0,0.0,0.0,0.01,0.0,0.0,0.0,0.01
1700026355.901175,38700,1700026355,884848128,sensor_wgs84,0.6680889129638672,0.1643446981906891,0.25068071484565735,0.6810339093208313,1.6768569705317982e-06,0.0,0.0,0.0,1.9439900977877376e-06,0.0,0.0,0.0,5.6072852939952934e-05,-0.00625136774033308,-0.038148678839206696,0.08845385909080505,0.01,0.0,0.0,0.0,0.01,0.0,0.0,0.0,0.01,-0.19968771934509277,0.0914621353149414,0.17069202661514282,0.01,0.0,0.0,0.0,0.01,0.0,0.0,0.0,0.01
1700026355.9129908,38701,1700026355,894865408,sensor_wgs84,0.6681804060935974,0.1639549881219864,0.25086596608161926,0.6809698939323425,1.6768569705317982e-06,0.0,0.0,0.0,1.9439900977877376e-06,0.0,0.0,0.0,5.6072852939952934e-05,-0.004906999878585339,-0.023659173399209976,0.07968901097774506,0.01,0.0,0.0,0.0,0.01,0.0,0.0,0.0,0.01,-0.1302558183670044,0.22487258911132812,0.18564876914024353,0.01,0.0,0.0,0.0,0.01,0.0,0.0,0.0,0.01
1700026355.9204266,38702,1700026355,904879360,sensor_wgs84,0.6682336330413818,0.16365428268909454,0.2510679066181183,0.6809155941009521,1.6768569705317982e-06,0.0,0.0,0.0,1.9439900977877376e-06,0.0,0.0,0.0,5.6072852939952934e-05,-0.005621082149446011,-0.002082202350720763,0.06663011759519577,0.01,0.0,0.0,0.0,0.01,0.0,0.0,0.0,0.01,-0.05017125606536865,0.20593738555908203,0.1477072536945343,0.01,0.0,0.0,0.0,0.01,0.0,0.0,0.0,0.01
1700026355.936116,38703,1700026355,914895360,sensor_wgs84,0.6682485342025757,0.16343267261981964,0.2512914538383484,0.6808717846870422,1.6768569705317982e-06,0.0,0.0,0.0,1.9439900977877376e-06,0.0,0.0,0.0,5.6072852939952934e-05,-0.015786457806825638,0.0013531571021303535,0.062236007302999496,0.01,0.0,0.0,0.0,0.01,0.0,0.0,0.0,0.01,-0.011842012405395508,0.15063190460205078,-0.02777189016342163,0.01,0.0,0.0,0.0,0.01,0.0,0.0,0.0,0.01
1700026355.9432368,38704,1700026355,924911616,sensor_wgs84,0.6682355403900146,0.16323289275169373,0.2515358626842499,0.6808421611785889,1.6768569705317982e-06,0.0,0.0,0.0,1.9439900977877376e-06,0.0,0.0,0.0,5.6072852939952934e-05,-0.014430582523345947,0.004537605214864016,0.05654600262641907,0.01,0.0,0.0,0.0,0.01,0.0,0.0,0.0,0.01,0.07590258121490479,0.27301979064941406,-0.06735187768936157,0.01,0.0,0.0,0.0,0.01,0.0,0.0,0.0,0.01
1700026355.9487216,38705,1700026355,934924288,sensor_wgs84,0.6682132482528687,0.16306355595588684,0.2517455518245697,0.6808270812034607,1.6768569705317982e-06,0.0,0.0,0.0,1.9439900977877376e-06,0.0,0.0,0.0,5.6072852939952934e-05,-0.011806238442659378,0.005041613709181547,0.03928564488887787,0.01,0.0,0.0,0.0,0.01,0.0,0.0,0.0,0.01,0.16928696632385254,0.38994407653808594,0.05843383073806763,0.01,0.0,0.0,0.0,0.01,0.0,0.0,0.0,0.01
1700026355.9616659,38706,1700026355,944939264,sensor_wgs84,0.6682133078575134,0.16294457018375397,0.2518635392189026,0.6808118224143982,1.6768569705317982e-06,0.0,0.0,0.0,1.9439900977877376e-06,0.0,0.0,0.0,5.6072852939952934e-05,-0.005530145950615406,-0.003523140912875533,0.027845915406942368,0.01,0.0,0.0,0.0,0.01,0.0,0.0,0.0,0.01,0.1690225601196289,0.3246479034423828,-0.09673339128494263,0.01,0.0,0.0,0.0,0.01,0.0,0.0,0.0,0.01
1700026355.9738104,38707,1700026355,954957312,sensor_wgs84,0.6682392954826355,0.1627936065196991,0.25188225507736206,0.6808155179023743,1.6768569705317982e-06,0.0,0.0,0.0,1.9439900977877376e-06,0.0,0.0,0.0,5.6072852939952934e-05,-0.007607039995491505,-0.035035114735364914,0.021104339510202408,0.01,0.0,0.0,0.0,0.01,0.0,0.0,0.0,0.01,0.1679452657699585,0.3097095489501953,-0.16256994009017944,0.01,0.0,0.0,0.0,0.01,0.0,0.0,0.0,0.01
1700026355.9801745,38708,1700026355,964970752,sensor_wgs84,0.6682964563369751,0.16254206001758575,0.2517702281475067,0.6808609962463379,1.6768569705317982e-06,0.0,0.0,0.0,1.9439900977877376e-06,0.0,0.0,0.0,5.6072852939952934e-05,-0.008883985690772533,-0.06490083783864975,0.013345981016755104,0.01,0.0,0.0,0.0,0.01,0.0,0.0,0.0,0.01,0.15976840257644653,0.31568336486816406,-0.14559108018875122,0.01,0.0,0.0,0.0,0.01,0.0,0.0,0.0,0.01
1700026355.992544,38709,1700026355,974986240,sensor_wgs84,0.6683791875839233,0.1621880829334259,0.2515508830547333,0.6809453368186951,1.6768569705317982e-06,0.0,0.0,0.0,1.9439900977877376e-06,0.0,0.0,0.0,5.6072852939952934e-05,-0.012143945321440697,-0.10482493042945862,0.019384203478693962,0.01,0.0,0.0,0.0,0.01,0.0,0.0,0.0,0.01,0.10866105556488037,0.25673484802246094,-0.2085282802581787,0.01,0.0,0.0,0.0,0.01,0.0,0.0,0.0,0.01
1700026356.0030563,38710,1700026355,985003264,sensor_wgs84,0.6685308218002319,0.161673441529274,0.2512721121311188,0.6810217499732971,1.6768569705317982e-06,0.0,0.0,0.0,1.9439900977877376e-06,0.0,0.0,0.0,5.6072852939952934e-05,-0.0011960285482928157,-0.1314915120601654,0.048889972269535065,0.01,0.0,0.0,0.0,0.01,0.0,0.0,0.0,0.01,0.0202176570892334,0.1924600601196289,-0.1849726438522339,0.01,0.0,0.0,0.0,0.01,0.0,0.0,0.0,0.01
1700026356.0105,38711,1700026355,995017216,sensor_wgs84,0.6687607765197754,0.1609916239976883,0.2509728968143463,0.6810677647590637,1.6768569705317982e-06,0.0,0.0,0.0,1.9439900977877376e-06,0.0,0.0,0.0,5.6072852939952934e-05,0.0031396837439388037,-0.15403594076633453,0.05733206495642662,0.01,0.0,0.0,0.0,0.01,0.0,0.0,0.0,0.01,-0.05059611797332764,0.3939399719238281,-0.06216615438461304,0.01,0.0,0.0,0.0,0.01,0.0,0.0,0.0,0.01
1700026356.0227637,38712,1700026356,5032704,sensor_wgs84,0.6690437197685242,0.16027359664440155,0.25061485171318054,0.6810911893844604,1.6768569705317982e-06,0.0,0.0,0.0,1.9439900977877376e-06,0.0,0.0,0.0,5.6072852939952934e-05,0.013848239555954933,-0.16582544147968292,0.05206473544239998,0.01,0.0,0.0,0.0,0.01,0.0,0.0,0.0,0.01,-0.1534717082977295,0.45543384552001953,0.12461119890213013,0.01,0.0,0.0,0.0,0.01,0.0,0.0,0.0,0.01
1700026356.0338652,38713,1700026356,15048960,sensor_wgs84,0.669334352016449,0.15962786972522736,0.2502100169658661,0.6811060905456543,1.6768569705317982e-06,0.0,0.0,0.0,1.9439900977877376e-06,0.0,0.0,0.0,5.6072852939952934e-05,0.02184552699327469,-0.14617286622524261,0.02976229414343834,0.01,0.0,0.0,0.0,0.01,0.0,0.0,0.0,0.01,-0.20646929740905762,0.4689035415649414,0.2425662875175476,0.01,0.0,0.0,0.0,0.01,0.0,0.0,0.0,0.01
1700026356.0397959,38714,1700026356,25061888,sensor_wgs84,0.6695839166641235,0.15913836658000946,0.2497718185186386,0.6811361312866211,1.6768569705317982e-06,0.0,0.0,0.0,1.9439900977877376e-06,0.0,0.0,0.0,5.6072852939952934e-05,0.019242113456130028,-0.123442642390728,-0.002519052941352129,0.01,0.0,0.0,0.0,0.01,0.0,0.0,0.0,0.01,-0.27365028858184814,0.41065120697021484,0.3460314869880676,0.01,0.0,0.0,0.0,0.01,0.0,0.0,0.0,0.01
1700026356.0511787,38715,1700026356,35076608,sensor_wgs84,0.6697643995285034,0.15883566439151764,0.24933966994285583,0.681187629699707,1.6768569705317982e-06,0.0,0.0,0.0,1.9439900977877376e-06,0.0,0.0,0.0,5.6072852939952934e-05,0.01609361730515957,-0.09189379215240479,-0.02514222450554371,0.01,0.0,0.0,0.0,0.01,0.0,0.0,0.0,0.01,-0.2337641716003418,0.31172657012939453,0.44760680198669434,0.01,0.0,0.0,0.0,0.01,0.0,0.0,0.0,0.01
1700026356.0640466,38716,1700026356,45094400,sensor_wgs84,0.6698735952377319,0.15873487293720245,0.24897518754005432,0.6812370419502258,1.6768569705317982e-06,0.0,0.0,0.0,1.9439900977877376e-06,0.0,0.0,0.0,5.6072852939952934e-05,0.011140289716422558,-0.049002863466739655,-0.03971398249268532,0.01,0.0,0.0,0.0,0.01,0.0,0.0,0.0,0.01,-0.23079025745391846,0.23012638092041016,0.3419569432735443,0.01,0.0,0.0,0.0,0.01,0.0,0.0,0.0,0.01
1700026356.0691385,38717,1700026356,55107328,sensor_wgs84,0.6699373126029968,0.15878161787986755,0.24869370460510254,0.6812664270401001,1.6768569705317982e-06,0.0,0.0,0.0,1.9439900977877376e-06,0.0,0.0,0.0,5.6072852939952934e-05,0.01915508136153221,-0.019414715468883514,-0.04578690603375435,0.01,0.0,0.0,0.0,0.01,0.0,0.0,0.0,0.01,-0.18096923828125,0.10973548889160156,0.2805604338645935,0.01,0.0,0.0,0.0,0.01,0.0,0.0,0.0,0.01
1700026356.0819628,38718,1700026356,65122816,sensor_wgs84,0.6700119376182556,0.1589290350675583,0.24850037693977356,0.6812292337417603,1.6851835720334236e-06,0.0,0.0,0.0,1.9534557594320115e-06,0.0,0.0,0.0,5.614591450314233e-05,0.0372069887816906,0.0030170935206115246,-0.03526068478822708,0.01,0.0,0.0,0.0,0.01,0.0,0.0,0.0,0.01,-0.15219712257385254,-0.08017539978027344,0.07299843430519104,0.01,0.0,0.0,0.0,0.01,0.0,0.0,0.0,0.01
1700026356.0993545,38719,1700026356,75145984,sensor_wgs84,0.6700970530509949,0.15906880795955658,0.24839822947978973,0.6811501383781433,1.6851835720334236e-06,0.0,0.0,0.0,1.9534557594320115e-06,0.0,0.0,0.0,5.614591450314233e-05,0.033238641917705536,0.0041814157739281654,-0.01686849817633629,0.01,0.0,0.0,0.0,0.01,0.0,0.0,0.0,0.01,-0.10635888576507568,-0.12959575653076172,-0.18029743432998657,0.01,0.0,0.0,0.0,0.01,0.0,0.0,0.0,0.01
1700026356.1049414,38720,1700026356,85160704,sensor_wgs84,0.6702244281768799,0.1590884029865265,0.2483159750699997,0.6810502409934998,1.6851835720334236e-06,0.0,0.0,0.0,1.9534557594320115e-06,0.0,0.0,0.0,5.614591450314233e-05,0.027467405423521996,-0.015188006684184074,-0.01142102014273405,0.01,0.0,0.0,0.0,0.01,0.0,0.0,0.0,0.01,-0.09857690334320068,-0.1751413345336914,-0.24645650386810303,0.01,0.0,0.0,0.0,0.01,0.0,0.0,0.0,0.01
1700026356.1111102,38721,1700026356,95174912,sensor_wgs84,0.670378565788269,0.15886780619621277,0.24796679615974426,0.6810771226882935,1.6851835720334236e-06,0.0,0.0,0.0,1.9534557594320115e-06,0.0,0.0,0.0,5.614591450314233e-05,0.016857055947184563,-0.03348851576447487,-0.010063864290714264,0.01,0.0,0.0,0.0,0.01,0.0,0.0,0.0,0.01,-0.08300328254699707,-0.19973468780517578,-0.10155034065246582,0.01,0.0,0.0,0.0,0.01,0.0,0.0,0.0,0.01
1700026356.1240613,38722,1700026356,105192192,sensor_wgs84,0.6704633235931396,0.158780038356781,0.24778631329536438,0.6810799837112427,1.6851835720334236e-06,0.0,0.0,0.0,1.9534557594320115e-06,0.0,0.0,0.0,5.614591450314233e-05,0.009224816225469112,-0.04246697574853897,-0.009933359920978546,0.01,0.0,0.0,0.0,0.01,0.0,0.0,0.0,0.01,-0.07362675666809082,-0.17159748077392578,-0.028058290481567383,0.01,0.0,0.0,0.0,0.01,0.0,0.0,0.0,0.01
1700026356.135917,38723,1700026356,115211520,sensor_wgs84,0.6705101132392883,0.15865707397460938,0.2475857138633728,0.6811355352401733,1.6851835720334236e-06,0.0,0.0,0.0,1.9534557594320115e-06,0.0,0.0,0.0,5.614591450314233e-05,-0.007354504428803921,-0.050866082310676575,-0.00486804498359561,0.01,0.0,0.0,0.0,0.01,0.0,0.0,0.0,0.01,-0.12371385097503662,-0.1651477813720703,0.034691065549850464,0.01,0.0,0.0,0.0,0.01,0.0,0.0,0.0,0.01
1700026356.146829,38724,1700026356,125227520,sensor_wgs84,0.6705499887466431,0.1584785133600235,0.24737799167633057,0.6812132596969604,1.6851835720334236e-06,0.0,0.0,0.0,1.9534557594320115e-06,0.0,0.0,0.0,5.614591450314233e-05,-0.003825642168521881,-0.06425715237855911,0.0009193039732053876,0.01,0.0,0.0,0.0,0.01,0.0,0.0,0.0,0.01,-0.20559096336364746,-0.2015552520751953,0.10219451785087585,0.01,0.0,0.0,0.0,0.01,0.0,0.0,0.0,0.01
1700026356.1562793,38725,1700026356,135245056,sensor_wgs84,0.6706043481826782,0.15822668373584747,0.2471727430820465,0.6812927722930908,1.6851835720334236e-06,0.0,0.0,0.0,1.9534557594320115e-06,0.0,0.0,0.0,5.614591450314233e-05,-0.00831074919551611,-0.06647012382745743,0.006631556898355484,0.01,0.0,0.0,0.0,0.01,0.0,0.0,0.0,0.01,-0.24291646480560303,-0.14799785614013672,0.2569613456726074,0.01,0.0,0.0,0.0,0.01,0.0,0.0,0.0,0.01
1700026356.160282,38726,1700026356,145258240,sensor_wgs84,0.6706354022026062,0.1579849272966385,0.24700221419334412,0.6813802123069763,1.6851835720334236e-06,0.0,0.0,0.0,1.9534557594320115e-06,0.0,0.0,0.0,5.614591450314233e-05,-0.01857510581612587,-0.052904162555933,0.0032973522320389748,0.01,0.0,0.0,0.0,0.01,0.0,0.0,0.0,0.01,-0.32751643657684326,-0.07641410827636719,0.3626691401004791,0.01,0.0,0.0,0.0,0.01,0.0,0.0,0.0,0.01
1700026356.1710305,38727,1700026356,155273472,sensor_wgs84,0.670619547367096,0.15781694650650024,0.24686764180660248,0.6814833879470825,1.6851835720334236e-06,0.0,0.0,0.0,1.9534557594320115e-06,0.0,0.0,0.0,5.614591450314233e-05,-0.020812947303056717,-0.03495769947767258,-0.0091886967420578,0.01,0.0,0.0,0.0,0.01,0.0,0.0,0.0,0.01,-0.36902308464050293,-0.05507469177246094,0.5142203569412231,0.01,0.0,0.0,0.0,0.01,0.0,0.0,0.0,0.01
1700026356.1847038,38728,1700026356,165290496,sensor_wgs84,0.6705711483955383,0.15776532888412476,0.2468000203371048,0.6815674901008606,1.6851835720334236e-06,0.0,0.0,0.0,1.9534557594320115e-06,0.0,0.0,0.0,5.614591450314233e-05,-0.018502887338399887,-0.0020942934788763523,-0.00897936336696148,0.01,0.0,0.0,0.0,0.01,0.0,0.0,0.0,0.01,-0.43231451511383057,-0.17098522186279297,0.4878964126110077,0.01,0.0,0.0,0.0,0.01,0.0,0.0,0.0,0.01
1700026356.190955,38729,1700026356,175303680,sensor_wgs84,0.6704797744750977,0.15781573951244354,0.2468090057373047,0.6816425323486328,1.6851835720334236e-06,0.0,0.0,0.0,1.9534557594320115e-06,0.0,0.0,0.0,5.614591450314233e-05,-0.024234633892774582,0.01576842926442623,-0.01551220566034317,0.01,0.0,0.0,0.0,0.01,0.0,0.0,0.0,0.01,-0.4810997247695923,-0.18716144561767578,0.20767897367477417,0.01,0.0,0.0,0.0,0.01,0.0,0.0,0.0,0.01
1700026356.200211,38730,1700026356,185317632,sensor_wgs84,0.6703489422798157,0.15789839625358582,0.24683554470539093,0.6817423701286316,1.6851835720334236e-06,0.0,0.0,0.0,1.9534557594320115e-06,0.0,0.0,0.0,5.614591450314233e-05,-0.0349484384059906,0.020232370123267174,-0.01771198771893978,0.01,0.0,0.0,0.0,0.01,0.0,0.0,0.0,0.01,-0.47678065299987793,-0.22658443450927734,0.11145219206809998,0.01,0.0,0.0,0.0,0.01,0.0,0.0,0.0,0.01
1700026356.2161798,38731,1700026356,195333888,sensor_wgs84,0.6701861023902893,0.1579926609992981,0.2468867301940918,0.6818620562553406,1.6851835720334236e-06,0.0,0.0,0.0,1.9534557594320115e-06,0.0,0.0,0.0,5.614591450314233e-05,-0.03526095300912857,0.03486309200525284,-0.016217928379774094,0.01,0.0,0.0,0.0,0.01,0.0,0.0,0.0,0.01,-0.40936410427093506,-0.2037792205810547,0.13722822070121765,0.01,0.0,0.0,0.0,0.01,0.0,0.0,0.0,0.01
1700026356.2202442,38732,1700026356,205346560,sensor_wgs84,0.6699907779693604,0.158118337392807,0.24699288606643677,0.6819864511489868,1.6851835720334236e-06,0.0,0.0,0.0,1.9534557594320115e-06,0.0,0.0,0.0,5.614591450314233e-05,-0.04425728693604469,0.04202030599117279,-0.017253242433071136,0.01,0.0,0.0,0.0,0.01,0.0,0.0,0.0,0.01,-0.31052327156066895,-0.1208486557006836,0.0781407356262207,0.01,0.0,0.0,0.0,0.01,0.0,0.0,0.0,0.01
1700026356.230732,38733,1700026356,215361280,sensor_wgs84,0.6697723269462585,0.15828023850917816,0.24710404872894287,0.6821232438087463,1.6851835720334236e-06,0.0,0.0,0.0,1.9534557594320115e-06,0.0,0.0,0.0,5.614591450314233e-05,-0.047608550637960434,0.044705454260110855,-0.0261598639190197,0.01,0.0,0.0,0.0,0.01,0.0,0.0,0.0,0.01,-0.2334820032119751,-0.09980392456054688,0.011727094650268555,0.01,0.0,0.0,0.0,0.01,0.0,0.0,0.0,0.01
1700026356.243604,38734,1700026356,225378048,sensor_wgs84,0.6695505380630493,0.1584399938583374,0.24718840420246124,0.682273268699646,1.6851835720334236e-06,0.0,0.0,0.0,1.9534557594320115e-06,0.0,0.0,0.0,5.614591450314233e-05,-0.041198041290044785,0.03209463506937027,-0.023995934054255486,0.01,0.0,0.0,0.0,0.01,0.0,0.0,0.0,0.01,-0.1688094139099121,-0.06326484680175781,-0.06895452737808228,0.01,0.0,0.0,0.0,0.01,0.0,0.0,0.0,0.01
1700026356.2509477,38735,1700026356,235390208,sensor_wgs84,0.6693511605262756,0.15858593583106995,0.24721384048461914,0.6824257969856262,1.6851835720334236e-06,0.0,0.0,0.0,1.9534557594320115e-06,0.0,0.0,0.0,5.614591450314233e-05,-0.0389053076505661,0.021747158840298653,-0.03645256906747818,0.01,0.0,0.0,0.0,0.01,0.0,0.0,0.0,0.01,-0.1201474666595459,-0.05044746398925781,-0.10445833206176758,0.01,0.0,0.0,0.0,0.01,0.0,0.0,0.0,0.01
1700026356.260879,38736,1700026356,245404160,sensor_wgs84,0.6691623330116272,0.1587311029434204,0.24717772006988525,0.6825902462005615,1.6851835720334236e-06,0.0,0.0,0.0,1.9534557594320115e-06,0.0,0.0,0.0,5.614591450314233e-05,-0.0339418388903141,0.015250606462359428,-0.040640752762556076,0.01,0.0,0.0,0.0,0.01,0.0,0.0,0.0,0.01,-0.07023155689239502,-0.042397499084472656,-0.09110903739929199,0.01,0.0,0.0,0.0,0.01,0.0,0.0,0.0,0.01
1700026356.2729678,38737,1700026356,255420928,sensor_wgs84,0.6689596772193909,0.15890969336032867,0.24710184335708618,0.6827748417854309,1.6851835720334236e-06,0.0,0.0,0.0,1.9534557594320115e-06,0.0,0.0,0.0,5.614591450314233e-05,-0.04297017306089401,0.021565882489085197,-0.059038933366537094,0.01,0.0,0.0,0.0,0.01,0.0,0.0,0.0,0.01,-0.022975444793701172,-0.030287742614746094,-0.021554291248321533,0.01,0.0,0.0,0.0,0.01,0.0,0.0,0.0,0.01
1700026356.2798374,38738,1700026356,265434112,sensor_wgs84,0.6687262058258057,0.15911848843097687,0.24702443182468414,0.6829829216003418,1.675457696880911e-06,0.0,0.0,0.0,1.944978068985659e-06,0.0,0.0,0.0,5.607366889061349e-05,-0.05328800529241562,0.027636779472231865,-0.06138787418603897,0.01,0.0,0.0,0.0,0.01,0.0,0.0,0.0,0.01,-0.022223949432373047,-0.03596687316894531,-0.04565393924713135,0.01,0.0,0.0,0.0,0.01,0.0,0.0,0.0,0.01
1700026356.2924354,38739,1700026356,275449344,sensor_wgs84,0.6684695482254028,0.15933138132095337,0.2469666749238968,0.6832053065299988,1.675457696880911e-06,0.0,0.0,0.0,1.944978068985659e-06,0.0,0.0,0.0,5.607366889061349e-05,-0.053350869566202164,0.027144834399223328,-0.05007198452949524,0.01,0.0,0.0,0.0,0.01,0.0,0.0,0.0,0.01,0.002784252166748047,-0.033631324768066406,-0.09312570095062256,0.01,0.0,0.0,0.0,0.01,0.0,0.0,0.0,0.01
1700026356.3044887,38740,1700026356,285466624,sensor_wgs84,0.6682339906692505,0.15952816605567932,0.2469417005777359,0.6833988428115845,1.675457696880911e-06,0.0,0.0,0.0,1.944978068985659e-06,0.0,0.0,0.0,5.607366889061349e-05,-0.046829916536808014,0.02327718585729599,-0.0363919734954834,0.01,0.0,0.0,0.0,0.01,0.0,0.0,0.0,0.01,-0.0047141313552856445,-0.09534835815429688,-0.11024701595306396,0.01,0.0,0.0,0.0,0.01,0.0,0.0,0.0,0.01
1700026356.3099473,38741,1700026356,295479296,sensor_wgs84,0.6680440306663513,0.15965035557746887,0.24696333706378937,0.6835482120513916,1.675457696880911e-06,0.0,0.0,0.0,1.944978068985659e-06,0.0,0.0,0.0,5.607366889061349e-05,-0.0344717763364315,0.017605870962142944,-0.018361510708928108,0.01,0.0,0.0,0.0,0.01,0.0,0.0,0.0,0.01,0.02071666717529297,-0.05441093444824219,-0.03900212049484253,0.01,0.0,0.0,0.0,0.01,0.0,0.0,0.0,0.01
1700026356.3230653,38742,1700026356,305494016,sensor_wgs84,0.6678906679153442,0.1597183793783188,0.2470279335975647,0.6836588382720947,1.675457696880911e-06,0.0,0.0,0.0,1.944978068985659e-06,0.0,0.0,0.0,5.607366889061349e-05,-0.03375966474413872,0.021209364756941795,-0.004754102788865566,0.01,0.0,0.0,0.0,0.01,0.0,0.0,0.0,0.01,0.05145537853240967,0.028038978576660156,0.00997859239578247,0.01,0.0,0.0,0.0,0.01,0.0,0.0,0.0,0.01
1700026356.3328521,38743,1700026356,315510528,sensor_wgs84,0.6677287817001343,0.15977059304714203,0.24714241921901703,0.683763325214386,1.675457696880911e-06,0.0,0.0,0.0,1.944978068985659e-06,0.0,0.0,0.0,5.607366889061349e-05,-0.04185523837804794,0.029763538390398026,-0.0010831556282937527,0.01,0.0,0.0,0.0,0.01,0.0,0.0,0.0,0.01,0.089377760887146,0.1303730010986328,0.0729973316192627,0.01,0.0,0.0,0.0,0.01,0.0,0.0,0.0,0.01
1700026356.3385596,38744,1700026356,325522432,sensor_wgs84,0.6675315499305725,0.1598413735628128,0.24726328253746033,0.6838957071304321,1.675457696880911e-06,0.0,0.0,0.0,1.944978068985659e-06,0.0,0.0,0.0,5.607366889061349e-05,-0.046434663236141205,0.03661254048347473,-0.006483595352619886,0.01,0.0,0.0,0.0,0.01,0.0,0.0,0.0,0.01,0.07862544059753418,0.10817527770996094,0.08719316124916077,0.01,0.0,0.0,0.0,0.01,0.0,0.0,0.0,0.01
1700026356.3510516,38745,1700026356,335536128,sensor_wgs84,0.6673473119735718,0.1598597764968872,0.24742621183395386,0.6840122938156128,1.675457696880911e-06,0.0,0.0,0.0,1.944978068985659e-06,0.0,0.0,0.0,5.607366889061349e-05,-0.048835791647434235,0.03559441491961479,-0.004920839797705412,0.01,0.0,0.0,0.0,0.01,0.0,0.0,0.0,0.01,0.10342323780059814,0.1330547332763672,0.0928773283958435,0.01,0.0,0.0,0.0,0.01,0.0,0.0,0.0,0.01
1700026356.3639529,38746,1700026356,345551872,sensor_wgs84,0.6671781539916992,0.15976957976818085,0.2473786175251007,0.6842154860496521,1.675457696880911e-06,0.0,0.0,0.0,1.944978068985659e-06,0.0,0.0,0.0,5.607366889061349e-05,-0.04973474144935608,0.0437425896525383,-0.002843495225533843,0.01,0.0,0.0,0.0,0.01,0.0,0.0,0.0,0.01,0.08219623565673828,0.11388683319091797,0.05737584829330444,0.01,0.0,0.0,0.0,0.01,0.0,0.0,0.0,0.01
1700026356.3738835,38747,1700026356,355564288,sensor_wgs84,0.6669549345970154,0.15989068150520325,0.24755430221557617,0.684341311454773,1.675457696880911e-06,0.0,0.0,0.0,1.944978068985659e-06,0.0,0.0,0.0,5.607366889061349e-05,-0.042919132858514786,0.0470648892223835,-0.009183036163449287,0.01,0.0,0.0,0.0,0.01,0.0,0.0,0.0,0.01,0.07556748390197754,0.15285778045654297,0.023536384105682373,0.01,0.0,0.0,0.0,0.01,0.0,0.0,0.0,0.01
1700026356.3827147,38748,1700026356,365579776,sensor_wgs84,0.6667559146881104,0.16003915667533875,0.2476906031370163,0.6844512224197388,1.675457696880911e-06,0.0,0.0,0.0,1.944978068985659e-06,0.0,0.0,0.0,5.607366889061349e-05,-0.03742485120892525,0.045068129897117615,-0.02651778981089592,0.01,0.0,0.0,0.0,0.01,0.0,0.0,0.0,0.01,0.07319104671478271,0.18897247314453125,0.05209708213806152,0.01,0.0,0.0,0.0,0.01,0.0,0.0,0.0,0.01
1700026356.39471,38749,1700026356,375597056,sensor_wgs84,0.6665471792221069,0.1602483093738556,0.24776765704154968,0.6845777034759521,1.675457696880911e-06,0.0,0.0,0.0,1.944978068985659e-06,0.0,0.0,0.0,5.607366889061349e-05,-0.039754875004291534,0.047119248658418655,-0.038955722004175186,0.01,0.0,0.0,0.0,0.01,0.0,0.0,0.0,0.01,0.08140957355499268,0.14828014373779297,0.08711087703704834,0.01,0.0,0.0,0.0,0.01,0.0,0.0,0.0,0.01
1700026356.4037762,38750,1700026356,385608704,sensor_wgs84,0.666324257850647,0.16052250564098358,0.24780018627643585,0.6847186088562012,1.675457696880911e-06,0.0,0.0,0.0,1.944978068985659e-06,0.0,0.0,0.0,5.607366889061349e-05,-0.03819127753376961,0.050690602511167526,-0.05809194967150688,0.01,0.0,0.0,0.0,0.01,0.0,0.0,0.0,0.01,0.10819178819656372,0.10458946228027344,0.0241507887840271,0.01,0.0,0.0,0.0,0.01,0.0,0.0,0.0,0.01
1700026356.4137535,38751,1700026356,395623424,sensor_wgs84,0.6661102771759033,0.16081355512142181,0.2477630078792572,0.6848719716072083,1.675457696880911e-06,0.0,0.0,0.0,1.944978068985659e-06,0.0,0.0,0.0,5.607366889061349e-05,-0.028290819376707077,0.036257367581129074,-0.060869667679071426,0.01,0.0,0.0,0.0,0.01,0.0,0.0,0.0,0.01,0.09780830144882202,0.03319072723388672,0.03640705347061157,0.01,0.0,0.0,0.0,0.01,0.0,0.0,0.0,0.01
1700026356.425169,38752,1700026356,405640448,sensor_wgs84,0.6659486293792725,0.16108058393001556,0.24765121936798096,0.685006856918335,1.675457696880911e-06,0.0,0.0,0.0,1.944978068985659e-06,0.0,0.0,0.0,5.607366889061349e-05,-0.013578003272414207,0.016165360808372498,-0.06411691009998322,0.01,0.0,0.0,0.0,0.01,0.0,0.0,0.0,0.01,0.11085325479507446,0.004596710205078125,-7.987022399902344e-05,0.01,0.0,0.0,0.0,0.01,0.0,0.0,0.0,0.01
1700026356.4326832,38753,1700026356,415653632,sensor_wgs84,0.6658153533935547,0.16131354868412018,0.2474474012851715,0.6851552724838257,1.675457696880911e-06,0.0,0.0,0.0,1.944978068985659e-06,0.0,0.0,0.0,5.607366889061349e-05,-0.02396898902952671,-0.003907989710569382,-0.07698706537485123,0.01,0.0,0.0,0.0,0.01,0.0,0.0,0.0,0.01,0.13103389739990234,0.021401405334472656,0.007950127124786377,0.01,0.0,0.0,0.0,0.01,0.0,0.0,0.0,0.01
1700026356.4433029,38754,1700026356,425668864,sensor_wgs84,0.6656696796417236,0.16152378916740417,0.24713115394115448,0.685361385345459,1.675457696880911e-06,0.0,0.0,0.0,1.944978068985659e-06,0.0,0.0,0.0,5.607366889061349e-05,-0.03640338033437729,-0.02167237363755703,-0.0943835973739624,0.01,0.0,0.0,0.0,0.01,0.0,0.0,0.0,0.01,0.12951576709747314,0.011138916015625,0.0640329122543335,0.01,0.0,0.0,0.0,0.01,0.0,0.0,0.0,0.01
1700026356.459938,38755,1700026356,435691264,sensor_wgs84,0.6654965877532959,0.1617075651884079,0.24671505391597748,0.685636043548584,1.675457696880911e-06,0.0,0.0,0.0,1.944978068985659e-06,0.0,0.0,0.0,5.607366889061349e-05,-0.0404772013425827,-0.03610379993915558,-0.10894989222288132,0.01,0.0,0.0,0.0,0.01,0.0,0.0,0.0,0.01,0.12060689926147461,-0.06656169891357422,0.09426724910736084,0.01,0.0,0.0,0.0,0.01,0.0,0.0,0.0,0.01
1700026356.46291,38756,1700026356,445704448,sensor_wgs84,0.6653137803077698,0.16187413036823273,0.24626325070858002,0.6859365105628967,1.675457696880911e-06,0.0,0.0,0.0,1.944978068985659e-06,0.0,0.0,0.0,5.607366889061349e-05,-0.04057888314127922,-0.038544684648513794,-0.10174363106489182,0.01,0.0,0.0,0.0,0.01,0.0,0.0,0.0,0.01,0.13103526830673218,-0.12433433532714844,0.12891462445259094,0.01,0.0,0.0,0.0,0.01,0.0,0.0,0.0,0.01
1700026356.471151,38757,1700026356,455718912,sensor_wgs84,0.6651377081871033,0.1620071828365326,0.24583134055137634,0.6862306594848633,1.675457696880911e-06,0.0,0.0,0.0,1.944978068985659e-06,0.0,0.0,0.0,5.607366889061349e-05,-0.041867803782224655,-0.03685736656188965,-0.09795249253511429,0.01,0.0,0.0,0.0,0.01,0.0,0.0,0.0,0.01,0.12878835201263428,-0.05755138397216797,0.08937335014343262,0.01,0.0,0.0,0.0,0.01,0.0,0.0,0.0,0.01
1700026356.4829185,38758,1700026356,465735168,sensor_wgs84,0.6649766564369202,0.1621277779340744,0.2454090416431427,0.6865093111991882,1.6638478272969215e-06,0.0,0.0,0.0,1.9368982423023325e-06,0.0,0.0,0.0,5.598165733428084e-05,-0.03237305209040642,-0.046045683324337006,-0.08985165506601334,0.01,0.0,0.0,0.0,0.01,0.0,0.0,0.0,0.01,0.12234193086624146,-0.0702981948852539,0.0722314715385437,0.01,0.0,0.0,0.0,0.01,0.0,0.0,0.0,0.01
1700026356.48846,38759,1700026356,475746816,sensor_wgs84,0.664865255355835,0.1622070074081421,0.24500037729740143,0.6867445111274719,1.6638478272969215e-06,0.0,0.0,0.0,1.9368982423023325e-06,0.0,0.0,0.0,5.598165733428084e-05,-0.026874057948589325,-0.04941798374056816,-0.07244289666414261,0.01,0.0,0.0,0.0,0.01,0.0,0.0,0.0,0.01,0.08628058433532715,-0.12262916564941406,-0.03914862871170044,0.01,0.0,0.0,0.0,0.01,0.0,0.0,0.0,0.01
1700026356.5009947,38760,1700026356,485760512,sensor_wgs84,0.664803683757782,0.16223318874835968,0.24460579454898834,0.6869385838508606,1.6638478272969215e-06,0.0,0.0,0.0,1.9368982423023325e-06,0.0,0.0,0.0,5.598165733428084e-05,-0.016649508848786354,-0.061541445553302765,-0.062465768307447433,0.01,0.0,0.0,0.0,0.01,0.0,0.0,0.0,0.01,0.06366223096847534,-0.044243812561035156,-0.04041963815689087,0.01,0.0,0.0,0.0,0.01,0.0,0.0,0.0,0.01
1700026356.5130625,38761,1700026356,495775744,sensor_wgs84,0.664789080619812,0.16221973299980164,0.2442045658826828,0.6870985627174377,1.6638478272969215e-06,0.0,0.0,0.0,1.9368982423023325e-06,0.0,0.0,0.0,5.598165733428084e-05,-0.006355029530823231,-0.06026599928736687,-0.059304140508174896,0.01,0.0,0.0,0.0,0.01,0.0,0.0,0.0,0.01,0.06886827945709229,-0.031432151794433594,0.11176490783691406,0.01,0.0,0.0,0.0,0.01,0.0,0.0,0.0,0.01
1700026356.523185,38762,1700026356,505789440,sensor_wgs84,0.6647830009460449,0.1621980518102646,0.24383839964866638,0.6872395873069763,1.6638478272969215e-06,0.0,0.0,0.0,1.9368982423023325e-06,0.0,0.0,0.0,5.598165733428084e-05,-0.010206041857600212,-0.05253619700670242,-0.052738212049007416,0.01,0.0,0.0,0.0,0.01,0.0,0.0,0.0,0.01,0.06051516532897949,-0.06734657287597656,0.14647021889686584,0.01,0.0,0.0,0.0,0.01,0.0,0.0,0.0,0.01
1700026356.5320334,38763,1700026356,515804416,sensor_wgs84,0.6647685766220093,0.16216957569122314,0.243535578250885,0.6873676776885986,1.6638478272969215e-06,0.0,0.0,0.0,1.9368982423023325e-06,0.0,0.0,0.0,5.598165733428084e-05,-0.013103852048516273,-0.04168658331036568,-0.03968271240592003,0.01,0.0,0.0,0.0,0.01,0.0,0.0,0.0,0.01,0.06316167116165161,-0.024773597717285156,0.17739200592041016,0.01,0.0,0.0,0.0,0.01,0.0,0.0,0.0,0.01
1700026356.5497243,38764,1700026356,525826560,sensor_wgs84,0.6647288799285889,0.1621365249156952,0.2433032989501953,0.6874961256980896,1.6638478272969215e-06,0.0,0.0,0.0,1.9368982423023325e-06,0.0,0.0,0.0,5.598165733428084e-05,-0.01895015873014927,-0.034033142030239105,-0.03323111683130264,0.01,0.0,0.0,0.0,0.01,0.0,0.0,0.0,0.01,0.03634977340698242,-0.026006698608398438,0.1492432951927185,0.01,0.0,0.0,0.0,0.01,0.0,0.0,0.0,0.01
1700026356.5515823,38765,1700026356,535839488,sensor_wgs84,0.6646535992622375,0.16210632026195526,0.24311183393001556,0.6876436471939087,1.6638478272969215e-06,0.0,0.0,0.0,1.9368982423023325e-06,0.0,0.0,0.0,5.598165733428084e-05,-0.0373941995203495,-0.028766419738531113,-0.03383883088827133,0.01,0.0,0.0,0.0,0.01,0.0,0.0,0.0,0.01,0.01761072874069214,0.038028717041015625,0.07877606153488159,0.01,0.0,0.0,0.0,0.01,0.0,0.0,0.0,0.01
1700026356.5621436,38766,1700026356,545854208,sensor_wgs84,0.6645290851593018,0.1621028631925583,0.24291475117206573,0.6878343820571899,1.6638478272969215e-06,0.0,0.0,0.0,1.9368982423023325e-06,0.0,0.0,0.0,5.598165733428084e-05,-0.03899407759308815,-0.026514748111367226,-0.0461505725979805,0.01,0.0,0.0,0.0,0.01,0.0,0.0,0.0,0.01,0.025378525257110596,0.1340961456298828,0.07377326488494873,0.01,0.0,0.0,0.0,0.01,0.0,0.0,0.0,0.01
1700026356.5739212,38767,1700026356,555870976,sensor_wgs84,0.6643543839454651,0.16212427616119385,0.24269963800907135,0.6880740523338318,1.6638478272969215e-06,0.0,0.0,0.0,1.9368982423023325e-06,0.0,0.0,0.0,5.598165733428084e-05,-0.050704024732112885,-0.025230761617422104,-0.04725375398993492,0.01,0.0,0.0,0.0,0.01,0.0,0.0,0.0,0.01,0.016791582107543945,0.08210563659667969,0.0017569661140441895,0.01,0.0,0.0,0.0,0.01,0.0,0.0,0.0,0.01
1700026356.5868807,38768,1700026356,565887744,sensor_wgs84,0.6641966700553894,0.16213178634643555,0.24248193204402924,0.6883013248443604,1.6638478272969215e-06,0.0,0.0,0.0,1.9368982423023325e-06,0.0,0.0,0.0,5.598165733428084e-05,-0.04610240459442139,-0.029191602021455765,-0.04706636443734169,0.01,0.0,0.0,0.0,0.01,0.0,0.0,0.0,0.01,-0.023085832595825195,0.005190849304199219,-0.09285551309585571,0.01,0.0,0.0,0.0,0.01,0.0,0.0,0.0,0.01
1700026356.591643,38769,1700026356,575902464,sensor_wgs84,0.6640734672546387,0.16209279000759125,0.24231572449207306,0.6884878873825073,1.6638478272969215e-06,0.0,0.0,0.0,1.9368982423023325e-06,0.0,0.0,0.0,5.598165733428084e-05,-0.0296573918312788,-0.031273435801267624,-0.023709312081336975,0.01,0.0,0.0,0.0,0.01,0.0,0.0,0.0,0.01,0.0005642175674438477,0.052840232849121094,-0.04402393102645874,0.01,0.0,0.0,0.0,0.01,0.0,0.0,0.0,0.01
1700026356.603967,38770,1700026356,585919232,sensor_wgs84,0.6639955639839172,0.16204798221588135,0.2421548068523407,0.6886301040649414,1.6638478272969215e-06,0.0,0.0,0.0,1.9368982423023325e-06,0.0,0.0,0.0,5.598165733428084e-05,-0.027502918615937233,-0.018729131668806076,-0.010510420426726341,0.01,0.0,0.0,0.0,0.01,0.0,0.0,0.0,0.01,0.021675467491149902,0.16167068481445312,0.0425223708152771,0.01,0.0,0.0,0.0,0.01,0.0,0.0,0.0,0.01
1700026356.6107955,38771,1700026356,595931648,sensor_wgs84,0.6639780402183533,0.1618107557296753,0.2418452948331833,0.6888115406036377,1.6638478272969215e-06,0.0,0.0,0.0,1.9368982423023325e-06,0.0,0.0,0.0,5.598165733428084e-05,-0.018877742812037468,-0.01339629851281643,-0.019941290840506554,0.01,0.0,0.0,0.0,0.01,0.0,0.0,0.0,0.01,0.06712573766708374,0.2849740982055664,0.08690458536148071,0.01,0.0,0.0,0.0,0.01,0.0,0.0,0.0,0.01
1700026356.6221833,38772,1700026356,605945600,sensor_wgs84,0.6639173626899719,0.16183321177959442,0.24175862967967987,0.6888952255249023,1.6638478272969215e-06,0.0,0.0,0.0,1.9368982423023325e-06,0.0,0.0,0.0,5.598165733428084e-05,-0.013291017152369022,-0.004888876806944609,-0.023379147052764893,0.01,0.0,0.0,0.0,0.01,0.0,0.0,0.0,0.01,0.07218778133392334,0.271514892578125,0.083160400390625,0.01,0.0,0.0,0.0,0.01,0.0,0.0,0.0,0.01
1700026356.639285,38773,1700026356,615968000,sensor_wgs84,0.6638785004615784,0.1619146168231964,0.24167948961257935,0.6889412999153137,1.6638478272969215e-06,0.0,0.0,0.0,1.9368982423023325e-06,0.0,0.0,0.0,5.598165733428084e-05,-0.004899467341601849,0.000507594901137054,-0.02668531984090805,0.01,0.0,0.0,0.0,0.01,0.0,0.0,0.0,0.01,0.08567756414413452,0.2582874298095703,-0.031701862812042236,0.01,0.0,0.0,0.0,0.01,0.0,0.0,0.0,0.01
1700026356.6409023,38774,1700026356,625982208,sensor_wgs84,0.6638705730438232,0.1620139181613922,0.24158290028572083,0.6889594793319702,1.6638478272969215e-06,0.0,0.0,0.0,1.9368982423023325e-06,0.0,0.0,0.0,5.598165733428084e-05,0.010091652162373066,0.00015705905389040709,-0.02960931695997715,0.01,0.0,0.0,0.0,0.01,0.0,0.0,0.0,0.01,0.13531464338302612,0.2456369400024414,-0.0460086464881897,0.01,0.0,0.0,0.0,0.01,0.0,0.0,0.0,0.01
1700026356.6515086,38775,1700026356,635995648,sensor_wgs84,0.663892924785614,0.1621260792016983,0.24145691096782684,0.6889557242393494,1.6638478272969215e-06,0.0,0.0,0.0,1.9368982423023325e-06,0.0,0.0,0.0,5.598165733428084e-05,0.013877092860639095,-0.008908938616514206,-0.03609956055879593,0.01,0.0,0.0,0.0,0.01,0.0,0.0,0.0,0.01,0.1540219783782959,0.2671022415161133,-0.17982393503189087,0.01,0.0,0.0,0.0,0.01,0.0,0.0,0.0,0.01
1700026356.663128,38776,1700026356,646010880,sensor_wgs84,0.6639414429664612,0.1622176468372345,0.24125774204730988,0.6889570951461792,1.6638478272969215e-06,0.0,0.0,0.0,1.9368982423023325e-06,0.0,0.0,0.0,5.598165733428084e-05,0.022608987987041473,-0.025126921012997627,-0.04238094389438629,0.01,0.0,0.0,0.0,0.01,0.0,0.0,0.0,0.01,0.17918336391448975,0.258331298828125,-0.24283736944198608,0.01,0.0,0.0,0.0,0.01,0.0,0.0,0.0,0.01
1700026356.6760845,38777,1700026356,656027904,sensor_wgs84,0.6640388369560242,0.1622699797153473,0.24097764492034912,0.6889490485191345,1.6638478272969215e-06,0.0,0.0,0.0,1.9368982423023325e-06,0.0,0.0,0.0,5.598165733428084e-05,0.035052284598350525,-0.04453130438923836,-0.04501279443502426,0.01,0.0,0.0,0.0,0.01,0.0,0.0,0.0,0.01,0.18635976314544678,0.24750995635986328,-0.3489115834236145,0.01,0.0,0.0,0.0,0.01,0.0,0.0,0.0,0.01
1700026356.6816661,38778,1700026356,666041856,sensor_wgs84,0.6641705632209778,0.1622907966375351,0.24059651792049408,0.6889503002166748,1.652837130442769e-06,0.0,0.0,0.0,1.9285212623744636e-06,0.0,0.0,0.0,5.589499207866392e-05,0.032641150057315826,-0.06085631251335144,-0.05851523578166962,0.01,0.0,0.0,0.0,0.01,0.0,0.0,0.0,0.01,0.1923656463623047,0.3042182922363281,-0.4050806760787964,0.01,0.0,0.0,0.0,0.01,0.0,0.0,0.0,0.01
1700026356.6939285,38779,1700026356,676058624,sensor_wgs84,0.664293110370636,0.16229192912578583,0.24009037017822266,0.6890084743499756,1.652837130442769e-06,0.0,0.0,0.0,1.9285212623744636e-06,0.0,0.0,0.0,5.589499207866392e-05,0.022760486230254173,-0.0852617397904396,-0.07721498608589172,0.01,0.0,0.0,0.0,0.01,0.0,0.0,0.0,0.01,0.1283896565437317,0.3490428924560547,-0.4008077383041382,0.01,0.0,0.0,0.0,0.01,0.0,0.0,0.0,0.01
1700026356.7069066,38780,1700026356,686077440,sensor_wgs84,0.6644277572631836,0.1622735559940338,0.23945733904838562,0.6891032457351685,1.652837130442769e-06,0.0,0.0,0.0,1.9285212623744636e-06,0.0,0.0,0.0,5.589499207866392e-05,0.026403209194540977,-0.1010175496339798,-0.09044289588928223,0.01,0.0,0.0,0.0,0.01,0.0,0.0,0.0,0.01,0.06435656547546387,0.3321504592895508,-0.2146638035774231,0.01,0.0,0.0,0.0,0.01,0.0,0.0,0.0,0.01
1700026356.711087,38781,1700026356,696090624,sensor_wgs84,0.6646050810813904,0.1622774451971054,0.2387826144695282,0.6891654133796692,1.652837130442769e-06,0.0,0.0,0.0,1.9285212623744636e-06,0.0,0.0,0.0,5.589499207866392e-05,0.04785118252038956,-0.09171539545059204,-0.08630873262882233,0.01,0.0,0.0,0.0,0.01,0.0,0.0,0.0,0.01,0.016302287578582764,0.2977476119995117,-0.010895133018493652,0.01,0.0,0.0,0.0,0.01,0.0,0.0,0.0,0.01
1700026356.7239246,38782,1700026356,706106880,sensor_wgs84,0.6648352146148682,0.16231821477413177,0.23818832635879517,0.6891395449638367,1.652837130442769e-06,0.0,0.0,0.0,1.9285212623744636e-06,0.0,0.0,0.0,5.589499207866392e-05,0.06351574510335922,-0.07384315133094788,-0.07539649307727814,0.01,0.0,0.0,0.0,0.01,0.0,0.0,0.0,0.01,-0.06493371725082397,0.2534904479980469,-0.020172417163848877,0.01,0.0,0.0,0.0,0.01,0.0,0.0,0.0,0.01
1700026356.7360363,38783,1700026356,716124928,sensor_wgs84,0.6651363372802734,0.16239869594573975,0.23770397901535034,0.6889972686767578,1.652837130442769e-06,0.0,0.0,0.0,1.9285212623744636e-06,0.0,0.0,0.0,5.589499207866392e-05,0.08621569722890854,-0.05605999007821083,-0.04890885949134827,0.01,0.0,0.0,0.0,0.01,0.0,0.0,0.0,0.01,-0.11075478792190552,0.20737457275390625,-0.029787421226501465,0.01,0.0,0.0,0.0,0.01,0.0,0.0,0.0,0.01
1700026356.742468,38784,1700026356,726139904,sensor_wgs84,0.6654669642448425,0.16250009834766388,0.23732426762580872,0.6887849569320679,1.652837130442769e-06,0.0,0.0,0.0,1.9285212623744636e-06,0.0,0.0,0.0,5.589499207866392e-05,0.09091158956289291,-0.03315551578998566,-0.042527612298727036,0.01,0.0,0.0,0.0,0.01,0.0,0.0,0.0,0.01,-0.10515451431274414,0.2514781951904297,0.007679283618927002,0.01,0.0,0.0,0.0,0.01,0.0,0.0,0.0,0.01
1700026356.7589018,38785,1700026356,736155136,sensor_wgs84,0.6657782196998596,0.16265524923801422,0.23701639473438263,0.688553512096405,1.652837130442769e-06,0.0,0.0,0.0,1.9285212623744636e-06,0.0,0.0,0.0,5.589499207866392e-05,0.0888124480843544,-0.021582286804914474,-0.0413949079811573,0.01,0.0,0.0,0.0,0.01,0.0,0.0,0.0,0.01,-0.09208709001541138,0.29121875762939453,-0.05174398422241211,0.01,0.0,0.0,0.0,0.01,0.0,0.0,0.0,0.01
1700026356.7642798,38786,1700026356,746172160,sensor_wgs84,0.6660752892494202,0.1628551334142685,0.23673945665359497,0.6883141994476318,1.652837130442769e-06,0.0,0.0,0.0,1.9285212623744636e-06,0.0,0.0,0.0,5.589499207866392e-05,0.08903968334197998,-0.012053009122610092,-0.038736939430236816,0.01,0.0,0.0,0.0,0.01,0.0,0.0,0.0,0.01,-0.10671091079711914,0.2087841033935547,-0.11540299654006958,0.01,0.0,0.0,0.0,0.01,0.0,0.0,0.0,0.01
1700026356.7715633,38787,1700026356,756186112,sensor_wgs84,0.6663895845413208,0.1630360633134842,0.23650407791137695,0.6880480051040649,1.652837130442769e-06,0.0,0.0,0.0,1.9285212623744636e-06,0.0,0.0,0.0,5.589499207866392e-05,0.10201672464609146,-0.01580122858285904,-0.025116417557001114,0.01,0.0,0.0,0.0,0.01,0.0,0.0,0.0,0.01,-0.1846213936805725,0.23041915893554688,-0.2120620608329773,0.01,0.0,0.0,0.0,0.01,0.0,0.0,0.0,0.01
1700026356.7843454,38788,1700026356,766201856,sensor_wgs84,0.6667622923851013,0.16316711902618408,0.23625586926937103,0.6877410411834717,1.652837130442769e-06,0.0,0.0,0.0,1.9285212623744636e-06,0.0,0.0,0.0,5.589499207866392e-05,0.10863034427165985,-0.026810189709067345,-0.024563951417803764,0.01,0.0,0.0,0.0,0.01,0.0,0.0,0.0,0.01,-0.19270825386047363,0.35806751251220703,-0.15431267023086548,0.01,0.0,0.0,0.0,0.01,0.0,0.0,0.0,0.01
1700026356.795847,38789,1700026356,776219392,sensor_wgs84,0.6671664714813232,0.16331236064434052,0.2359665185213089,0.6874139308929443,1.652837130442769e-06,0.0,0.0,0.0,1.9285212623744636e-06,0.0,0.0,0.0,5.589499207866392e-05,0.12212924659252167,-0.02341139316558838,-0.036086540669202805,0.01,0.0,0.0,0.0,0.01,0.0,0.0,0.0,0.01,-0.24165195226669312,0.33736515045166016,-0.03441280126571655,0.01,0.0,0.0,0.0,0.01,0.0,0.0,0.0,0.01
1700026356.801088,38790,1700026356,786232832,sensor_wgs84,0.6675834059715271,0.16352355480194092,0.23567728698253632,0.6870580911636353,1.652837130442769e-06,0.0,0.0,0.0,1.9285212623744636e-06,0.0,0.0,0.0,5.589499207866392e-05,0.12925469875335693,-0.007304718717932701,-0.044251445680856705,0.01,0.0,0.0,0.0,0.01,0.0,0.0,0.0,0.01,-0.2921716570854187,0.3348512649536133,-0.01695340871810913,0.01,0.0,0.0,0.0,0.01,0.0,0.0,0.0,0.01
1700026356.8151293,38791,1700026356,796249088,sensor_wgs84,0.6679835319519043,0.1638285517692566,0.23538057506084442,0.6866981387138367,1.652837130442769e-06,0.0,0.0,0.0,1.9285212623744636e-06,0.0,0.0,0.0,5.589499207866392e-05,0.12884528934955597,0.0005186920752748847,-0.05754466727375984,0.01,0.0,0.0,0.0,0.01,0.0,0.0,0.0,0.01,-0.30793994665145874,0.2892894744873047,0.10519802570343018,0.01,0.0,0.0,0.0,0.01,0.0,0.0,0.0,0.01
1700026356.8252625,38792,1700026356,806267136,sensor_wgs84,0.6683483719825745,0.16423054039478302,0.23511499166488647,0.6863380074501038,1.652837130442769e-06,0.0,0.0,0.0,1.9285212623744636e-06,0.0,0.0,0.0,5.589499207866392e-05,0.13131771981716156,0.02817566506564617,-0.059960782527923584,0.01,0.0,0.0,0.0,0.01,0.0,0.0,0.0,0.01,-0.2984932065010071,0.18799591064453125,0.1151738166809082,0.01,0.0,0.0,0.0,0.01,0.0,0.0,0.0,0.01
1700026356.8306594,38793,1700026356,816280576,sensor_wgs84,0.668701171875,0.16469332575798035,0.2349337786436081,0.6859453916549683,1.652837130442769e-06,0.0,0.0,0.0,1.9285212623744636e-06,0.0,0.0,0.0,5.589499207866392e-05,0.12894782423973083,0.03878393396735191,-0.045843347907066345,0.01,0.0,0.0,0.0,0.01,0.0,0.0,0.0,0.01,-0.31307923793792725,0.16509437561035156,-0.07791227102279663,0.01,0.0,0.0,0.0,0.01,0.0,0.0,0.0,0.01
1700026356.8448734,38794,1700026356,826297088,sensor_wgs84,0.6690804362297058,0.16514988243579865,0.2348019927740097,0.6855107545852661,1.652837130442769e-06,0.0,0.0,0.0,1.9285212623744636e-06,0.0,0.0,0.0,5.589499207866392e-05,0.14006184041500092,0.04663862660527229,-0.03781387582421303,0.01,0.0,0.0,0.0,0.01,0.0,0.0,0.0,0.01,-0.32198649644851685,0.13553333282470703,-0.09228765964508057,0.01,0.0,0.0,0.0,0.01,0.0,0.0,0.0,0.01
1700026356.856682,38795,1700026356,836315904,sensor_wgs84,0.6695398688316345,0.16541436314582825,0.23459266126155853,0.6850699186325073,1.652837130442769e-06,0.0,0.0,0.0,1.9285212623744636e-06,0.0,0.0,0.0,5.589499207866392e-05,0.16135987639427185,0.051874272525310516,-0.028923582285642624,0.01,0.0,0.0,0.0,0.01,0.0,0.0,0.0,0.01,-0.3056279420852661,0.19236278533935547,-0.036959320306777954,0.01,0.0,0.0,0.0,0.01,0.0,0.0,0.0,0.01
1700026356.8619788,38796,1700026356,846330112,sensor_wgs84,0.670016884803772,0.1658647060394287,0.23454998433589935,0.6845090389251709,1.652837130442769e-06,0.0,0.0,0.0,1.9285212623744636e-06,0.0,0.0,0.0,5.589499207866392e-05,0.16248904168605804,0.050978176295757294,-0.027996301651000977,0.01,0.0,0.0,0.0,0.01,0.0,0.0,0.0,0.01,-0.31349146366119385,0.33772850036621094,-0.1293589472770691,0.01,0.0,0.0,0.0,0.01,0.0,0.0,0.0,0.01
1700026356.87305,38797,1700026356,856346112,sensor_wgs84,0.6704956293106079,0.16635040938854218,0.23445703089237213,0.6839540600776672,1.652837130442769e-06,0.0,0.0,0.0,1.9285212623744636e-06,0.0,0.0,0.0,5.589499207866392e-05,0.1699855923652649,0.04611751437187195,-0.044862013310194016,0.01,0.0,0.0,0.0,0.01,0.0,0.0,0.0,0.01,-0.3440173268318176,0.38667964935302734,0.0026246309280395508,0.01,0.0,0.0,0.0,0.01,0.0,0.0,0.0,0.01
1700026356.885055,38798,1700026356,866363648,sensor_wgs84,0.6709653735160828,0.1669243574142456,0.23430489003658295,0.6834054589271545,1.64234633003897e-06,0.0,0.0,0.0,1.920523157631672e-06,0.0,0.0,0.0,5.5811142183611684e-05,0.16937275230884552,0.058458998799324036,-0.07189403474330902,0.01,0.0,0.0,0.0,0.01,0.0,0.0,0.0,0.01,-0.4078526496887207,0.3511829376220703,-0.012186646461486816,0.01,0.0,0.0,0.0,0.01,0.0,0.0,0.0,0.01
1700026356.8924034,38799,1700026356,876378368,sensor_wgs84,0.671385645866394,0.16759034991264343,0.23409715294837952,0.6829006671905518,1.64234633003897e-06,0.0,0.0,0.0,1.920523157631672e-06,0.0,0.0,0.0,5.5811142183611684e-05,0.1566460281610489,0.065306656062603,-0.09558480978012085,0.01,0.0,0.0,0.0,0.01,0.0,0.0,0.0,0.01,-0.42938143014907837,0.3754892349243164,0.021686553955078125,0.01,0.0,0.0,0.0,0.01,0.0,0.0,0.0,0.01
1700026356.9098437,38800,1700026356,886400256,sensor_wgs84,0.6717128753662109,0.16840052604675293,0.23381870985031128,0.6824748516082764,1.64234633003897e-06,0.0,0.0,0.0,1.920523157631672e-06,0.0,0.0,0.0,5.5811142183611684e-05,0.14342889189720154,0.08523603528738022,-0.13274146616458893,0.01,0.0,0.0,0.0,0.01,0.0,0.0,0.0,0.01,-0.3957081437110901,0.40808773040771484,0.22932341694831848,0.01,0.0,0.0,0.0,0.01,0.0,0.0,0.0,0.01
1700026356.9143047,38801,1700026356,896417280,sensor_wgs84,0.6719609498977661,0.169376939535141,0.23350642621517181,0.6820958256721497,1.64234633003897e-06,0.0,0.0,0.0,1.920523157631672e-06,0.0,0.0,0.0,5.5811142183611684e-05,0.14045560359954834,0.10495945811271667,-0.15714439749717712,0.01,0.0,0.0,0.0,0.01,0.0,0.0,0.0,0.01,-0.3917163014411926,0.24390220642089844,0.21189852058887482,0.01,0.0,0.0,0.0,0.01,0.0,0.0,0.0,0.01
1700026356.9208908,38802,1700026356,906430720,sensor_wgs84,0.6721607446670532,0.1704554259777069,0.23321375250816345,0.681730329990387,1.64234633003897e-06,0.0,0.0,0.0,1.920523157631672e-06,0.0,0.0,0.0,5.5811142183611684e-05,0.13060703873634338,0.11295923590660095,-0.16090844571590424,0.01,0.0,0.0,0.0,0.01,0.0,0.0,0.0,0.01,-0.4061148166656494,0.11100959777832031,0.01870328187942505,0.01,0.0,0.0,0.0,0.01,0.0,0.0,0.0,0.01
1700026356.933725,38803,1700026356,916446464,sensor_wgs84,0.6723545789718628,0.171518936753273,0.2329464852809906,0.6813637018203735,1.64234633003897e-06,0.0,0.0,0.0,1.920523157631672e-06,0.0,0.0,0.0,5.5811142183611684e-05,0.13713482022285461,0.11777172237634659,-0.15261545777320862,0.01,0.0,0.0,0.0,0.01,0.0,0.0,0.0,0.01,-0.41822153329849243,0.0065155029296875,0.04632300138473511,0.01,0.0,0.0,0.0,0.01,0.0,0.0,0.0,0.01
1700026356.9456263,38804,1700026356,926464000,sensor_wgs84,0.6725636720657349,0.17255832254886627,0.23272716999053955,0.6809698343276978,1.64234633003897e-06,0.0,0.0,0.0,1.920523157631672e-06,0.0,0.0,0.0,5.5811142183611684e-05,0.13968372344970703,0.12184802442789078,-0.13423633575439453,0.01,0.0,0.0,0.0,0.01,0.0,0.0,0.0,0.01,-0.4148123264312744,-0.10601043701171875,0.09129795432090759,0.01,0.0,0.0,0.0,0.01,0.0,0.0,0.0,0.01
1700026356.9510596,38805,1700026356,936476928,sensor_wgs84,0.6727907657623291,0.173588827252388,0.23258917033672333,0.6805305480957031,1.64234633003897e-06,0.0,0.0,0.0,1.920523157631672e-06,0.0,0.0,0.0,5.5811142183611684e-05,0.1437581479549408,0.1348511278629303,-0.1312382072210312,0.01,0.0,0.0,0.0,0.01,0.0,0.0,0.0,0.01,-0.37887972593307495,-0.046578407287597656,0.18052944540977478,0.01,0.0,0.0,0.0,0.01,0.0,0.0,0.0,0.01
1700026356.965134,38806,1700026356,946491904,sensor_wgs84,0.6729969382286072,0.17468281090259552,0.23249123990535736,0.6800801157951355,1.64234633003897e-06,0.0,0.0,0.0,1.920523157631672e-06,0.0,0.0,0.0,5.5811142183611684e-05,0.14075012505054474,0.151459738612175,-0.1359899491071701,0.01,0.0,0.0,0.0,0.01,0.0,0.0,0.0,0.01,-0.30015891790390015,0.07588481903076172,0.2954869568347931,0.01,0.0,0.0,0.0,0.01,0.0,0.0,0.0,0.01
1700026356.9765816,38807,1700026356,956509952,sensor_wgs84,0.6731501817703247,0.17588983476161957,0.23240531980991364,0.6796464920043945,1.64234633003897e-06,0.0,0.0,0.0,1.920523157631672e-06,0.0,0.0,0.0,5.5811142183611684e-05,0.13613450527191162,0.16043168306350708,-0.15963512659072876,0.01,0.0,0.0,0.0,0.01,0.0,0.0,0.0,0.01,-0.3330881595611572,-0.06795215606689453,0.1574975699186325,0.01,0.0,0.0,0.0,0.01,0.0,0.0,0.0,0.01
1700026356.9806273,38808,1700026356,966523392,sensor_wgs84,0.6732494235038757,0.1771857887506485,0.23229768872261047,0.6792483329772949,1.64234633003897e-06,0.0,0.0,0.0,1.920523157631672e-06,0.0,0.0,0.0,5.5811142183611684e-05,0.12776806950569153,0.16817320883274078,-0.16640397906303406,0.01,0.0,0.0,0.0,0.01,0.0,0.0,0.0,0.01,-0.2759819030761719,-0.2760486602783203,-0.08045217394828796,0.01,0.0,0.0,0.0,0.01,0.0,0.0,0.0,0.01
1700026356.999684,38809,1700026356,976544512,sensor_wgs84,0.6733105778694153,0.1784754991531372,0.23218688368797302,0.6788878440856934,1.64234633003897e-06,0.0,0.0,0.0,1.920523157631672e-06,0.0,0.0,0.0,5.5811142183611684e-05,0.11288803070783615,0.16432683169841766,-0.16937094926834106,0.01,0.0,0.0,0.0,0.01,0.0,0.0,0.0,0.01,-0.2670441269874573,-0.34157562255859375,-0.19761547446250916,0.01,0.0,0.0,0.0,0.01,0.0,0.0,0.0,0.01
1700026357.006701,38810,1700026356,986562816,sensor_wgs84,0.6733493208885193,0.1797071248292923,0.23202182352542877,0.6785808801651001,1.64234633003897e-06,0.0,0.0,0.0,1.920523157631672e-06,0.0,0.0,0.0,5.5811142183611684e-05,0.10243099182844162,0.14096714556217194,-0.1693771481513977,0.01,0.0,0.0,0.0,0.01,0.0,0.0,0.0,0.01,-0.22610986232757568,-0.36282825469970703,-0.19790241122245789,0.01,0.0,0.0,0.0,0.01,0.0,0.0,0.0,0.01
1700026357.011191,38811,1700026356,996576512,sensor_wgs84,0.6733779907226562,0.18086324632167816,0.23184143006801605,0.6783069372177124,1.64234633003897e-06,0.0,0.0,0.0,1.920523157631672e-06,0.0,0.0,0.0,5.5811142183611684e-05,0.09974076598882675,0.13461913168430328,-0.1615227311849594,0.01,0.0,0.0,0.0,0.01,0.0,0.0,0.0,0.01,-0.2211121916770935,-0.4934835433959961,-0.12517333030700684,0.01,0.0,0.0,0.0,0.01,0.0,0.0,0.0,0.01
1700026357.0240524,38812,1700026357,6592512,sensor_wgs84,0.6733812689781189,0.18197199702262878,0.23169811069965363,0.6780559420585632,1.64234633003897e-06,0.0,0.0,0.0,1.920523157631672e-06,0.0,0.0,0.0,5.5811142183611684e-05,0.081186942756176,0.14246778190135956,-0.1557585448026657,0.01,0.0,0.0,0.0,0.01,0.0,0.0,0.0,0.01,-0.18921571969985962,-0.3784065246582031,0.012504249811172485,0.01,0.0,0.0,0.0,0.01,0.0,0.0,0.0,0.01
1700026357.0350485,38813,1700026357,16609792,sensor_wgs84,0.6732965111732483,0.183101087808609,0.23159851133823395,0.6778702139854431,1.64234633003897e-06,0.0,0.0,0.0,1.920523157631672e-06,0.0,0.0,0.0,5.5811142183611684e-05,0.05815839022397995,0.15739117562770844,-0.1621173620223999,0.01,0.0,0.0,0.0,0.01,0.0,0.0,0.0,0.01,-0.12737977504730225,-0.29462623596191406,0.16080859303474426,0.01,0.0,0.0,0.0,0.01,0.0,0.0,0.0,0.01
1700026357.0425265,38814,1700026357,26624000,sensor_wgs84,0.673139750957489,0.18427085876464844,0.23159343004226685,0.6777105927467346,1.64234633003897e-06,0.0,0.0,0.0,1.920523157631672e-06,0.0,0.0,0.0,5.5811142183611684e-05,0.05327579751610756,0.18182989954948425,-0.1453486680984497,0.01,0.0,0.0,0.0,0.01,0.0,0.0,0.0,0.01,-0.12360656261444092,-0.4041328430175781,0.046376630663871765,0.01,0.0,0.0,0.0,0.01,0.0,0.0,0.0,0.01
1700026357.0530853,38815,1700026357,36638720,sensor_wgs84,0.672976016998291,0.18542493879795074,0.23170889914035797,0.6775190234184265,1.64234633003897e-06,0.0,0.0,0.0,1.920523157631672e-06,0.0,0.0,0.0,5.5811142183611684e-05,0.05299423635005951,0.19261367619037628,-0.12419717013835907,0.01,0.0,0.0,0.0,0.01,0.0,0.0,0.0,0.01,-0.08988845348358154,-0.4229621887207031,-0.028744801878929138,0.01,0.0,0.0,0.0,0.01,0.0,0.0,0.0,0.01
1700026357.0654223,38816,1700026357,46655488,sensor_wgs84,0.6728114485740662,0.18653565645217896,0.23194235563278198,0.6772975921630859,1.64234633003897e-06,0.0,0.0,0.0,1.920523157631672e-06,0.0,0.0,0.0,5.5811142183611684e-05,0.04923480004072189,0.20313405990600586,-0.11139833182096481,0.01,0.0,0.0,0.0,0.01,0.0,0.0,0.0,0.01,-0.0027374625205993652,-0.26436424255371094,0.15216419100761414,0.01,0.0,0.0,0.0,0.01,0.0,0.0,0.0,0.01
1700026357.0718834,38817,1700026357,56668672,sensor_wgs84,0.6726143956184387,0.1876654177904129,0.2322445660829544,0.67707759141922,1.6401163842289326e-06,0.0,0.0,0.0,1.93222651637473e-06,0.0,0.0,0.0,5.576884092654225e-05,0.04046856611967087,0.21855203807353973,-0.10970097035169601,0.01,0.0,0.0,0.0,0.01,0.0,0.0,0.0,0.01,0.06057250499725342,-0.22974681854248047,0.09729939699172974,0.01,0.0,0.0,0.0,0.01,0.0,0.0,0.0,0.01
1700026357.0892158,38818,1700026357,66690048,sensor_wgs84,0.6723892688751221,0.18880897760391235,0.232564315199852,0.676873505115509,1.6401163842289326e-06,0.0,0.0,0.0,1.93222651637473e-06,0.0,0.0,0.0,5.576884092654225e-05,0.03382135555148125,0.21368184685707092,-0.10900858789682388,0.01,0.0,0.0,0.0,0.01,0.0,0.0,0.0,0.01,0.11393645405769348,-0.28014659881591797,0.01331813633441925,0.01,0.0,0.0,0.0,0.01,0.0,0.0,0.0,0.01
1700026357.095998,38819,1700026357,76708096,sensor_wgs84,0.6721475720405579,0.18992143869400024,0.23288065195083618,0.6766936182975769,1.6401163842289326e-06,0.0,0.0,0.0,1.93222651637473e-06,0.0,0.0,0.0,5.576884092654225e-05,0.027093466371297836,0.21045148372650146,-0.10633138567209244,0.01,0.0,0.0,0.0,0.01,0.0,0.0,0.0,0.01,0.1992027461528778,-0.28644275665283203,0.07117322087287903,0.01,0.0,0.0,0.0,0.01,0.0,0.0,0.0,0.01
1700026357.1012502,38820,1700026357,86721792,sensor_wgs84,0.6719463467597961,0.19076195359230042,0.23302799463272095,0.676606297492981,1.6401163842289326e-06,0.0,0.0,0.0,1.93222651637473e-06,0.0,0.0,0.0,5.576884092654225e-05,0.0046860938891768456,0.19997958838939667,-0.11743476241827011,0.01,0.0,0.0,0.0,0.01,0.0,0.0,0.0,0.01,0.2615090310573578,-0.16930484771728516,-0.10556277632713318,0.01,0.0,0.0,0.0,0.01,0.0,0.0,0.0,0.01
1700026357.1144037,38821,1700026357,96737536,sensor_wgs84,0.6715708374977112,0.19185693562030792,0.2332557737827301,0.6765909790992737,1.6401163842289326e-06,0.0,0.0,0.0,1.93222651637473e-06,0.0,0.0,0.0,5.576884092654225e-05,-0.018315210938453674,0.18699856102466583,-0.13969463109970093,0.01,0.0,0.0,0.0,0.01,0.0,0.0,0.0,0.01,0.3602086007595062,-0.1410083770751953,-0.11152197420597076,0.01,0.0,0.0,0.0,0.01,0.0,0.0,0.0,0.01
1700026357.1266503,38822,1700026357,106755328,sensor_wgs84,0.6711371541023254,0.19294367730617523,0.23341013491153717,0.6766589879989624,1.6401163842289326e-06,0.0,0.0,0.0,1.93222651637473e-06,0.0,0.0,0.0,5.576884092654225e-05,-0.029857821762561798,0.18067321181297302,-0.14320649206638336,0.01,0.0,0.0,0.0,0.01,0.0,0.0,0.0,0.01,0.4098179340362549,-0.19543170928955078,-0.15418954193592072,0.01,0.0,0.0,0.0,0.01,0.0,0.0,0.0,0.01
1700026357.1402004,38823,1700026357,116770304,sensor_wgs84,0.6707354784011841,0.19392845034599304,0.23354238271713257,0.6767301559448242,1.6401163842289326e-06,0.0,0.0,0.0,1.93222651637473e-06,0.0,0.0,0.0,5.576884092654225e-05,-0.015161631628870964,0.15766414999961853,-0.11908329278230667,0.01,0.0,0.0,0.0,0.01,0.0,0.0,0.0,0.01,0.3271815776824951,-0.34839725494384766,-0.200914666056633,0.01,0.0,0.0,0.0,0.01,0.0,0.0,0.0,0.01
1700026357.1436927,38824,1700026357,126786304,sensor_wgs84,0.6704217195510864,0.19472099840641022,0.23369550704956055,0.6767606735229492,1.6401163842289326e-06,0.0,0.0,0.0,1.93222651637473e-06,0.0,0.0,0.0,5.576884092654225e-05,-0.009110885672271252,0.12203551083803177,-0.07855701446533203,0.01,0.0,0.0,0.0,0.01,0.0,0.0,0.0,0.01,0.23084864020347595,-0.3211536407470703,-0.2515754699707031,0.01,0.0,0.0,0.0,0.01,0.0,0.0,0.0,0.01
1700026357.1556473,38825,1700026357,136804352,sensor_wgs84,0.6701914072036743,0.1953207403421402,0.23383520543575287,0.6767675876617432,1.6401163842289326e-06,0.0,0.0,0.0,1.93222651637473e-06,0.0,0.0,0.0,5.576884092654225e-05,-0.009571927599608898,0.09819608926773071,-0.06873325258493423,0.01,0.0,0.0,0.0,0.01,0.0,0.0,0.0,0.01,0.1813998818397522,-0.04084491729736328,-0.07198415696620941,0.01,0.0,0.0,0.0,0.01,0.0,0.0,0.0,0.01
1700026357.1672602,38826,1700026357,146822656,sensor_wgs84,0.669934868812561,0.1958865225315094,0.23389993607997894,0.6768357753753662,1.6401163842289326e-06,0.0,0.0,0.0,1.93222651637473e-06,0.0,0.0,0.0,5.576884092654225e-05,-0.02671993523836136,0.09335769712924957,-0.09369796514511108,0.01,0.0,0.0,0.0,0.01,0.0,0.0,0.0,0.01,0.13944652676582336,0.1223287582397461,0.20225325226783752,0.01,0.0,0.0,0.0,0.01,0.0,0.0,0.0,0.01
1700026357.1766546,38827,1700026357,156838144,sensor_wgs84,0.6696000695228577,0.19652576744556427,0.23387327790260315,0.6769909262657166,1.6401163842289326e-06,0.0,0.0,0.0,1.93222651637473e-06,0.0,0.0,0.0,5.576884092654225e-05,-0.050130169838666916,0.08902697265148163,-0.12999126315116882,0.01,0.0,0.0,0.0,0.01,0.0,0.0,0.0,0.01,0.05790337920188904,0.15751266479492188,0.25546959042549133,0.01,0.0,0.0,0.0,0.01,0.0,0.0,0.0,0.01
1700026357.1882398,38828,1700026357,166855424,sensor_wgs84,0.6691666841506958,0.19725461304187775,0.23374420404434204,0.6772519946098328,1.6401163842289326e-06,0.0,0.0,0.0,1.93222651637473e-06,0.0,0.0,0.0,5.576884092654225e-05,-0.05753264203667641,0.09150952100753784,-0.15176904201507568,0.01,0.0,0.0,0.0,0.01,0.0,0.0,0.0,0.01,0.028489291667938232,0.10105037689208984,0.3700546622276306,0.01,0.0,0.0,0.0,0.01,0.0,0.0,0.0,0.01
1700026357.1963418,38829,1700026357,176869376,sensor_wgs84,0.6687195897102356,0.19806690514087677,0.2336006462574005,0.6775060892105103,1.6401163842289326e-06,0.0,0.0,0.0,1.93222651637473e-06,0.0,0.0,0.0,5.576884092654225e-05,-0.04420916363596916,0.11073824018239975,-0.15102726221084595,0.01,0.0,0.0,0.0,0.01,0.0,0.0,0.0,0.01,-0.10123729705810547,-0.08070945739746094,0.45840901136398315,0.01,0.0,0.0,0.0,0.01,0.0,0.0,0.0,0.01
