Time,header.seq,header.stamp.secs,header.stamp.nsecs,header.frame_id,orientation.x,orientation.y,orientation.z,orientation.w,orientation_covariance_0,orientation_covariance_1,orientation_covariance_2,orientation_covariance_3,orientation_covariance_4,orientation_covariance_5,orientation_covariance_6,orientation_covariance_7,orientation_covariance_8,angular_velocity.x,angular_velocity.y,angular_velocity.z,angular_velocity_covariance_0,angular_velocity_covariance_1,angular_velocity_covariance_2,angular_velocity_covariance_3,angular_velocity_covariance_4,angular_velocity_covariance_5,angular_velocity_covariance_6,angular_velocity_covariance_7,angular_velocity_covariance_8,linear_acceleration.x,linear_acceleration.y,linear_acceleration.z,linear_acceleration_covariance_0,linear_acceleration_covariance_1,linear_acceleration_covariance_2,linear_acceleration_covariance_3,linear_acceleration_covariance_4,linear_acceleration_covariance_5,linear_acceleration_covariance_6,linear_acceleration_covariance_7,linear_acceleration_covariance_8
1700026578.4053264,60737,1700026578,317001728,gx5_link,0.6617616415023804,0.131678968667984,0.13547013700008392,0.7255205512046814,0.01,0.0,0.0,0.0,0.01,0.0,0.0,0.0,0.01,-0.04185891151428223,0.024928223341703415,0.027808858081698418,0.01,0.0,0.0,0.0,0.01,0.0,0.0,0.0,0.01,-0.04748609252725727,-9.711791449654102,-0.750466338994354,0.01,0.0,0.0,0.0,0.01,0.0,0.0,0.0,0.01
1700026578.4053729,60738,1700026578,327010816,gx5_link,0.6616408228874207,0.13166871666908264,0.1356920301914215,0.7255911231040955,0.01,0.0,0.0,0.0,0.01,0.0,0.0,0.0,0.01,-0.036785226315259933,0.026474181562662125,0.02369977906346321,0.01,0.0,0.0,0.0,0.01,0.0,0.0,0.0,0.01,-0.07195181790909264,-9.721544197383523,-0.7648014460779726,0.01,0.0,0.0,0.0,0.01,0.0,0.0,0.0,0.01
1700026578.4054708,60739,1700026578,337020160,gx5_link,0.6615245342254639,0.13166789710521698,0.13588297367095947,0.72566157579422,0.01,0.0,0.0,0.0,0.01,0.0,0.0,0.0,0.01,-0.0366767980158329,0.02372102066874504,0.015822898596525192,0.01,0.0,0.0,0.0,0.01,0.0,0.0,0.0,0.01,-0.07209344116975552,-9.72130629697442,-0.7375847917199134,0.01,0.0,0.0,0.0,0.01,0.0,0.0,0.0,0.01
1700026578.4059134,60740,1700026578,347031552,gx5_link,0.6613883972167969,0.13172633945941925,0.1360531449317932,0.7257432341575623,0.01,0.0,0.0,0.0,0.01,0.0,0.0,0.0,0.01,-0.03984726220369339,0.027430176734924316,0.006220693234354258,0.01,0.0,0.0,0.0,0.01,0.0,0.0,0.0,0.01,-0.07308806909713894,-9.741405666673183,-0.7038236110892147,0.01,0.0,0.0,0.0,0.01,0.0,0.0,0.0,0.01
1700026578.406341,60741,1700026578,357038848,gx5_link,0.6612227559089661,0.1318170726299286,0.1362132728099823,0.7258475422859192,0.01,0.0,0.0,0.0,0.01,0.0,0.0,0.0,0.01,-0.04559813067317009,0.030531685799360275,-0.001031611580401659,0.01,0.0,0.0,0.0,0.01,0.0,0.0,0.0,0.01,-0.086335435742978,-9.780329563829302,-0.7116554737586528,0.01,0.0,0.0,0.0,0.01,0.0,0.0,0.0,0.01
1700026578.4065378,60742,1700026578,367047936,gx5_link,0.6610137224197388,0.13189829885959625,0.1363675445318222,0.7259942293167114,0.01,0.0,0.0,0.0,0.01,0.0,0.0,0.0,0.01,-0.052954401820898056,0.030245264992117882,-0.004660329781472683,0.01,0.0,0.0,0.0,0.01,0.0,0.0,0.0,0.01,-0.0821024104162585,-9.751379948198794,-0.7620289126247167,0.01,0.0,0.0,0.0,0.01,0.0,0.0,0.0,0.01
1700026578.4067144,60743,1700026578,377060096,gx5_link,0.6607949137687683,0.13197439908981323,0.13647568225860596,0.7261592149734497,0.01,0.0,0.0,0.0,0.01,0.0,0.0,0.0,0.01,-0.05629153922200203,0.025656942278146744,-0.010276062414050102,0.01,0.0,0.0,0.0,0.01,0.0,0.0,0.0,0.01,-0.06902659181188792,-9.683548520988225,-0.8156470325004309,0.01,0.0,0.0,0.0,0.01,0.0,0.0,0.0,0.01
1700026578.406782,60744,1700026578,387067904,gx5_link,0.6605600118637085,0.1320437341928482,0.13653317093849182,0.7263495326042175,0.01,0.0,0.0,0.0,0.01,0.0,0.0,0.0,0.01,-0.05871793255209923,0.01795550435781479,-0.018434878438711166,0.01,0.0,0.0,0.0,0.01,0.0,0.0,0.0,0.01,-0.07007138815708458,-9.614318332895635,-0.8535822108801454,0.01,0.0,0.0,0.0,0.01,0.0,0.0,0.0,0.01
1700026578.4079344,60745,1700026578,397077248,gx5_link,0.6603186726570129,0.13213062286376953,0.13651295006275177,0.7265568971633911,0.01,0.0,0.0,0.0,0.01,0.0,0.0,0.0,0.01,-0.060957785695791245,0.010553868487477303,-0.03262505307793617,0.01,0.0,0.0,0.0,0.01,0.0,0.0,0.0,0.01,-0.0898617284392938,-9.578286065527797,-0.8408796003691852,0.01,0.0,0.0,0.0,0.01,0.0,0.0,0.0,0.01
1700026578.4259155,60746,1700026578,407094784,gx5_link,0.6600759029388428,0.1322852224111557,0.13645857572555542,0.7267595529556274,0.01,0.0,0.0,0.0,0.01,0.0,0.0,0.0,0.01,-0.06023327633738518,0.01356904860585928,-0.04504324123263359,0.01,0.0,0.0,0.0,0.01,0.0,0.0,0.0,0.01,-0.09650032620355486,-9.607397593721746,-0.7797155220933258,0.01,0.0,0.0,0.0,0.01,0.0,0.0,0.0,0.01
1700026578.4315898,60747,1700026578,417103104,gx5_link,0.6598393321037292,0.13250336050987244,0.13642644882202148,0.7269406914710999,0.01,0.0,0.0,0.0,0.01,0.0,0.0,0.0,0.01,-0.056943804025650024,0.02430039457976818,-0.05187825858592987,0.01,0.0,0.0,0.0,0.01,0.0,0.0,0.0,0.01,-0.10655958259887993,-9.644195584765075,-0.7765645837817341,0.01,0.0,0.0,0.0,0.01,0.0,0.0,0.0,0.01
1700026578.4416459,60748,1700026578,427112704,gx5_link,0.6596218347549438,0.13279807567596436,0.13641926646232605,0.7270856499671936,0.01,0.0,0.0,0.0,0.01,0.0,0.0,0.0,0.01,-0.048098135739564896,0.03848392143845558,-0.056027088314294815,0.01,0.0,0.0,0.0,0.01,0.0,0.0,0.0,0.01,-0.09446789792734198,-9.613435704842209,-0.7812474809009581,0.01,0.0,0.0,0.0,0.01,0.0,0.0,0.0,0.01
1700026578.451722,60749,1700026578,437124352,gx5_link,0.6594393253326416,0.1331448256969452,0.13641032576560974,0.7271894216537476,0.01,0.0,0.0,0.0,0.01,0.0,0.0,0.0,0.01,-0.034258220344781876,0.04772312939167023,-0.060800258070230484,0.01,0.0,0.0,0.0,0.01,0.0,0.0,0.0,0.01,-0.07281020657040645,-9.581142624002695,-0.8207040966942906,0.01,0.0,0.0,0.0,0.01,0.0,0.0,0.0,0.01
1700026578.4566238,60750,1700026578,447131648,gx5_link,0.6593030095100403,0.1335574835538864,0.13636471331119537,0.7272459268569946,0.01,0.0,0.0,0.0,0.01,0.0,0.0,0.0,0.01,-0.01772572658956051,0.0540071465075016,-0.06992781907320023,0.01,0.0,0.0,0.0,0.01,0.0,0.0,0.0,0.01,-0.021842076047090812,-9.543071544283627,-0.8578739167246967,0.01,0.0,0.0,0.0,0.01,0.0,0.0,0.0,0.01
1700026578.4674327,60751,1700026578,457140480,gx5_link,0.6592378616333008,0.1340402513742447,0.13630716502666473,0.727226972579956,0.01,0.0,0.0,0.0,0.01,0.0,0.0,0.0,0.01,0.0037960601039230824,0.06203153356909752,-0.07631637156009674,0.01,0.0,0.0,0.0,0.01,0.0,0.0,0.0,0.01,0.01417495265242178,-9.547502804729342,-0.8767477632164955,0.01,0.0,0.0,0.0,0.01,0.0,0.0,0.0,0.01
1700026578.4795506,60752,1700026578,467151360,gx5_link,0.6592419147491455,0.13456931710243225,0.13619676232337952,0.7271462678909302,0.01,0.0,0.0,0.0,0.01,0.0,0.0,0.0,0.01,0.02636520005762577,0.06380517780780792,-0.08622636646032333,0.01,0.0,0.0,0.0,0.01,0.0,0.0,0.0,0.01,0.03851044838386587,-9.559113163024186,-0.9300740605387836,0.01,0.0,0.0,0.0,0.01,0.0,0.0,0.0,0.01
1700026578.486651,60753,1700026578,477158656,gx5_link,0.659313440322876,0.13513492047786713,0.13603641092777252,0.7270064949989319,0.01,0.0,0.0,0.0,0.01,0.0,0.0,0.0,0.01,0.04518764838576317,0.06140049546957016,-0.09374973177909851,0.01,0.0,0.0,0.0,0.01,0.0,0.0,0.0,0.01,0.04923258913471363,-9.678684714344143,-0.9150744981970638,0.01,0.0,0.0,0.0,0.01,0.0,0.0,0.0,0.01
1700026578.4976673,60754,1700026578,487168256,gx5_link,0.6594132781028748,0.1357313096523285,0.13589626550674438,0.7268311381340027,0.01,0.0,0.0,0.0,0.01,0.0,0.0,0.0,0.01,0.05356934294104576,0.06654179841279984,-0.09389563649892807,0.01,0.0,0.0,0.0,0.01,0.0,0.0,0.0,0.01,0.06633287748219445,-9.749899938774108,-0.8838919358827173,0.01,0.0,0.0,0.0,0.01,0.0,0.0,0.0,0.01
1700026578.5160794,60755,1700026578,497185792,gx5_link,0.6595292687416077,0.13636650145053864,0.13576632738113403,0.7266311645507812,0.01,0.0,0.0,0.0,0.01,0.0,0.0,0.0,0.01,0.06085933744907379,0.07463403791189194,-0.09564908593893051,0.01,0.0,0.0,0.0,0.01,0.0,0.0,0.0,0.01,0.09884907215363345,-9.849057063096762,-0.8631118173781782,0.01,0.0,0.0,0.0,0.01,0.0,0.0,0.0,0.01
1700026578.5217125,60756,1700026578,507194112,gx5_link,0.6596391797065735,0.13698796927928925,0.13568146526813507,0.7264304161071777,0.01,0.0,0.0,0.0,0.01,0.0,0.0,0.0,0.01,0.061705369502305984,0.07943081855773926,-0.0889175534248352,0.01,0.0,0.0,0.0,0.01,0.0,0.0,0.0,0.01,0.13614264642787166,-9.918923795527219,-0.9270806508764624,0.01,0.0,0.0,0.0,0.01,0.0,0.0,0.0,0.01
1700026578.5316458,60757,1700026578,517203968,gx5_link,0.6597529649734497,0.13756640255451202,0.13561932742595673,0.7262293100357056,0.01,0.0,0.0,0.0,0.01,0.0,0.0,0.0,0.01,0.06200895085930824,0.07776075601577759,-0.07877746969461441,0.01,0.0,0.0,0.0,0.01,0.0,0.0,0.0,0.01,0.19036705250050873,-9.903564898353814,-0.9686574736941606,0.01,0.0,0.0,0.0,0.01,0.0,0.0,0.0,0.01
1700026578.542553,60758,1700026578,527217664,gx5_link,0.6598712801933289,0.13809794187545776,0.13553957641124725,0.7260357141494751,0.01,0.0,0.0,0.0,0.01,0.0,0.0,0.0,0.01,0.06375322490930557,0.07109123468399048,-0.073185995221138,0.01,0.0,0.0,0.0,0.01,0.0,0.0,0.0,0.01,0.2436780791884288,-9.865556946998835,-1.0185266162998974,0.01,0.0,0.0,0.0,0.01,0.0,0.0,0.0,0.01
1700026578.5481625,60759,1700026578,537224704,gx5_link,0.6600006222724915,0.13859044015407562,0.13542094826698303,0.7258464097976685,0.01,0.0,0.0,0.0,0.01,0.0,0.0,0.0,0.01,0.06548067182302475,0.06003151088953018,-0.07095830142498016,0.01,0.0,0.0,0.0,0.01,0.0,0.0,0.0,0.01,0.2993017667328939,-9.853390708386897,-1.0351371940348297,0.01,0.0,0.0,0.0,0.01,0.0,0.0,0.0,0.01
1700026578.5573778,60760,1700026578,547233536,gx5_link,0.6601366996765137,0.13904739916324615,0.13523124158382416,0.7256706357002258,0.01,0.0,0.0,0.0,0.01,0.0,0.0,0.0,0.01,0.0670304074883461,0.04541006684303284,-0.07483264058828354,0.01,0.0,0.0,0.0,0.01,0.0,0.0,0.0,0.01,0.32896018821988254,-9.8336560803473,-1.0748382861085235,0.01,0.0,0.0,0.0,0.01,0.0,0.0,0.0,0.01
1700026578.569281,60761,1700026578,557244416,gx5_link,0.6602956652641296,0.13943535089492798,0.13497881591320038,0.7254985570907593,0.01,0.0,0.0,0.0,0.01,0.0,0.0,0.0,0.01,0.0698293074965477,0.027491427958011627,-0.07513720542192459,0.01,0.0,0.0,0.0,0.01,0.0,0.0,0.0,0.01,0.2942320622531697,-9.922491717141867,-1.09368845946379,0.01,0.0,0.0,0.0,0.01,0.0,0.0,0.0,0.01
1700026578.5768464,60762,1700026578,567251968,gx5_link,0.6605115532875061,0.1397467404603958,0.13471056520938873,0.725291907787323,0.01,0.0,0.0,0.0,0.01,0.0,0.0,0.0,0.01,0.07669726759195328,0.013943059369921684,-0.06797350198030472,0.01,0.0,0.0,0.0,0.01,0.0,0.0,0.0,0.01,0.26286263559721407,-9.947918419343232,-1.0174640285696834,0.01,0.0,0.0,0.0,0.01,0.0,0.0,0.0,0.01
1700026578.5878787,60763,1700026578,577261312,gx5_link,0.6607465744018555,0.14004185795783997,0.13447381556034088,0.7250648736953735,0.01,0.0,0.0,0.0,0.01,0.0,0.0,0.0,0.01,0.07839138805866241,0.012773032300174236,-0.06275424361228943,0.01,0.0,0.0,0.0,0.01,0.0,0.0,0.0,0.01,0.22962670268332586,-9.953433967894314,-0.9310060806918888,0.01,0.0,0.0,0.0,0.01,0.0,0.0,0.0,0.01
1700026578.6081886,60764,1700026578,587272960,gx5_link,0.6609874367713928,0.14039774239063263,0.13428948819637299,0.7248106002807617,0.01,0.0,0.0,0.0,0.01,0.0,0.0,0.0,0.01,0.08026248961687088,0.025793664157390594,-0.062100667506456375,0.01,0.0,0.0,0.0,0.01,0.0,0.0,0.0,0.01,0.2607294960260391,-9.939880074316262,-0.819335657885298,0.01,0.0,0.0,0.0,0.01,0.0,0.0,0.0,0.01
1700026578.608278,60765,1700026578,597280256,gx5_link,0.6612102389335632,0.14085246622562408,0.13415668904781342,0.7245437502861023,0.01,0.0,0.0,0.0,0.01,0.0,0.0,0.0,0.01,0.08220108598470688,0.04577058553695679,-0.0633804202079773,0.01,0.0,0.0,0.0,0.01,0.0,0.0,0.0,0.01,0.3281632656885311,-9.868480725491047,-0.8237167955789715,0.01,0.0,0.0,0.0,0.01,0.0,0.0,0.0,0.01
1700026578.6171799,60766,1700026578,607288832,gx5_link,0.6614381670951843,0.14131036400794983,0.13405437767505646,0.7242653965950012,0.01,0.0,0.0,0.0,0.01,0.0,0.0,0.0,0.01,0.09173024445772171,0.05251405015587807,-0.05551038309931755,0.01,0.0,0.0,0.0,0.01,0.0,0.0,0.0,0.01,0.4119204667076468,-9.872070858937501,-1.000937987313047,0.01,0.0,0.0,0.0,0.01,0.0,0.0,0.0,0.01
1700026578.6290867,60767,1700026578,617299200,gx5_link,0.6617029309272766,0.1417146921157837,0.13392022252082825,0.7239692807197571,0.01,0.0,0.0,0.0,0.01,0.0,0.0,0.0,0.01,0.10315797477960587,0.04481857642531395,-0.04984905570745468,0.01,0.0,0.0,0.0,0.01,0.0,0.0,0.0,0.01,0.4944038849312812,-9.76688556036651,-1.1582095200173557,0.01,0.0,0.0,0.0,0.01,0.0,0.0,0.0,0.01
1700026578.6366436,60768,1700026578,627306496,gx5_link,0.6620622873306274,0.14204499125480652,0.1337026059627533,0.7236161828041077,0.01,0.0,0.0,0.0,0.01,0.0,0.0,0.0,0.01,0.12366544455289841,0.02587597444653511,-0.048482757061719894,0.01,0.0,0.0,0.0,0.01,0.0,0.0,0.0,0.01,0.49851548496857284,-9.697140993010997,-1.201753916580975,0.01,0.0,0.0,0.0,0.01,0.0,0.0,0.0,0.01
1700026578.6476884,60769,1700026578,637315584,gx5_link,0.662471354007721,0.14231719076633453,0.13333404064178467,0.7232562303543091,0.01,0.0,0.0,0.0,0.01,0.0,0.0,0.0,0.01,0.13608504831790924,-0.0009849220514297485,-0.060038451105356216,0.01,0.0,0.0,0.0,0.01,0.0,0.0,0.0,0.01,0.4787966024873778,-9.661641225084661,-1.1828722521089017,0.01,0.0,0.0,0.0,0.01,0.0,0.0,0.0,0.01
1700026578.6638892,60770,1700026578,647326720,gx5_link,0.6628799438476562,0.14258578419685364,0.13287249207496643,0.7229138016700745,0.01,0.0,0.0,0.0,0.01,0.0,0.0,0.0,0.01,0.13385175168514252,-0.016071980819106102,-0.07585956901311874,0.01,0.0,0.0,0.0,0.01,0.0,0.0,0.0,0.01,0.42463944383151825,-9.71701649082601,-1.1376962357554583,0.01,0.0,0.0,0.0,0.01,0.0,0.0,0.0,0.01
1700026578.6667666,60771,1700026578,657333248,gx5_link,0.6632108092308044,0.14288775622844696,0.13238199055194855,0.7226406335830688,0.01,0.0,0.0,0.0,0.01,0.0,0.0,0.0,0.01,0.1160629615187645,-0.018035130575299263,-0.08981037139892578,0.01,0.0,0.0,0.0,0.01,0.0,0.0,0.0,0.01,0.34329248229190706,-9.826720143604279,-1.0512791313447059,0.01,0.0,0.0,0.0,0.01,0.0,0.0,0.0,0.01
1700026578.6782293,60772,1700026578,667342848,gx5_link,0.6634880304336548,0.14318209886550903,0.13194486498832703,0.722407877445221,0.01,0.0,0.0,0.0,0.01,0.0,0.0,0.0,0.01,0.09904734790325165,-0.013303237967193127,-0.0883578285574913,0.01,0.0,0.0,0.0,0.01,0.0,0.0,0.0,0.01,0.27050144164627415,-9.957869319993257,-0.9560507247731089,0.01,0.0,0.0,0.0,0.01,0.0,0.0,0.0,0.01
1700026578.6899838,60773,1700026578,677354240,gx5_link,0.6637274622917175,0.1434304565191269,0.13167168200016022,0.7221884727478027,0.01,0.0,0.0,0.0,0.01,0.0,0.0,0.0,0.01,0.08867014944553375,-0.0009806868620216846,-0.06534817069768906,0.01,0.0,0.0,0.0,0.01,0.0,0.0,0.0,0.01,0.225995725769829,-10.031782112944125,-0.9780305013909936,0.01,0.0,0.0,0.0,0.01,0.0,0.0,0.0,0.01
1700026578.6972108,60774,1700026578,687361792,gx5_link,0.6639993190765381,0.14359503984451294,0.13154470920562744,0.7219290137290955,0.01,0.0,0.0,0.0,0.01,0.0,0.0,0.0,0.01,0.08645473420619965,0.006822202354669571,-0.0325787290930748,0.01,0.0,0.0,0.0,0.01,0.0,0.0,0.0,0.01,0.21131858204919843,-10.079987633186578,-0.9446555435989051,0.01,0.0,0.0,0.0,0.01,0.0,0.0,0.0,0.01
1700026578.7074735,60775,1700026578,697370624,gx5_link,0.6643018126487732,0.14369602501392365,0.13158126175403595,0.7216238379478455,0.01,0.0,0.0,0.0,0.01,0.0,0.0,0.0,0.01,0.08761967718601227,0.020250286906957626,0.0003611242864280939,0.01,0.0,0.0,0.0,0.01,0.0,0.0,0.0,0.01,0.251776136779692,-10.042641360610723,-0.8303955426905304,0.01,0.0,0.0,0.0,0.01,0.0,0.0,0.0,0.01
1700026578.7255387,60776,1700026578,707381248,gx5_link,0.6645928621292114,0.14378692209720612,0.1317174881696701,0.7213128209114075,0.01,0.0,0.0,0.0,0.01,0.0,0.0,0.0,0.01,0.08478976786136627,0.03161250427365303,0.01866808719933033,0.01,0.0,0.0,0.0,0.01,0.0,0.0,0.0,0.01,0.2909732796529308,-9.951022230577468,-0.841317261134088,0.01,0.0,0.0,0.0,0.01,0.0,0.0,0.0,0.01
1700026578.7273717,60777,1700026578,717388544,gx5_link,0.6648512482643127,0.1438775211572647,0.13189931213855743,0.7210233807563782,0.01,0.0,0.0,0.0,0.01,0.0,0.0,0.0,0.01,0.07589887827634811,0.03879468888044357,0.029245475307106972,0.01,0.0,0.0,0.0,0.01,0.0,0.0,0.0,0.01,0.3219756630947813,-9.980717111617325,-0.8394396306939422,0.01,0.0,0.0,0.0,0.01,0.0,0.0,0.0,0.01
1700026578.7379465,60778,1700026578,727397888,gx5_link,0.6650876998901367,0.14396452903747559,0.13213814795017242,0.7207441329956055,0.01,0.0,0.0,0.0,0.01,0.0,0.0,0.0,0.01,0.0684751495718956,0.046356864273548126,0.0363842248916626,0.01,0.0,0.0,0.0,0.01,0.0,0.0,0.0,0.01,0.36607155606131997,-9.89197032214999,-0.7855304189171641,0.01,0.0,0.0,0.0,0.01,0.0,0.0,0.0,0.01
1700026578.7499475,60779,1700026578,737409024,gx5_link,0.6652912497520447,0.14409586787223816,0.13234694302082062,0.7204916477203369,0.01,0.0,0.0,0.0,0.01,0.0,0.0,0.0,0.01,0.06403068453073502,0.04979176074266434,0.028367113322019577,0.01,0.0,0.0,0.0,0.01,0.0,0.0,0.0,0.01,0.3868577389804646,-9.797960497587919,-0.7880639559827745,0.01,0.0,0.0,0.0,0.01,0.0,0.0,0.0,0.01
1700026578.7566833,60780,1700026578,747415552,gx5_link,0.6654971241950989,0.14427785575389862,0.13250400125980377,0.7202362418174744,0.01,0.0,0.0,0.0,0.01,0.0,0.0,0.0,0.01,0.06602605432271957,0.0505959689617157,0.01735076494514942,0.01,0.0,0.0,0.0,0.01,0.0,0.0,0.0,0.01,0.4388278724534437,-9.815475111490487,-0.7474442877594382,0.01,0.0,0.0,0.0,0.01,0.0,0.0,0.0,0.01
1700026578.7688904,60781,1700026578,757423872,gx5_link,0.6657455563545227,0.14452750980854034,0.1326434314250946,0.7199308276176453,0.01,0.0,0.0,0.0,0.01,0.0,0.0,0.0,0.01,0.0745408833026886,0.05672339349985123,0.009967342019081116,0.01,0.0,0.0,0.0,0.01,0.0,0.0,0.0,0.01,0.4959573249183595,-9.817026432585715,-0.6539683508783578,0.01,0.0,0.0,0.0,0.01,0.0,0.0,0.0,0.01
1700026578.7889864,60782,1700026578,770437632,gx5_link,0.6660128235816956,0.14482656121253967,0.13274513185024261,0.7196046710014343,0.01,0.0,0.0,0.0,0.01,0.0,0.0,0.0,0.01,0.08370446413755417,0.05930188670754433,0.0013486696407198906,0.01,0.0,0.0,0.0,0.01,0.0,0.0,0.0,0.01,0.5305764740852639,-9.87116134287715,-0.6870936447583138,0.01,0.0,0.0,0.0,0.01,0.0,0.0,0.0,0.01
1700026578.7922957,60783,1700026578,780448000,gx5_link,0.6662732362747192,0.1450931280851364,0.1328318864107132,0.7192938923835754,0.01,0.0,0.0,0.0,0.01,0.0,0.0,0.0,0.01,0.08402283489704132,0.05476439371705055,0.0010676936944946647,0.01,0.0,0.0,0.0,0.01,0.0,0.0,0.0,0.01,0.5301023537674918,-9.990352370446919,-0.7189023030817508,0.01,0.0,0.0,0.0,0.01,0.0,0.0,0.0,0.01
1700026578.7976334,60784,1700026578,790454272,gx5_link,0.6665140986442566,0.14527255296707153,0.13292717933654785,0.7190169095993042,0.01,0.0,0.0,0.0,0.01,0.0,0.0,0.0,0.01,0.07701846957206726,0.044430434703826904,0.01044408604502678,0.01,0.0,0.0,0.0,0.01,0.0,0.0,0.0,0.01,0.5117201997827738,-10.12882794420123,-0.808850138901919,0.01,0.0,0.0,0.0,0.01,0.0,0.0,0.0,0.01
1700026578.8095605,60785,1700026578,800462080,gx5_link,0.6667420268058777,0.14532922208309174,0.13306638598442078,0.7187683582305908,0.01,0.0,0.0,0.0,0.01,0.0,0.0,0.0,0.01,0.0668594166636467,0.032946448773145676,0.029880410060286522,0.01,0.0,0.0,0.0,0.01,0.0,0.0,0.0,0.01,0.499475196846202,-10.278124187177418,-0.8273485762100666,0.01,0.0,0.0,0.0,0.01,0.0,0.0,0.0,0.01
1700026578.8213913,60786,1700026578,810471936,gx5_link,0.6669073104858398,0.14519988000392914,0.13327930867671967,0.7186015844345093,0.01,0.0,0.0,0.0,0.01,0.0,0.0,0.0,0.01,0.04583156108856201,0.017309250310063362,0.05954711139202118,0.01,0.0,0.0,0.0,0.01,0.0,0.0,0.0,0.01,0.49123972181193526,-10.358908619463444,-0.8928178043339401,0.01,0.0,0.0,0.0,0.01,0.0,0.0,0.0,0.01
1700026578.8280187,60787,1700026578,820478208,gx5_link,0.6670244932174683,0.14487048983573914,0.13359369337558746,0.7185009717941284,0.01,0.0,0.0,0.0,0.01,0.0,0.0,0.0,0.01,0.02255645953118801,0.0007599846576340497,0.09735924750566483,0.01,0.0,0.0,0.0,0.01,0.0,0.0,0.0,0.01,0.49963648835513735,-10.356831228667497,-0.8991220921099186,0.01,0.0,0.0,0.0,0.01,0.0,0.0,0.0,0.01
1700026578.8476558,60788,1700026578,830486528,gx5_link,0.6671189069747925,0.14438842236995697,0.13400056958198547,0.7184346318244934,0.01,0.0,0.0,0.0,0.01,0.0,0.0,0.0,0.01,0.005370721220970154,-0.010828204452991486,0.12838362157344818,0.01,0.0,0.0,0.0,0.01,0.0,0.0,0.0,0.01,0.468859438101761,-10.254945556163788,-0.8693691242072731,0.01,0.0,0.0,0.0,0.01,0.0,0.0,0.0,0.01
1700026578.8518581,60789,1700026578,840496384,gx5_link,0.6671789288520813,0.14379294216632843,0.13444919884204865,0.7184144258499146,0.01,0.0,0.0,0.0,0.01,0.0,0.0,0.0,0.01,-0.012444965541362762,-0.021013621240854263,0.14659930765628815,0.01,0.0,0.0,0.0,0.01,0.0,0.0,0.0,0.01,0.4285449268374592,-10.14191889644265,-0.7715707210171967,0.01,0.0,0.0,0.0,0.01,0.0,0.0,0.0,0.01
1700026578.8572102,60790,1700026578,850501888,gx5_link,0.6672088503837585,0.14319263398647308,0.13495378196239471,0.7184120416641235,0.01,0.0,0.0,0.0,0.01,0.0,0.0,0.0,0.01,-0.028320297598838806,-0.018798481673002243,0.1557331681251526,0.01,0.0,0.0,0.0,0.01,0.0,0.0,0.0,0.01,0.4138900497475639,-10.057221674627066,-0.5484473540795967,0.01,0.0,0.0,0.0,0.01,0.0,0.0,0.0,0.01
1700026578.875628,60791,1700026578,860515584,gx5_link,0.6671685576438904,0.1426834762096405,0.13550527393817902,0.7184469103813171,0.01,0.0,0.0,0.0,0.01,0.0,0.0,0.0,0.01,-0.047638799995183945,-0.00262625003233552,0.14986968040466309,0.01,0.0,0.0,0.0,0.01,0.0,0.0,0.0,0.01,0.41108894778694954,-9.952723189276456,-0.42045192901380357,0.01,0.0,0.0,0.0,0.01,0.0,0.0,0.0,0.01
1700026578.882286,60792,1700026578,870525952,gx5_link,0.6670313477516174,0.14229469001293182,0.1360483318567276,0.7185487747192383,0.01,0.0,0.0,0.0,0.01,0.0,0.0,0.0,0.01,-0.06898798793554306,0.013795165345072746,0.13136327266693115,0.01,0.0,0.0,0.0,0.01,0.0,0.0,0.0,0.01,0.44130577034167945,-9.84566449804902,-0.37004827767256643,0.01,0.0,0.0,0.0,0.01,0.0,0.0,0.0,0.01
1700026578.8875594,60793,1700026578,880531712,gx5_link,0.6667757034301758,0.14204800128936768,0.13651520013809204,0.7187463045120239,0.01,0.0,0.0,0.0,0.01,0.0,0.0,0.0,0.01,-0.0885734111070633,0.02450544945895672,0.10137490928173065,0.01,0.0,0.0,0.0,0.01,0.0,0.0,0.0,0.01,0.5156853770866989,-9.736869776809215,-0.38011600963529196,0.01,0.0,0.0,0.0,0.01,0.0,0.0,0.0,0.01
1700026578.9069686,60794,1700026578,890539776,gx5_link,0.6664501428604126,0.1418762058019638,0.13685156404972076,0.7190180420875549,0.01,0.0,0.0,0.0,0.01,0.0,0.0,0.0,0.01,-0.10021492838859558,0.02016388811171055,0.0735926553606987,0.01,0.0,0.0,0.0,0.01,0.0,0.0,0.0,0.01,0.591056332956627,-9.6266926613003,-0.5180230993192643,0.01,0.0,0.0,0.0,0.01,0.0,0.0,0.0,0.01
1700026578.91235,60795,1700026578,900549376,gx5_link,0.6660817861557007,0.14168322086334229,0.13698606193065643,0.7193717360496521,0.01,0.0,0.0,0.0,0.01,0.0,0.0,0.0,0.01,-0.10550914704799652,-0.005812607705593109,0.0443730466067791,0.01,0.0,0.0,0.0,0.01,0.0,0.0,0.0,0.01,0.6444925934594125,-9.46647111968398,-0.7103702562537044,0.01,0.0,0.0,0.0,0.01,0.0,0.0,0.0,0.01
1700026578.9179711,60796,1700026578,910555648,gx5_link,0.6657164692878723,0.14139793813228607,0.13684913516044617,0.7197920083999634,0.01,0.0,0.0,0.0,0.01,0.0,0.0,0.0,0.01,-0.10464264452457428,-0.052454229444265366,0.015462459996342659,0.01,0.0,0.0,0.0,0.01,0.0,0.0,0.0,0.01,0.6431759579028934,-9.368749581122398,-0.9201554547231644,0.01,0.0,0.0,0.0,0.01,0.0,0.0,0.0,0.01
1700026578.929845,60797,1700026578,920563712,gx5_link,0.6653947830200195,0.1409604251384735,0.1364942342042923,0.7202425003051758,0.01,0.0,0.0,0.0,0.01,0.0,0.0,0.0,0.01,-0.10238069295883179,-0.09948763251304626,0.0030755666084587574,0.01,0.0,0.0,0.0,0.01,0.0,0.0,0.0,0.01,0.6033510933190583,-9.413511098390817,-0.9084243195928633,0.01,0.0,0.0,0.0,0.01,0.0,0.0,0.0,0.01
1700026578.941632,60798,1700026578,930573312,gx5_link,0.6650997400283813,0.14038939774036407,0.13608217239379883,0.7207044363021851,0.01,0.0,0.0,0.0,0.01,0.0,0.0,0.0,0.01,-0.10210290551185608,-0.13056430220603943,0.007793846540153027,0.01,0.0,0.0,0.0,0.01,0.0,0.0,0.0,0.01,0.5369335514944047,-9.452144488167763,-0.8830102576773613,0.01,0.0,0.0,0.0,0.01,0.0,0.0,0.0,0.01
1700026578.9471896,60799,1700026578,940578304,gx5_link,0.6648411750793457,0.13971689343452454,0.13567125797271729,0.7211509346961975,0.01,0.0,0.0,0.0,0.01,0.0,0.0,0.0,0.01,-0.09963333606719971,-0.15000836551189423,0.01814301870763302,0.01,0.0,0.0,0.0,0.01,0.0,0.0,0.0,0.01,0.4776948517905548,-9.405071771347522,-0.8562736419212073,0.01,0.0,0.0,0.0,0.01,0.0,0.0,0.0,0.01
1700026578.9654524,60800,1700026578,950591744,gx5_link,0.6646021008491516,0.13896945118904114,0.13533525168895721,0.7215787768363953,0.01,0.0,0.0,0.0,0.01,0.0,0.0,0.0,0.01,-0.09885906428098679,-0.15483933687210083,0.038970980793237686,0.01,0.0,0.0,0.0,0.01,0.0,0.0,0.0,0.01,0.4115487838510424,-9.45073169876039,-0.8080878492925315,0.01,0.0,0.0,0.0,0.01,0.0,0.0,0.0,0.01
1700026578.9715855,60801,1700026578,960601856,gx5_link,0.6644071340560913,0.13812056183815002,0.13512270152568817,0.7219610214233398,0.01,0.0,0.0,0.0,0.01,0.0,0.0,0.0,0.01,-0.09189897030591965,-0.15440773963928223,0.06776411831378937,0.01,0.0,0.0,0.0,0.01,0.0,0.0,0.0,0.01,0.3876854585088789,-9.414617013806104,-0.8592964238084853,0.01,0.0,0.0,0.0,0.01,0.0,0.0,0.0,0.01
1700026578.977568,60802,1700026578,970607616,gx5_link,0.6642488837242126,0.13722039759159088,0.13497941195964813,0.7223051190376282,0.01,0.0,0.0,0.0,0.01,0.0,0.0,0.0,0.01,-0.08496185392141342,-0.15387268364429474,0.08890464901924133,0.01,0.0,0.0,0.0,0.01,0.0,0.0,0.0,0.01,0.40765674484856423,-9.340686100676654,-0.891618657677248,0.01,0.0,0.0,0.0,0.01,0.0,0.0,0.0,0.01
1700026578.989524,60803,1700026578,980615168,gx5_link,0.6640968918800354,0.136287122964859,0.1348598748445511,0.7226437926292419,0.01,0.0,0.0,0.0,0.01,0.0,0.0,0.0,0.01,-0.08542943745851517,-0.153251051902771,0.09926307946443558,0.01,0.0,0.0,0.0,0.01,0.0,0.0,0.0,0.01,0.42024190299231556,-9.262228065511584,-0.9062319971803575,0.01,0.0,0.0,0.0,0.01,0.0,0.0,0.0,0.01
1700026579.0013778,60804,1700026578,990624512,gx5_link,0.6639133095741272,0.13532303273677826,0.13470986485481262,0.7230214476585388,0.01,0.0,0.0,0.0,0.01,0.0,0.0,0.0,0.01,-0.09308242797851562,-0.16187475621700287,0.10002392530441284,0.01,0.0,0.0,0.0,0.01,0.0,0.0,0.0,0.01,0.4014336690826341,-9.268470174771547,-0.8791000984963029,0.01,0.0,0.0,0.0,0.01,0.0,0.0,0.0,0.01
1700026579.008003,60805,1700026579,630784,gx5_link,0.6636916399002075,0.13428720831871033,0.13455285131931305,0.723447322845459,0.01,0.0,0.0,0.0,0.01,0.0,0.0,0.0,0.01,-0.10352171212434769,-0.174787238240242,0.10448181629180908,0.01,0.0,0.0,0.0,0.01,0.0,0.0,0.0,0.01,0.38806974511872977,-9.355407868990302,-0.9428918949272483,0.01,0.0,0.0,0.0,0.01,0.0,0.0,0.0,0.01
1700026579.0264199,60806,1700026579,10638592,gx5_link,0.6634711027145386,0.13318122923374176,0.13439619541168213,0.7238829731941223,0.01,0.0,0.0,0.0,0.01,0.0,0.0,0.0,0.01,-0.11035096645355225,-0.1863952875137329,0.11335430294275284,0.01,0.0,0.0,0.0,0.01,0.0,0.0,0.0,0.01,0.37538437800351526,-9.340894774991273,-0.9044707596614956,0.01,0.0,0.0,0.0,0.01,0.0,0.0,0.0,0.01
1700026579.0310483,60807,1700026579,20648448,gx5_link,0.6632378101348877,0.1320456713438034,0.13422948122024536,0.7243356108665466,0.01,0.0,0.0,0.0,0.01,0.0,0.0,0.0,0.01,-0.1179288774728775,-0.1943424940109253,0.1147371307015419,0.01,0.0,0.0,0.0,0.01,0.0,0.0,0.0,0.01,0.36595417675934727,-9.321908334970473,-0.8030986627031117,0.01,0.0,0.0,0.0,0.01,0.0,0.0,0.0,0.01
1700026579.0364358,60808,1700026579,30653440,gx5_link,0.6630004644393921,0.13091441988945007,0.13399934768676758,0.724800705909729,0.01,0.0,0.0,0.0,0.01,0.0,0.0,0.0,0.01,-0.12080913037061691,-0.20371951162815094,0.10321962088346481,0.01,0.0,0.0,0.0,0.01,0.0,0.0,0.0,0.01,0.2987514393737539,-9.242657103601097,-0.8220788921788335,0.01,0.0,0.0,0.0,0.01,0.0,0.0,0.0,0.01
1700026579.050229,60809,1700026579,40661504,gx5_link,0.6627669930458069,0.1297709047794342,0.13373927772045135,0.7252678275108337,0.01,0.0,0.0,0.0,0.01,0.0,0.0,0.0,0.01,-0.12540391087532043,-0.20964083075523376,0.09923244267702103,0.01,0.0,0.0,0.0,0.01,0.0,0.0,0.0,0.01,0.19768022505808622,-9.40638051585853,-0.6292698898863047,0.01,0.0,0.0,0.0,0.01,0.0,0.0,0.0,0.01
1700026579.062245,60810,1700026579,50671360,gx5_link,0.6625431776046753,0.12863869965076447,0.1335371881723404,0.7257109880447388,0.01,0.0,0.0,0.0,0.01,0.0,0.0,0.0,0.01,-0.12598609924316406,-0.20488159358501434,0.10263144224882126,0.01,0.0,0.0,0.0,0.01,0.0,0.0,0.0,0.01,0.11878580776974558,-9.499690667718648,-0.5681089534156024,0.01,0.0,0.0,0.0,0.01,0.0,0.0,0.0,0.01
1700026579.0675755,60811,1700026579,60677120,gx5_link,0.6622796654701233,0.12756061553955078,0.13339708745479584,0.7261674404144287,0.01,0.0,0.0,0.0,0.01,0.0,0.0,0.0,0.01,-0.13430921733379364,-0.19030340015888214,0.10172875970602036,0.01,0.0,0.0,0.0,0.01,0.0,0.0,0.0,0.01,0.06439177618466783,-9.495588493096827,-0.5544870361026376,0.01,0.0,0.0,0.0,0.01,0.0,0.0,0.0,0.01
1700026579.08535,60812,1700026579,70684416,gx5_link,0.6619592905044556,0.1265597641468048,0.13325203955173492,0.7266611456871033,0.01,0.0,0.0,0.0,0.01,0.0,0.0,0.0,0.01,-0.14459006488323212,-0.17847828567028046,0.08851193636655807,0.01,0.0,0.0,0.0,0.01,0.0,0.0,0.0,0.01,0.039479919037106445,-9.414006188431381,-0.5727737303562462,0.01,0.0,0.0,0.0,0.01,0.0,0.0,0.0,0.01
1700026579.0907214,60813,1700026579,80693760,gx5_link,0.6615685224533081,0.12568221986293793,0.13306741416454315,0.7272029519081116,0.01,0.0,0.0,0.0,0.01,0.0,0.0,0.0,0.01,-0.15483027696609497,-0.16542665660381317,0.06514216959476471,0.01,0.0,0.0,0.0,0.01,0.0,0.0,0.0,0.01,0.03584201005932409,-9.308783480459452,-0.5910571732068434,0.01,0.0,0.0,0.0,0.01,0.0,0.0,0.0,0.01
1700026579.0972843,60814,1700026579,90699520,gx5_link,0.6610977649688721,0.12488336861133575,0.1328253298997879,0.7278127074241638,0.01,0.0,0.0,0.0,0.01,0.0,0.0,0.0,0.01,-0.16352951526641846,-0.16005226969718933,0.044277675449848175,0.01,0.0,0.0,0.0,0.01,0.0,0.0,0.0,0.01,0.0328410701110959,-9.235537042462825,-0.778673465694487,0.01,0.0,0.0,0.0,0.01,0.0,0.0,0.0,0.01
1700026579.109798,60815,1700026579,100707584,gx5_link,0.6605993509292603,0.1241503655910492,0.13246873021125793,0.7284554839134216,0.01,0.0,0.0,0.0,0.01,0.0,0.0,0.0,0.01,-0.16238167881965637,-0.1623789221048355,0.016948245465755463,0.01,0.0,0.0,0.0,0.01,0.0,0.0,0.0,0.01,0.01210800105209928,-9.14364026453197,-0.990781042696908,0.01,0.0,0.0,0.0,0.01,0.0,0.0,0.0,0.01
1700026579.1216602,60816,1700026579,110717440,gx5_link,0.6601077914237976,0.12346117943525314,0.13201546669006348,0.7291001081466675,0.01,0.0,0.0,0.0,0.01,0.0,0.0,0.0,0.01,-0.15830451250076294,-0.16635195910930634,-0.004062867723405361,0.01,0.0,0.0,0.0,0.01,0.0,0.0,0.0,0.01,-0.02686449361925479,-9.192413940051198,-1.0462306157834826,0.01,0.0,0.0,0.0,0.01,0.0,0.0,0.0,0.01
1700026579.1271596,60817,1700026579,120722432,gx5_link,0.6596503257751465,0.12281467020511627,0.13155518472194672,0.729706346988678,0.01,0.0,0.0,0.0,0.01,0.0,0.0,0.0,0.01,-0.15024186670780182,-0.16222640872001648,-0.011803196743130684,0.01,0.0,0.0,0.0,0.01,0.0,0.0,0.0,0.01,-0.08898674483620561,-9.296805457895994,-1.0267181791272013,0.01,0.0,0.0,0.0,0.01,0.0,0.0,0.0,0.01
1700026579.1457543,60818,1700026579,130730752,gx5_link,0.6592277884483337,0.12223628163337708,0.13116355240345,0.730255663394928,0.01,0.0,0.0,0.0,0.01,0.0,0.0,0.0,0.01,-0.1394449770450592,-0.14569367468357086,-0.012860280461609364,0.01,0.0,0.0,0.0,0.01,0.0,0.0,0.0,0.01,-0.13429449781053698,-9.292882146972417,-1.0056196423232555,0.01,0.0,0.0,0.0,0.01,0.0,0.0,0.0,0.01
1700026579.1514304,60819,1700026579,140740864,gx5_link,0.658815324306488,0.1218145415186882,0.13082468509674072,0.7307588458061218,0.01,0.0,0.0,0.0,0.01,0.0,0.0,0.0,0.01,-0.13094335794448853,-0.11851169168949127,-0.024977805092930794,0.01,0.0,0.0,0.0,0.01,0.0,0.0,0.0,0.01,-0.1728364007785916,-9.266547682276368,-0.9291047771152109,0.01,0.0,0.0,0.0,0.01,0.0,0.0,0.0,0.01
1700026579.156766,60820,1700026579,150746112,gx5_link,0.6584281325340271,0.12156376987695694,0.1305147260427475,0.7312048673629761,0.01,0.0,0.0,0.0,0.01,0.0,0.0,0.0,0.01,-0.1190730631351471,-0.09075510501861572,-0.04145621135830879,0.01,0.0,0.0,0.0,0.01,0.0,0.0,0.0,0.01,-0.21828374488670377,-9.313121217402815,-0.9062518709246069,0.01,0.0,0.0,0.0,0.01,0.0,0.0,0.0,0.01
1700026579.1693158,60821,1700026579,160753152,gx5_link,0.6580485105514526,0.1215243861079216,0.13020838797092438,0.7316076755523682,0.01,0.0,0.0,0.0,0.01,0.0,0.0,0.0,0.01,-0.10653332620859146,-0.05932195484638214,-0.06707733124494553,0.01,0.0,0.0,0.0,0.01,0.0,0.0,0.0,0.01,-0.20890140137225388,-9.316042657807468,-0.9095290659643709,0.01,0.0,0.0,0.0,0.01,0.0,0.0,0.0,0.01
1700026579.1811073,60822,1700026579,170761984,gx5_link,0.6576496958732605,0.12169940024614334,0.12984000146389008,0.7320026159286499,0.01,0.0,0.0,0.0,0.01,0.0,0.0,0.0,0.01,-0.09988927841186523,-0.03477716073393822,-0.10211747884750366,0.01,0.0,0.0,0.0,0.01,0.0,0.0,0.0,0.01,-0.18772934267437083,-9.370508407488465,-0.9154008806072175,0.01,0.0,0.0,0.0,0.01,0.0,0.0,0.0,0.01
1700026579.1878245,60823,1700026579,180767744,gx5_link,0.6572097539901733,0.12207658588886261,0.12940680980682373,0.7324115037918091,0.01,0.0,0.0,0.0,0.01,0.0,0.0,0.0,0.01,-0.09885293245315552,-0.012177275493741035,-0.13702784478664398,0.01,0.0,0.0,0.0,0.01,0.0,0.0,0.0,0.01,-0.11846992848729714,-9.405301488450169,-0.9920211789511144,0.01,0.0,0.0,0.0,0.01,0.0,0.0,0.0,0.01
1700026579.2067266,60824,1700026579,190775296,gx5_link,0.6567209959030151,0.12260899692773819,0.12888063490390778,0.7328535914421082,0.01,0.0,0.0,0.0,0.01,0.0,0.0,0.0,0.01,-0.09988519549369812,0.0008549919002689421,-0.1701575666666031,0.01,0.0,0.0,0.0,0.01,0.0,0.0,0.0,0.01,-0.03545213624219177,-9.454521154171228,-1.0727237781725822,0.01,0.0,0.0,0.0,0.01,0.0,0.0,0.0,0.01
1700026579.21118,60825,1700026579,200784640,gx5_link,0.6561979055404663,0.12323344498872757,0.12824837863445282,0.7333281636238098,0.01,0.0,0.0,0.0,0.01,0.0,0.0,0.0,0.01,-0.10310126096010208,0.002291814424097538,-0.1973864585161209,0.01,0.0,0.0,0.0,0.01,0.0,0.0,0.0,0.01,0.04111245670896023,-9.509191486513615,-1.2029370619509367,0.01,0.0,0.0,0.0,0.01,0.0,0.0,0.0,0.01
1700026579.2176728,60826,1700026579,210790912,gx5_link,0.6556428670883179,0.12383591383695602,0.12752480804920197,0.7338492274284363,0.01,0.0,0.0,0.0,0.01,0.0,0.0,0.0,0.01,-0.10635427385568619,-0.008003514260053635,-0.2104186862707138,0.01,0.0,0.0,0.0,0.01,0.0,0.0,0.0,0.01,0.10536039940956979,-9.598182021608949,-1.3049312363304197,0.01,0.0,0.0,0.0,0.01,0.0,0.0,0.0,0.01
1700026579.2300205,60827,1700026579,220798976,gx5_link,0.6550977230072021,0.1243799701333046,0.12673963606357574,0.7343798875808716,0.01,0.0,0.0,0.0,0.01,0.0,0.0,0.0,0.01,-0.10606534034013748,-0.02426455356180668,-0.21336482465267181,0.01,0.0,0.0,0.0,0.01,0.0,0.0,0.0,0.01,0.1390858511397615,-9.633076809379459,-1.35454443141371,0.01,0.0,0.0,0.0,0.01,0.0,0.0,0.0,0.01
1700026579.24123,60828,1700026579,230808576,gx5_link,0.6545528769493103,0.12485403567552567,0.12590694427490234,0.7349281907081604,0.01,0.0,0.0,0.0,0.01,0.0,0.0,0.0,0.01,-0.10849244892597198,-0.04129820317029953,-0.2130153626203537,0.01,0.0,0.0,0.0,0.01,0.0,0.0,0.0,0.01,0.1350924797878135,-9.719436411449312,-1.374972740805894,0.01,0.0,0.0,0.0,0.01,0.0,0.0,0.0,0.01
1700026579.246701,60829,1700026579,240813824,gx5_link,0.6540271639823914,0.12532033026218414,0.12511542439460754,0.735451877117157,0.01,0.0,0.0,0.0,0.01,0.0,0.0,0.0,0.01,-0.11241764575242996,-0.040844522416591644,-0.20644710958003998,0.01,0.0,0.0,0.0,0.01,0.0,0.0,0.0,0.01,0.1475318636521697,-9.790935713517666,-1.198815305845812,0.01,0.0,0.0,0.0,0.01,0.0,0.0,0.0,0.01
1700026579.2600832,60830,1700026579,250821120,gx5_link,0.653514564037323,0.12578076124191284,0.12446718662977219,0.7359388470649719,0.01,0.0,0.0,0.0,0.01,0.0,0.0,0.0,0.01,-0.11163902282714844,-0.02679748460650444,-0.18507061898708344,0.01,0.0,0.0,0.0,0.01,0.0,0.0,0.0,0.01,0.148618645108724,-9.887782807332277,-1.1163505923226476,0.01,0.0,0.0,0.0,0.01,0.0,0.0,0.0,0.01
1700026579.2716541,60831,1700026579,260830976,gx5_link,0.6530463695526123,0.12616592645645142,0.12400877475738525,0.7363656759262085,0.01,0.0,0.0,0.0,0.01,0.0,0.0,0.0,0.01,-0.10256139189004898,-0.012937483377754688,-0.14628712832927704,0.01,0.0,0.0,0.0,0.01,0.0,0.0,0.0,0.01,0.18089876600196583,-9.92529976029992,-1.1599987415216861,0.01,0.0,0.0,0.0,0.01,0.0,0.0,0.0,0.01
1700026579.2840884,60832,1700026579,270842880,gx5_link,0.6526663899421692,0.1264500916004181,0.12369667738676071,0.7367062568664551,0.01,0.0,0.0,0.0,0.01,0.0,0.0,0.0,0.01,-0.08084127306938171,-0.008014894090592861,-0.10738396644592285,0.01,0.0,0.0,0.0,0.01,0.0,0.0,0.0,0.01,0.2190954631283879,-9.88662077781558,-1.3059858599498868,0.01,0.0,0.0,0.0,0.01,0.0,0.0,0.0,0.01
1700026579.289581,60833,1700026579,282848256,gx5_link,0.652449905872345,0.1265885978937149,0.12347331643104553,0.7369117736816406,0.01,0.0,0.0,0.0,0.01,0.0,0.0,0.0,0.01,-0.05038704350590706,-0.014603640884160995,-0.06904256343841553,0.01,0.0,0.0,0.0,0.01,0.0,0.0,0.0,0.01,0.2309807111081667,-9.972436774528026,-1.2981535588890314,0.01,0.0,0.0,0.0,0.01,0.0,0.0,0.0,0.01
1700026579.3006933,60834,1700026579,292855040,gx5_link,0.6523109674453735,0.12667366862297058,0.12333881109952927,0.7370426058769226,0.01,0.0,0.0,0.0,0.01,0.0,0.0,0.0,0.01,-0.036614738404750824,-0.013796000741422176,-0.04508192837238312,0.01,0.0,0.0,0.0,0.01,0.0,0.0,0.0,0.01,0.23379319297932086,-10.033526326262951,-1.1637141087830065,0.01,0.0,0.0,0.0,0.01,0.0,0.0,0.0,0.01
1700026579.313112,60835,1700026579,302864128,gx5_link,0.6521261930465698,0.12680374085903168,0.1231977567076683,0.737207293510437,0.01,0.0,0.0,0.0,0.01,0.0,0.0,0.0,0.01,-0.046485330909490585,-0.008989053778350353,-0.05027221515774727,0.01,0.0,0.0,0.0,0.01,0.0,0.0,0.0,0.01,0.26255521361585704,-9.984002124637366,-1.0889850310131908,0.01,0.0,0.0,0.0,0.01,0.0,0.0,0.0,0.01
1700026579.3280072,60836,1700026579,312875520,gx5_link,0.6517930626869202,0.1270575374364853,0.12297292798757553,0.7374956607818604,0.01,0.0,0.0,0.0,0.01,0.0,0.0,0.0,0.01,-0.07488948851823807,-0.002894973149523139,-0.08003998547792435,0.01,0.0,0.0,0.0,0.01,0.0,0.0,0.0,0.01,0.2852266440260224,-9.959753818565606,-1.0923993695013225,0.01,0.0,0.0,0.0,0.01,0.0,0.0,0.0,0.01
1700026579.331177,60837,1700026579,322882816,gx5_link,0.6513226628303528,0.12742385268211365,0.12261606752872467,0.7379074692726135,0.01,0.0,0.0,0.0,0.01,0.0,0.0,0.0,0.01,-0.10259522497653961,-0.0020651824306696653,-0.11894823610782623,0.01,0.0,0.0,0.0,0.01,0.0,0.0,0.0,0.01,0.2661480687423609,-9.953744933539628,-1.1297755257587878,0.01,0.0,0.0,0.0,0.01,0.0,0.0,0.0,0.01
1700026579.3429427,60838,1700026579,332892160,gx5_link,0.650748610496521,0.12784984707832336,0.12212046980857849,0.7384222149848938,0.01,0.0,0.0,0.0,0.01,0.0,0.0,0.0,0.01,-0.12603676319122314,-0.008871001191437244,-0.15199828147888184,0.01,0.0,0.0,0.0,0.01,0.0,0.0,0.0,0.01,0.25611955454517155,-9.967644864076375,-1.1324058742623775,0.01,0.0,0.0,0.0,0.01,0.0,0.0,0.0,0.01
1700026579.3502991,60839,1700026579,342898176,gx5_link,0.6501622796058655,0.12832514941692352,0.1215544193983078,0.7389494180679321,0.01,0.0,0.0,0.0,0.01,0.0,0.0,0.0,0.01,-0.12953248620033264,-0.01190378237515688,-0.17195011675357819,0.01,0.0,0.0,0.0,0.01,0.0,0.0,0.0,0.01,0.22229314492484553,-10.098437482112645,-1.1476414373170585,0.01,0.0,0.0,0.0,0.01,0.0,0.0,0.0,0.01
1700026579.3620133,60840,1700026579,352905984,gx5_link,0.6496183276176453,0.12873360514640808,0.12103351205587387,0.7394421100616455,0.01,0.0,0.0,0.0,0.01,0.0,0.0,0.0,0.01,-0.12520278990268707,-0.01588333211839199,-0.16013023257255554,0.01,0.0,0.0,0.0,0.01,0.0,0.0,0.0,0.01,0.19602266710940747,-10.304226596683263,-1.1100136443860829,0.01,0.0,0.0,0.0,0.01,0.0,0.0,0.0,0.01
1700026579.3738687,60841,1700026579,362915840,gx5_link,0.6491445302963257,0.129024937748909,0.12066446989774704,0.7398675680160522,0.01,0.0,0.0,0.0,0.01,0.0,0.0,0.0,0.01,-0.11694766581058502,-0.015691425651311874,-0.12589538097381592,0.01,0.0,0.0,0.0,0.01,0.0,0.0,0.0,0.01,0.17692140506990253,-10.476959829348326,-1.0555465064655989,0.01,0.0,0.0,0.0,0.01,0.0,0.0,0.0,0.01
1700026579.3865302,60842,1700026579,372920832,gx5_link,0.6487265229225159,0.12917979061603546,0.12048280984163284,0.7402366995811462,0.01,0.0,0.0,0.0,0.01,0.0,0.0,0.0,0.01,-0.11235042661428452,-0.013515916652977467,-0.08024011552333832,0.01,0.0,0.0,0.0,0.01,0.0,0.0,0.0,0.01,0.15872003274587915,-10.598377885317802,-1.0526023427724838,0.01,0.0,0.0,0.0,0.01,0.0,0.0,0.0,0.01
1700026579.3916607,60843,1700026579,382928640,gx5_link,0.6483280658721924,0.12917476892471313,0.12050749361515045,0.7405825853347778,0.01,0.0,0.0,0.0,0.01,0.0,0.0,0.0,0.01,-0.11382107436656952,-0.011128694750368595,-0.03109903261065483,0.01,0.0,0.0,0.0,0.01,0.0,0.0,0.0,0.01,0.1518994934102986,-10.579493152105808,-1.0596681164402515,0.01,0.0,0.0,0.0,0.01,0.0,0.0,0.0,0.01
1700026579.403873,60844,1700026579,392938240,gx5_link,0.647921085357666,0.12907011806964874,0.12071004509925842,0.7409240007400513,0.01,0.0,0.0,0.0,0.01,0.0,0.0,0.0,0.01,-0.12340798228979111,-0.00392945297062397,0.008625142276287079,0.01,0.0,0.0,0.0,0.01,0.0,0.0,0.0,0.01,0.16173293255995957,-10.47221584969163,-0.9618996699970215,0.01,0.0,0.0,0.0,0.01,0.0,0.0,0.0,0.01
1700026579.4097216,60845,1700026579,402943488,gx5_link,0.6474969983100891,0.12893682718276978,0.12103059887886047,0.741265594959259,0.01,0.0,0.0,0.0,0.01,0.0,0.0,0.0,0.01,-0.1304202675819397,0.007632843684405088,0.033876076340675354,0.01,0.0,0.0,0.0,0.01,0.0,0.0,0.0,0.01,0.20775964745860545,-10.272599286276101,-0.9088810503844171,0.01,0.0,0.0,0.0,0.01,0.0,0.0,0.0,0.01
1700026579.4207108,60846,1700026579,412950272,gx5_link,0.6470520496368408,0.12885169684886932,0.12146066129207611,0.7415984869003296,0.01,0.0,0.0,0.0,0.01,0.0,0.0,0.0,0.01,-0.13318414986133575,0.028343088924884796,0.0483148917555809,0.01,0.0,0.0,0.0,0.01,0.0,0.0,0.0,0.01,0.2549740743044764,-10.093339282190799,-0.940507045617327,0.01,0.0,0.0,0.0,0.01,0.0,0.0,0.0,0.01
1700026579.4331172,60847,1700026579,422959360,gx5_link,0.6466403007507324,0.12876412272453308,0.12193380296230316,0.7418950796127319,0.01,0.0,0.0,0.0,0.01,0.0,0.0,0.0,0.01,-0.1222776398062706,0.03717583417892456,0.05989733338356018,0.01,0.0,0.0,0.0,0.01,0.0,0.0,0.0,0.01,0.2938462595396675,-10.009138903981446,-1.019742275699973,0.01,0.0,0.0,0.0,0.01,0.0,0.0,0.0,0.01
1700026579.4479547,60848,1700026579,432967168,gx5_link,0.6462610363960266,0.12864097952842712,0.12243378162384033,0.7421645522117615,0.01,0.0,0.0,0.0,0.01,0.0,0.0,0.0,0.01,-0.11133629828691483,0.037037443369627,0.07195208221673965,0.01,0.0,0.0,0.0,0.01,0.0,0.0,0.0,0.01,0.35032756856046615,-9.95545992076397,-1.1601103852026164,0.01,0.0,0.0,0.0,0.01,0.0,0.0,0.0,0.01
1700026579.4510717,60849,1700026579,442974464,gx5_link,0.645910918712616,0.12848110496997833,0.12290371209383011,0.7424193024635315,0.01,0.0,0.0,0.0,0.01,0.0,0.0,0.0,0.01,-0.10192231833934784,0.028530053794384003,0.07670148462057114,0.01,0.0,0.0,0.0,0.01,0.0,0.0,0.0,0.01,0.4383269371939823,-9.893892230123281,-1.2934662778556345,0.01,0.0,0.0,0.0,0.01,0.0,0.0,0.0,0.01
1700026579.4634194,60850,1700026579,452983808,gx5_link,0.6455485224723816,0.1283007264137268,0.1231936663389206,0.7427176237106323,0.01,0.0,0.0,0.0,0.01,0.0,0.0,0.0,0.01,-0.10582345724105835,0.00535727571696043,0.05495799332857132,0.01,0.0,0.0,0.0,0.01,0.0,0.0,0.0,0.01,0.4883303371712565,-9.780048993322252,-1.3519352718286215,0.01,0.0,0.0,0.0,0.01,0.0,0.0,0.0,0.01
1700026579.470239,60851,1700026579,462989568,gx5_link,0.6450925469398499,0.12809117138385773,0.12326261401176453,0.7431383728981018,0.01,0.0,0.0,0.0,0.01,0.0,0.0,0.0,0.01,-0.12363522499799728,-0.025432782247662544,0.02507796883583069,0.01,0.0,0.0,0.0,0.01,0.0,0.0,0.0,0.01,0.5056988571340217,-9.795773801198601,-1.3926054281301796,0.01,0.0,0.0,0.0,0.01,0.0,0.0,0.0,0.01
1700026579.4819107,60852,1700026579,472997376,gx5_link,0.6445700526237488,0.12782086431980133,0.12317067384719849,0.7436533570289612,0.01,0.0,0.0,0.0,0.01,0.0,0.0,0.0,0.01,-0.14071941375732422,-0.05592237785458565,0.004774259403347969,0.01,0.0,0.0,0.0,0.01,0.0,0.0,0.0,0.01,0.4961843751398846,-9.81628876596093,-1.4568549052007496,0.01,0.0,0.0,0.0,0.01,0.0,0.0,0.0,0.01
1700026579.4937813,60853,1700026579,483006720,gx5_link,0.6440526247024536,0.12743297219276428,0.12300774455070496,0.7441949844360352,0.01,0.0,0.0,0.0,0.01,0.0,0.0,0.0,0.01,-0.14691786468029022,-0.08367998898029327,0.005612330511212349,0.01,0.0,0.0,0.0,0.01,0.0,0.0,0.0,0.01,0.45907720854952927,-9.83949077785015,-1.4576701671063899,0.01,0.0,0.0,0.0,0.01,0.0,0.0,0.0,0.01
1700026579.5052822,60854,1700026579,493011712,gx5_link,0.6435753703117371,0.1268826574087143,0.12283932417631149,0.7447295188903809,0.01,0.0,0.0,0.0,0.01,0.0,0.0,0.0,0.01,-0.14393919706344604,-0.10942843556404114,0.020689375698566437,0.01,0.0,0.0,0.0,0.01,0.0,0.0,0.0,0.01,0.3813644753264263,-9.827222832429408,-1.5208170897625386,0.01,0.0,0.0,0.0,0.01,0.0,0.0,0.0,0.01
1700026579.511735,60855,1700026579,503019520,gx5_link,0.6431189179420471,0.12620098888874054,0.12270813435316086,0.7452611923217773,0.01,0.0,0.0,0.0,0.01,0.0,0.0,0.0,0.01,-0.1473725438117981,-0.12590844929218292,0.03849855065345764,0.01,0.0,0.0,0.0,0.01,0.0,0.0,0.0,0.01,0.3022704072801396,-9.808535667616129,-1.4648089329451321,0.01,0.0,0.0,0.0,0.01,0.0,0.0,0.0,0.01
1700026579.5234091,60856,1700026579,513028864,gx5_link,0.6426712870597839,0.12549036741256714,0.12266195565462112,0.7457746267318726,0.01,0.0,0.0,0.0,0.01,0.0,0.0,0.0,0.01,-0.1513390690088272,-0.12449511140584946,0.05464807525277138,0.01,0.0,0.0,0.0,0.01,0.0,0.0,0.0,0.01,0.2494044026796706,-9.763371999287605,-1.3355106451198457,0.01,0.0,0.0,0.0,0.01,0.0,0.0,0.0,0.01
1700026579.5294502,60857,1700026579,523034112,gx5_link,0.6422383189201355,0.12479100376367569,0.12276852130889893,0.7462472915649414,0.01,0.0,0.0,0.0,0.01,0.0,0.0,0.0,0.01,-0.15001948177814484,-0.10587748885154724,0.07671944051980972,0.01,0.0,0.0,0.0,0.01,0.0,0.0,0.0,0.01,0.20291005200296638,-9.733501761680841,-1.2791628810845315,0.01,0.0,0.0,0.0,0.01,0.0,0.0,0.0,0.01
1700026579.5411704,60858,1700026579,533040896,gx5_link,0.6418522000312805,0.12410661578178406,0.12304706871509552,0.7466476559638977,0.01,0.0,0.0,0.0,0.01,0.0,0.0,0.0,0.01,-0.135545551776886,-0.08126866072416306,0.10224165767431259,0.01,0.0,0.0,0.0,0.01,0.0,0.0,0.0,0.01,0.19605432262299582,-9.68691478255093,-1.3183753859236835,0.01,0.0,0.0,0.0,0.01,0.0,0.0,0.0,0.01
1700026579.5544055,60859,1700026579,543051008,gx5_link,0.6415411233901978,0.12345124036073685,0.1234247237443924,0.7469613552093506,0.01,0.0,0.0,0.0,0.01,0.0,0.0,0.0,0.01,-0.11332816630601883,-0.06314927339553833,0.1198052316904068,0.01,0.0,0.0,0.0,0.01,0.0,0.0,0.0,0.01,0.2559919278438203,-9.535057749176024,-1.408061648198217,0.01,0.0,0.0,0.0,0.01,0.0,0.0,0.0,0.01
1700026579.5626032,60860,1700026579,553056768,gx5_link,0.6412763595581055,0.12285295128822327,0.12378771603107452,0.747227132320404,0.01,0.0,0.0,0.0,0.01,0.0,0.0,0.0,0.01,-0.09527260065078735,-0.05477346107363701,0.11820115894079208,0.01,0.0,0.0,0.0,0.01,0.0,0.0,0.0,0.01,0.3465580599591136,-9.395705392587184,-1.51935023208037,0.01,0.0,0.0,0.0,0.01,0.0,0.0,0.0,0.01
1700026579.571657,60861,1700026579,563064064,gx5_link,0.6410243511199951,0.12229544669389725,0.12397972494363785,0.7475029230117798,0.01,0.0,0.0,0.0,0.01,0.0,0.0,0.0,0.01,-0.08274165540933609,-0.06619803607463837,0.0945504903793335,0.01,0.0,0.0,0.0,0.01,0.0,0.0,0.0,0.01,0.41872061170917,-9.261242561605572,-1.6834776950940489,0.01,0.0,0.0,0.0,0.01,0.0,0.0,0.0,0.01
1700026579.5834675,60862,1700026579,573073152,gx5_link,0.6407936811447144,0.12177799642086029,0.12391626089811325,0.7477956414222717,0.01,0.0,0.0,0.0,0.01,0.0,0.0,0.0,0.01,-0.07297204434871674,-0.09130828082561493,0.05595651641488075,0.01,0.0,0.0,0.0,0.01,0.0,0.0,0.0,0.01,0.4681203101722523,-9.203044639658927,-1.7427517218396067,0.01,0.0,0.0,0.0,0.01,0.0,0.0,0.0,0.01
1700026579.590016,60863,1700026579,583079168,gx5_link,0.6405619978904724,0.12132854014635086,0.12358506768941879,0.7481219172477722,0.01,0.0,0.0,0.0,0.01,0.0,0.0,0.0,0.01,-0.0704980120062828,-0.11623172461986542,0.008156642317771912,0.01,0.0,0.0,0.0,0.01,0.0,0.0,0.0,0.01,0.4793467471834272,-9.247747704738378,-1.7126409534752367,0.01,0.0,0.0,0.0,0.01,0.0,0.0,0.0,0.01
1700026579.6019003,60864,1700026579,593086976,gx5_link,0.6402838826179504,0.12092910706996918,0.12300406396389008,0.7485203742980957,0.01,0.0,0.0,0.0,0.01,0.0,0.0,0.0,0.01,-0.07703544944524765,-0.14187483489513397,-0.04023845121264458,0.01,0.0,0.0,0.0,0.01,0.0,0.0,0.0,0.01,0.415470450806804,-9.352366017076372,-1.78873664342314,0.01,0.0,0.0,0.0,0.01,0.0,0.0,0.0,0.01
1700026579.613623,60865,1700026579,603096064,gx5_link,0.639937162399292,0.12053298205137253,0.12221557646989822,0.7490097284317017,0.01,0.0,0.0,0.0,0.01,0.0,0.0,0.0,0.01,-0.09335537999868393,-0.16756658256053925,-0.07919365167617798,0.01,0.0,0.0,0.0,0.01,0.0,0.0,0.0,0.01,0.32776604653187097,-9.574743862876295,-1.7682608416274188,0.01,0.0,0.0,0.0,0.01,0.0,0.0,0.0,0.01
1700026579.6249752,60866,1700026579,613100544,gx5_link,0.6395195126533508,0.12012767046689987,0.12137609720230103,0.7495678663253784,0.01,0.0,0.0,0.0,0.01,0.0,0.0,0.0,0.01,-0.11560172587633133,-0.1796131283044815,-0.09444431215524673,0.01,0.0,0.0,0.0,0.01,0.0,0.0,0.0,0.01,0.2420533457971178,-9.769710554659365,-1.6875428987063466,0.01,0.0,0.0,0.0,0.01,0.0,0.0,0.0,0.01
1700026579.632246,60867,1700026579,623108096,gx5_link,0.6390273571014404,0.11968878656625748,0.12059924006462097,0.7501829862594604,0.01,0.0,0.0,0.0,0.01,0.0,0.0,0.0,0.01,-0.13925065100193024,-0.178550586104393,-0.08999115973711014,0.01,0.0,0.0,0.0,0.01,0.0,0.0,0.0,0.01,0.17465707686711102,-9.9373105160892,-1.600378556124866,0.01,0.0,0.0,0.0,0.01,0.0,0.0,0.0,0.01
1700026579.6439574,60868,1700026579,633117440,gx5_link,0.638461172580719,0.11917200684547424,0.1200205534696579,0.7508398294448853,0.01,0.0,0.0,0.0,0.01,0.0,0.0,0.0,0.01,-0.16301989555358887,-0.16768412292003632,-0.060010794550180435,0.01,0.0,0.0,0.0,0.01,0.0,0.0,0.0,0.01,0.1211134561328683,-10.039128384053706,-1.612654830982536,0.01,0.0,0.0,0.0,0.01,0.0,0.0,0.0,0.01
1700026579.6493254,60869,1700026579,643122432,gx5_link,0.6378680467605591,0.118533656001091,0.11962549388408661,0.7515076994895935,0.01,0.0,0.0,0.0,0.01,0.0,0.0,0.0,0.01,-0.17205892503261566,-0.16143551468849182,-0.02123124897480011,0.01,0.0,0.0,0.0,0.01,0.0,0.0,0.0,0.01,0.08605924001694656,-9.947722019988298,-1.7140867683693766,0.01,0.0,0.0,0.0,0.01,0.0,0.0,0.0,0.01
1700026579.661084,60870,1700026579,653129216,gx5_link,0.637306272983551,0.11778535693883896,0.11938807368278503,0.7521395683288574,0.01,0.0,0.0,0.0,0.01,0.0,0.0,0.0,0.01,-0.17226824164390564,-0.15765678882598877,0.016119632869958878,0.01,0.0,0.0,0.0,0.01,0.0,0.0,0.0,0.01,0.04127123660040088,-9.850671512556076,-1.6955552325092256,0.01,0.0,0.0,0.0,0.01,0.0,0.0,0.0,0.01
1700026579.6749134,60871,1700026579,663138816,gx5_link,0.6367826461791992,0.11698874831199646,0.11927446722984314,0.7527251243591309,0.01,0.0,0.0,0.0,0.01,0.0,0.0,0.0,0.01,-0.16306041181087494,-0.1496998518705368,0.04155445471405983,0.01,0.0,0.0,0.0,0.01,0.0,0.0,0.0,0.01,-0.011045274041278752,-9.645803019961715,-1.7415522829219698,0.01,0.0,0.0,0.0,0.01,0.0,0.0,0.0,0.01
1700026579.6796079,60872,1700026579,673144064,gx5_link,0.6363366842269897,0.11624330282211304,0.11917851865291595,0.7532328367233276,0.01,0.0,0.0,0.0,0.01,0.0,0.0,0.0,0.01,-0.1470005363225937,-0.13881221413612366,0.04387772083282471,0.01,0.0,0.0,0.0,0.01,0.0,0.0,0.0,0.01,-0.03774911318912636,-9.468178508123755,-1.6252265816554425,0.01,0.0,0.0,0.0,0.01,0.0,0.0,0.0,0.01
1700026579.691461,60873,1700026579,683151360,gx5_link,0.6359148025512695,0.11568446457386017,0.11905788630247116,0.7536941170692444,0.01,0.0,0.0,0.0,0.01,0.0,0.0,0.0,0.01,-0.1321500986814499,-0.11661653965711594,0.0203804150223732,0.01,0.0,0.0,0.0,0.01,0.0,0.0,0.0,0.01,-0.050098973872815256,-9.308041137659549,-1.6047598399490117,0.01,0.0,0.0,0.0,0.01,0.0,0.0,0.0,0.01
1700026579.7031758,60874,1700026579,693159936,gx5_link,0.6355112791061401,0.11535662412643433,0.11884988099336624,0.7541173696517944,0.01,0.0,0.0,0.0,0.01,0.0,0.0,0.0,0.01,-0.11593788862228394,-0.09346313029527664,-0.01651638187468052,0.01,0.0,0.0,0.0,0.01,0.0,0.0,0.0,0.01,-0.06802674885326997,-9.3062869874686,-1.6365126764319835,0.01,0.0,0.0,0.0,0.01,0.0,0.0,0.0,0.01
1700026579.7121704,60875,1700026579,703165440,gx5_link,0.6351109743118286,0.11527956277132034,0.11855464428663254,0.7545127272605896,0.01,0.0,0.0,0.0,0.01,0.0,0.0,0.0,0.01,-0.10487519204616547,-0.06695328652858734,-0.0592183843255043,0.01,0.0,0.0,0.0,0.01,0.0,0.0,0.0,0.01,-0.0386822521536611,-9.367882735159993,-1.6657690199241042,0.01,0.0,0.0,0.0,0.01,0.0,0.0,0.0,0.01
1700026579.7218368,60876,1700026579,713172480,gx5_link,0.6347038745880127,0.11542078107595444,0.1181897222995758,0.7548909783363342,0.01,0.0,0.0,0.0,0.01,0.0,0.0,0.0,0.01,-0.09666147083044052,-0.04261232540011406,-0.09433074295520782,0.01,0.0,0.0,0.0,0.01,0.0,0.0,0.0,0.01,0.023647109325195197,-9.444578436827658,-1.6883609370909631,0.01,0.0,0.0,0.0,0.01,0.0,0.0,0.0,0.01
1700026579.7333972,60877,1700026579,723181056,gx5_link,0.6343031525611877,0.11568362265825272,0.11779017746448517,0.7552497982978821,0.01,0.0,0.0,0.0,0.01,0.0,0.0,0.0,0.01,-0.08534841239452362,-0.027737325057387352,-0.11375386267900467,0.01,0.0,0.0,0.0,0.01,0.0,0.0,0.0,0.01,0.09049184303637593,-9.566104044824838,-1.8083515906058252,0.01,0.0,0.0,0.0,0.01,0.0,0.0,0.0,0.01
1700026579.7402306,60878,1700026579,733186560,gx5_link,0.6339020133018494,0.11595723032951355,0.11734779924154282,0.7556134462356567,0.01,0.0,0.0,0.0,0.01,0.0,0.0,0.0,0.01,-0.07941500097513199,-0.027551207691431046,-0.12299531698226929,0.01,0.0,0.0,0.0,0.01,0.0,0.0,0.0,0.01,0.1472766102494672,-9.63980699441731,-1.9513231606051324,0.01,0.0,0.0,0.0,0.01,0.0,0.0,0.0,0.01
1700026579.752773,60879,1700026579,743193856,gx5_link,0.6335033774375916,0.11623498052358627,0.11688177287578583,0.7559773325920105,0.01,0.0,0.0,0.0,0.01,0.0,0.0,0.0,0.01,-0.0787341296672821,-0.0303949061781168,-0.1261489987373352,0.01,0.0,0.0,0.0,0.01,0.0,0.0,0.0,0.01,0.2100571838112548,-9.703062784275412,-1.9749138795509933,0.01,0.0,0.0,0.0,0.01,0.0,0.0,0.0,0.01
1700026579.7638526,60880,1700026579,753203200,gx5_link,0.6331024765968323,0.11648693680763245,0.11642932891845703,0.7563440203666687,0.01,0.0,0.0,0.0,0.01,0.0,0.0,0.0,0.01,-0.08243455737829208,-0.03178371861577034,-0.12054651230573654,0.01,0.0,0.0,0.0,0.01,0.0,0.0,0.0,0.01,0.2584033728997223,-9.721476977366208,-1.9392450386680662,0.01,0.0,0.0,0.0,0.01,0.0,0.0,0.0,0.01
1700026579.7690866,60881,1700026579,763207680,gx5_link,0.6326833963394165,0.1166444644331932,0.11601223051548004,0.7567344307899475,0.01,0.0,0.0,0.0,0.01,0.0,0.0,0.0,0.01,-0.08887137472629547,-0.040441181510686874,-0.10447834432125092,0.01,0.0,0.0,0.0,0.01,0.0,0.0,0.0,0.01,0.27667030300693585,-9.756640060684084,-1.974704766844958,0.01,0.0,0.0,0.0,0.01,0.0,0.0,0.0,0.01
1700026579.7872033,60882,1700026579,773215232,gx5_link,0.6323047280311584,0.1166977509856224,0.1156737357378006,0.7570944428443909,0.01,0.0,0.0,0.0,0.01,0.0,0.0,0.0,0.01,-0.08466427028179169,-0.04823191463947296,-0.08024431765079498,0.01,0.0,0.0,0.0,0.01,0.0,0.0,0.0,0.01,0.29481019093468785,-9.754847916570306,-1.9581720035865902,0.01,0.0,0.0,0.0,0.01,0.0,0.0,0.0,0.01
1700026579.797962,60883,1700026579,785223680,gx5_link,0.631999135017395,0.1166311502456665,0.1154264286160469,0.7573975324630737,0.01,0.0,0.0,0.0,0.01,0.0,0.0,0.0,0.01,-0.07667934894561768,-0.054002854973077774,-0.049832798540592194,0.01,0.0,0.0,0.0,0.01,0.0,0.0,0.0,0.01,0.3012556955459528,-9.73288801369667,-1.8787386936485766,0.01,0.0,0.0,0.0,0.01,0.0,0.0,0.0,0.01
1700026579.8082216,60884,1700026579,795233536,gx5_link,0.6317281126976013,0.11652912199497223,0.11528626829385757,0.7576606273651123,0.01,0.0,0.0,0.0,0.01,0.0,0.0,0.0,0.01,-0.07083213329315186,-0.04990680515766144,-0.027841486036777496,0.01,0.0,0.0,0.0,0.01,0.0,0.0,0.0,0.01,0.3221826934415847,-9.629001522764563,-1.8092381641820072,0.01,0.0,0.0,0.0,0.01,0.0,0.0,0.0,0.01
1700026579.8144743,60885,1700026579,805239296,gx5_link,0.6314980387687683,0.11642270535230637,0.11520268023014069,0.7578815817832947,0.01,0.0,0.0,0.0,0.01,0.0,0.0,0.0,0.01,-0.06096099317073822,-0.044598158448934555,-0.015104316174983978,0.01,0.0,0.0,0.0,0.01,0.0,0.0,0.0,0.01,0.3071369173379615,-9.59703869679272,-1.784766716878861,0.01,0.0,0.0,0.0,0.01,0.0,0.0,0.0,0.01
1700026579.8247716,60886,1700026579,815246592,gx5_link,0.631359875202179,0.11633582413196564,0.11520162224769592,0.7580100893974304,0.01,0.0,0.0,0.0,0.01,0.0,0.0,0.0,0.01,-0.04381496086716652,-0.03229491040110588,0.00011421309318393469,0.01,0.0,0.0,0.0,0.01,0.0,0.0,0.0,0.01,0.2846675671048462,-9.67257587607503,-1.6439663534387945,0.01,0.0,0.0,0.0,0.01,0.0,0.0,0.0,0.01
1700026579.8492634,60887,1700026579,825257728,gx5_link,0.6313036680221558,0.1162802055478096,0.11532771587371826,0.7580463290214539,0.01,0.0,0.0,0.0,0.01,0.0,0.0,0.0,0.01,-0.02488422393798828,-0.014116221107542515,0.01584881916642189,0.01,0.0,0.0,0.0,0.01,0.0,0.0,0.0,0.01,0.27050896736560387,-9.648240476241707,-1.59210450264588,0.01,0.0,0.0,0.0,0.01,0.0,0.0,0.0,0.01
1700026579.8493176,60888,1700026579,835263744,gx5_link,0.6312861442565918,0.11631020158529282,0.11546726524829865,0.7580350041389465,0.01,0.0,0.0,0.0,0.01,0.0,0.0,0.0,0.01,-0.011404904536902905,0.0012641212670132518,0.01271201390773058,0.01,0.0,0.0,0.0,0.01,0.0,0.0,0.0,0.01,0.31448285965397954,-9.541059035417437,-1.504292363680154,0.01,0.0,0.0,0.0,0.01,0.0,0.0,0.0,0.01
1700026579.8550742,60889,1700026579,845271296,gx5_link,0.6312458515167236,0.11646737158298492,0.11553309857845306,0.758034348487854,0.01,0.0,0.0,0.0,0.01,0.0,0.0,0.0,0.01,-0.011551428586244583,0.01111680082976818,-0.009882636368274689,0.01,0.0,0.0,0.0,0.01,0.0,0.0,0.0,0.01,0.3794618200428784,-9.531406825453043,-1.5391583637475967,0.01,0.0,0.0,0.0,0.01,0.0,0.0,0.0,0.01
1700026579.8734515,60890,1700026579,855287040,gx5_link,0.6311380863189697,0.11671679466962814,0.11548586934804916,0.7580929398536682,0.01,0.0,0.0,0.0,0.01,0.0,0.0,0.0,0.01,-0.020132308825850487,0.011163126677274704,-0.03753732517361641,0.01,0.0,0.0,0.0,0.01,0.0,0.0,0.0,0.01,0.419931887195073,-9.547145077332853,-1.5499338786534964,0.01,0.0,0.0,0.0,0.01,0.0,0.0,0.0,0.01
1700026579.8753898,60891,1700026579,863295488,gx5_link,0.6309762001037598,0.11699070036411285,0.11531293392181396,0.7582117915153503,0.01,0.0,0.0,0.0,0.01,0.0,0.0,0.0,0.01,-0.032259758561849594,0.002085559070110321,-0.06041361391544342,0.01,0.0,0.0,0.0,0.01,0.0,0.0,0.0,0.01,0.44973764473088085,-9.612247956362365,-1.5690087276101112,0.01,0.0,0.0,0.0,0.01,0.0,0.0,0.0,0.01
1700026579.8852885,60892,1700026579,873305088,gx5_link,0.6307764053344727,0.11723224818706512,0.11511483788490295,0.7583708167076111,0.01,0.0,0.0,0.0,0.01,0.0,0.0,0.0,0.01,-0.04206428304314613,-0.006500120274722576,-0.06475773453712463,0.01,0.0,0.0,0.0,0.01,0.0,0.0,0.0,0.01,0.44820743948891756,-9.65198433894515,-1.6040617746822534,0.01,0.0,0.0,0.0,0.01,0.0,0.0,0.0,0.01
1700026579.9090533,60893,1700026579,883316480,gx5_link,0.6305626034736633,0.11740709096193314,0.11492893844842911,0.7585497498512268,0.01,0.0,0.0,0.0,0.01,0.0,0.0,0.0,0.01,-0.049359261989593506,-0.014470554888248444,-0.05915245786309242,0.01,0.0,0.0,0.0,0.01,0.0,0.0,0.0,0.01,0.4082645745486021,-9.686927642032504,-1.6323615481019018,0.01,0.0,0.0,0.0,0.01,0.0,0.0,0.0,0.01
1700026579.9091015,60894,1700026579,893324800,gx5_link,0.6303274035453796,0.11751454323530197,0.114797443151474,0.758748471736908,0.01,0.0,0.0,0.0,0.01,0.0,0.0,0.0,0.01,-0.05848231539130211,-0.016803817823529243,-0.046273451298475266,0.01,0.0,0.0,0.0,0.01,0.0,0.0,0.0,0.01,0.368292739242129,-9.710111533743143,-1.574183646029979,0.01,0.0,0.0,0.0,0.01,0.0,0.0,0.0,0.01
1700026579.915695,60895,1700026579,903334656,gx5_link,0.6300838589668274,0.11760693043470383,0.11479746550321579,0.7589364051818848,0.01,0.0,0.0,0.0,0.01,0.0,0.0,0.0,0.01,-0.06694620847702026,-0.006993505638092756,-0.026475196704268456,0.01,0.0,0.0,0.0,0.01,0.0,0.0,0.0,0.01,0.36133020675312727,-9.704581372144817,-1.4898786384023726,0.01,0.0,0.0,0.0,0.01,0.0,0.0,0.0,0.01
